UC2_Literal,Report Number,Report Date,Location,Beat,Neigborhood,NPU,Lat,Long,
ROBBERY-PEDESTRIAN,183651614,12/31/2018,132 10TH ST NE,503,Midtown,E,33.78222,-84.3829,
ROBBERY-PEDESTRIAN,183652421,12/31/2018,651 ROBERT ST NW,109,Center Hill,J,33.77283,-84.47212,
ROBBERY-PEDESTRIAN,183650248,12/31/2018,213 FAIRBURN RD NW,111,Adamsville,H,33.76136,-84.50424,
ROBBERY-PEDESTRIAN,183652322,12/31/2018,3150 ROSWELL RD NW,206,South Tuxedo Park,B,33.84097,-84.37929,
ROBBERY-PEDESTRIAN,183650302,12/31/2018,1212 HUFF RD NW,203,Blandtown,D,33.78978,-84.42557,
ROBBERY-RESIDENCE,183652037,12/31/2018,800 W MARIETTA ST NW @METROPOINTE LOFTS,103,English Avenue,L,33.78022,-84.41514,
ROBBERY-COMMERCIAL,183651411,12/31/2018,1215 CAROLINE ST NE,609,Edgewood,O,33.75833,-84.34818,
AGG ASSAULT,183650233,12/31/2018,855 PEACHTREE ST NE,505,Midtown,E,33.77798,-84.38389,
AGG ASSAULT,183650349,12/31/2018,2000 LAKEWOOD AVE,307,Lakewood Heights,Y,33.70087,-84.38725,
AGG ASSAULT,183651714,12/31/2018,2457 MARTIN L KING JR DR NW @HIGHTOWER PLAZA,111,Harland Terrace,I,33.7523,-84.46786,
AGG ASSAULT,183652335,12/31/2018,3128 WATERS RD SW,312,Glenrose Heights,Z,33.66882,-84.39639,
AGG ASSAULT,183651401,12/31/2018,3181 DONALD LEE HOLLOWELL PKWY NW ,113,Brookview Heights,G,33.78652,-84.49013,
AGG ASSAULT,183652177,12/31/2018,320 FAIRBURN RD SW,407,Fairburn Mays,H,33.7451,-84.50858,
AGG ASSAULT,183651784,12/31/2018,1660 STANTON RD SW,408,,R,33.70988,-84.44361,
BURGLARY-RESIDENCE,183651238,12/31/2018,236 CHAPPELL RD NW,105,Hunter Hills,K,33.76155,-84.4337,
BURGLARY-RESIDENCE,183651631,12/31/2018,2318 EWING ST SW,413,Fairburn,P,33.69129,-84.52003,
BURGLARY-RESIDENCE,183651584,12/31/2018,301 PINE ST NW,504,Downtown,M,33.76793,-84.39587,
BURGLARY-RESIDENCE,183651216,12/31/2018,902 OAKLAND DR SW,402,Oakland City,S,33.73048,-84.42694,
BURGLARY-RESIDENCE,183651179,12/31/2018,2500 CENTER ST NW,113,Carey Park,G,33.78999,-84.47156,
BURGLARY-RESIDENCE,183651126,12/31/2018,369 MCDANIEL ST SW,101,The Villages at Castleberry Hill,T,33.74505,-84.40523,
BURGLARY-RESIDENCE,183651697,12/31/2018,426 SUNSET AVE NW,103,English Avenue,L,33.76624,-84.4101,
BURGLARY-NONRES,183650104,12/31/2018,1463 PRYOR RD SW,305,High Point,Y,33.71478,-84.39413,
BURGLARY-RESIDENCE,183651734,12/31/2018,3203 W SHADOWLAWN AVE NE,208,Buckhead Forest,B,33.84317,-84.37459,
BURGLARY-RESIDENCE,183650457,12/31/2018,661 UNIVERSITY AVE SW,301,Adair Park,V,33.72227,-84.40929,
LARCENY-NON VEHICLE,183650689,12/31/2018,50 ALABAMA ST SW,511,Downtown,M,33.75194,-84.38964,
LARCENY-NON VEHICLE,183650683,12/31/2018,1801 HOWELL MILL RD NW,204,Berkeley Park,D,33.80448,-84.41348,
LARCENY-NON VEHICLE,183652271,12/31/2018,2020 BOLTON RD NW,203,Riverside,D,33.81125,-84.47594,
LARCENY-NON VEHICLE,183652121,12/31/2018,1959 LAKEWOOD AVE SE,307,Lakewood Heights,Y,33.70262,-84.38491,
LARCENY-NON VEHICLE,183651752,12/31/2018,807 CASCADE AVE SW,404,Cascade Avenue/Road,S,33.73323,-84.43795,
LARCENY-NON VEHICLE,183651676,12/31/2018,25 PEACHTREE ST SE,510,Downtown,M,33.75445,-84.38954,
LARCENY-NON VEHICLE,183651244,12/31/2018,3393 PEACHTREE RD NE,210,Lenox,B,33.84676,-84.36212,
LARCENY-NON VEHICLE,183651202,12/31/2018,322 GLENN ST SW,303,Mechanicsville,V,33.73797,-84.39846,
LARCENY-NON VEHICLE,183650007,12/31/2018,1801 HOWELL MILL RD NW,204,Berkeley Park,D,33.80388,-84.41278,
LARCENY-FROM VEHICLE,183652390,12/31/2018,1009 MARIETTA ST,501,Marietta Street Artery,E,33.77941,-84.4104,
LARCENY-FROM VEHICLE,183652394,12/31/2018,1450 LA FRANCE ST NE,609,Edgewood,O,33.76066,-84.34017,
LARCENY-FROM VEHICLE,183651996,12/31/2018,255 PETERS ST SW,507,Castleberry Hill,M,33.74747,-84.40182,
LARCENY-FROM VEHICLE,183651983,12/31/2018,1396 BENTEEN PARK DR SE,607,Benteen Park,W,33.71381,-84.36123,
LARCENY-FROM VEHICLE,183651939,12/31/2018,4279 ROSWELL RD NE,208,North Buckhead,B,33.87121,-84.37931,
LARCENY-FROM VEHICLE,183652078,12/31/2018,1720 MARIETTA BLVD NW,203,Hills Park,D,33.80169,-84.43644,
LARCENY-FROM VEHICLE,183651744,12/31/2018,1738 MACARTHUR BLVD NW,203,Bolton,D,33.81326,-84.4448,
LARCENY-FROM VEHICLE,183651938,12/31/2018,1931 VENETIAN DE SW,408,Venetian Hills,S,33.71503,-84.45093,
LARCENY-FROM VEHICLE,183650292,12/31/2018,2101 FAULKNER RD NE,212,Lindridge/Martin Manor,F,33.81209,-84.35749,
LARCENY-FROM VEHICLE,183650125,12/31/2018,1240 W PEACHTREE ST NW,502,Midtown,E,33.78817,-84.3879,
LARCENY-FROM VEHICLE,183650023,12/31/2018,3458 DELMAR LN NW,111,Adamsville,H,33.75703,-84.50073,
LARCENY-FROM VEHICLE,183651248,12/31/2018,768 MARIETTA ST NW,504,Marietta Street Artery,E,33.77331,-84.40403,
LARCENY-FROM VEHICLE,183651651,12/31/2018,600 VIRGINIA AVE NE,506,Virginia Highland,F,33.78151,-84.36713,
LARCENY-FROM VEHICLE,183651634,12/31/2018,349 DECATUR ST SE,604,Sweet Auburn,M,33.74993,-84.37706,
LARCENY-FROM VEHICLE,183651375,12/31/2018,1530 ELLSWORTH INDUSTRIAL BLVD NW,203,Blandtown,D,33.79686,-84.42789,
LARCENY-FROM VEHICLE,183651560,12/31/2018,304 OAKLAND AVE SE,605,Grant Park,W,33.74638,-84.37466,
LARCENY-FROM VEHICLE,183651399,12/31/2018,3167 PEACHTREE RD NE,206,Buckhead Village,B,33.84031,-84.37588,
LARCENY-FROM VEHICLE,183651521,12/31/2018,112 KROG ST NE @RATHBUNS,602,Inman Park,N,33.75644,-84.36472,
LARCENY-FROM VEHICLE,183651514,12/31/2018,784 COLLIER RD NW,205,Wildwood (NPU-C),C,33.8092,-84.41381,
LARCENY-FROM VEHICLE,183651494,12/31/2018,3580 CAMPBELLTON RD SW,413,,P,33.6899,-84.50584,
LARCENY-FROM VEHICLE,183651479,12/31/2018,778 DIXIE AVE NE,602,Inman Park,N,33.75675,-84.36207,
LARCENY-FROM VEHICLE,183651093,12/31/2018,576 WOODWARD AVE SE,605,Grant Park,W,33.74569,-84.36864,
LARCENY-FROM VEHICLE,183650662,12/31/2018,36 LULLWATER PL NE,608,Druid Hills,N,33.77552,-84.33833,
LARCENY-FROM VEHICLE,183650617,12/31/2018,870 MAYSON TURNER RD NW,102,Vine City,L,33.756,-84.41629,
LARCENY-FROM VEHICLE,183650437,12/31/2018,480 WALDO ST SE,605,Grant Park,W,33.74142,-84.3664,
LARCENY-FROM VEHICLE,183650405,12/31/2018,1455 ELLSWORTH INDUSTRIAL BLVD NW,203,Blandtown,D,33.79579,-84.42575,
LARCENY-FROM VEHICLE,183650640,12/31/2018,497 W KILDARE AVE NW,112,Collier Heights,I,33.769,-84.48829,
LARCENY-FROM VEHICLE,183650881,12/31/2018,2625 PIEDMONT RD NE,211,Lindbergh/Morosgo,B,33.82678,-84.36699,
LARCENY-FROM VEHICLE,183651070,12/31/2018,186 CENTENNIAL OLYMPIC P DR NW,508,Downtown,M,33.75991,-84.39217,
LARCENY-FROM VEHICLE,183650941,12/31/2018,175 MEMORIAL DR SE,605,Capitol Gateway,V,33.74679,-84.382,
LARCENY-FROM VEHICLE,183650915,12/31/2018,207 PEACHTREE ST,509,Downtown,M,33.76026,-84.38594,
LARCENY-FROM VEHICLE,183650891,12/31/2018,2671 OLDKNOW DR NW,112,Collier Heights,I,33.77204,-84.47502,
LARCENY-FROM VEHICLE,183650833,12/31/2018,507 BISHOP ST NW,207,Loring Heights,E,33.79257,-84.4046,
LARCENY-FROM VEHICLE,183650809,12/31/2018,799 VERNER ST NW,207,Berkeley Park,D,33.79886,-84.41477,
LARCENY-FROM VEHICLE,183650781,12/31/2018,444 CARTER AVE SE,611,,O,33.73805,-84.30315,
LARCENY-NON VEHICLE,183651711,12/31/2018,2221 PEACHTREE RD NE,211,,E,33.81509,-84.39149,
LARCENY-NON VEHICLE,183651164,12/31/2018,901 MARTIN L KING JR DR NW,102,Vine City,L,33.7548,-84.41671,
LARCENY-NON VEHICLE,183650902,12/31/2018,1094 LORING ST SE,607,Ormewood Park,W,33.73752,-84.35157,
AUTO THEFT,183651013,12/31/2018,2625 PIEDMONT RD NE,211,Lindbergh/Morosgo,B,33.82742,-84.36532,
AUTO THEFT,183651800,12/31/2018,740 SIDNEY MARCUS BLVD NE,211,Lindbergh/Morosgo,B,33.82598,-84.36335,
AUTO THEFT,183651624,12/31/2018,2537 PIEDMONT RD NE,211,Lindbergh/Morosgo,B,33.82403,-84.36328,
AUTO THEFT,183650939,12/31/2018,3120 CAMPBELLTON RD SW,409,Southwest,R,33.69204,-84.49085,
AUTO THEFT,183650810,12/31/2018,3450 ROXBORO RD NE,210,Buckhead Heights,B,33.84862,-84.354,
AUTO THEFT,183652102,12/31/2018,976 OAKLAND DR SW,402,Oakland City,S,33.72827,-84.42686,
AUTO THEFT,183640989,12/30/2018,1460 ELLSWORTH INDUSTRIAL BLVD NW,203,Blandtown,D,33.79619,-84.42714,
AUTO THEFT,183641468,12/30/2018,650 PONCE DE LEON AVE NE @HOME DEPOT - PONCE,506,Midtown,E,33.77469,-84.36561,
AUTO THEFT,183640202,12/30/2018,3405 LENOX RD NE @TERRACE GARDEN INN,210,Lenox,B,33.848,-84.35947,
AUTO THEFT,183640348,12/30/2018,3179 PEACHTREE RD NE @MOONDOGS,206,Buckhead Village,B,33.84103,-84.37544,
AUTO THEFT,183640493,12/30/2018,544 WHITEHALL ST SW,303,Mechanicsville,V,33.74275,-84.40546,
AUTO THEFT,183640698,12/30/2018,655 CLEVELAND AVE SW,309,Perkerson,X,33.6824,-84.41029,
AUTO THEFT,183640811,12/30/2018,570 WINDSOR ST SW,303,Mechanicsville,V,33.73914,-84.3982,
AUTO THEFT,183640844,12/30/2018,1752 PRYOR RD SW,307,Betmar LaVilla,Y,33.70731,-84.39674,
AUTO THEFT,183640769,12/30/2018,2429 BOLTON RD NW,203,Bolton,D,33.82065,-84.45537,
AUTO THEFT,183641908,12/30/2018,4511 CAMPBELLTON RD SW,412,,P,33.69625,-84.53567,
LARCENY-NON VEHICLE,183641407,12/30/2018,195 FAIRBURN,109,Adamsville,H,33.76126,-84.50433,
LARCENY-NON VEHICLE,183641459,12/30/2018,839 CLEVELAND AVE,309,Perkerson,X,33.68169,-84.41632,
LARCENY-NON VEHICLE,183648020,12/30/2018,6000 NORTH TERMINAL PKWY,706,,,33.64184,-84.4477,
LARCENY-NON VEHICLE,183641888,12/30/2018,192 PEACHTREE CENTER AVE NE,510,Downtown,M,33.75942,-84.3865,
LARCENY-NON VEHICLE,183640994,12/30/2018,1907 METROPOLITAN PKWY SW,306,Sylvan Hills,X,33.70218,-84.40817,
AUTO THEFT,183632026,12/30/2018,1643 BARRETT DR NW ,113,Bolton Hills,G,33.80056,-84.48404,
LARCENY-FROM VEHICLE,183610761,12/30/2018,3464 LAKESIDE DR NE,210,Buckhead Heights,B,33.84853,-84.35684,
LARCENY-FROM VEHICLE,183641308,12/30/2018,17 BAKER ST NW,508,Downtown,M,33.76235,-84.38819,
LARCENY-FROM VEHICLE,183641266,12/30/2018,3450 ROXBORO RD NE,210,Buckhead Heights,B,33.84862,-84.354,
LARCENY-FROM VEHICLE,183641253,12/30/2018,3655 ROSWELL RD NE,209,North Buckhead,B,33.85547,-84.38135,
LARCENY-FROM VEHICLE,183641223,12/30/2018,529 LARKIN ST SW,507,Castleberry Hill,M,33.74809,-84.40473,
LARCENY-FROM VEHICLE,183641166,12/30/2018,275 BAKER ST NW,508,Downtown,M,33.76171,-84.39569,
LARCENY-FROM VEHICLE,183641164,12/30/2018,3221 PEACHTREE RD NE,206,Buckhead Village,B,33.84218,-84.37344,
LARCENY-FROM VEHICLE,183641487,12/30/2018,1544 PIEDMONT AVE NE @PUBLIX - ANSLEY,213,Piedmont Heights,F,33.79789,-84.37101,
LARCENY-FROM VEHICLE,183641435,12/30/2018,1935 ALISON COUR,409,Fort Valley,R,33.70055,-84.45149,
LARCENY-FROM VEHICLE,183641318,12/30/2018,2625 PIEDMONT RD NE,211,Lindbergh/Morosgo,B,33.82678,-84.36699,
LARCENY-FROM VEHICLE,183641748,12/30/2018,180 WALKER ST SW,507,Castleberry Hill,M,33.74964,-84.40132,
LARCENY-FROM VEHICLE,183641816,12/30/2018,80 JESSE HILL JR DR NE,510,Downtown,M,33.75657,-84.38034,
LARCENY-FROM VEHICLE,183641810,12/30/2018,3652 ROSWELL RD NW @LANDMARK DINER,202,Tuxedo Park,A,33.85409,-84.38301,
LARCENY-FROM VEHICLE,183641903,12/30/2018,1380 ATLANTIC DR NW @PUBLIX - ATLANTIC,501,Atlantic Station,E,33.79282,-84.39779,
LARCENY-FROM VEHICLE,183641656,12/30/2018,1209 FOUNTAIN DR,104,Just Us,T,33.75268,-84.42461,
LARCENY-FROM VEHICLE,183641082,12/30/2018,230 10TH ST NE,502,Midtown,E,33.78187,-84.37981,
LARCENY-FROM VEHICLE,183640908,12/30/2018,2685 METROPOLITAN PKWY SW,309,Perkerson,X,33.68274,-84.40902,
LARCENY-FROM VEHICLE,183640897,12/30/2018,2430 PIEDMONT RD NE,211,Lindbergh/Morosgo,B,33.82175,-84.36792,
LARCENY-FROM VEHICLE,183640860,12/30/2018,3393 PEACHTREE RD NE,210,Lenox,B,33.84676,-84.36212,
LARCENY-FROM VEHICLE,183640834,12/30/2018,970 SPRING ST NW,503,Midtown,E,33.78151,-84.38917,
LARCENY-FROM VEHICLE,183640792,12/30/2018,1035 FLEETWOOD CIR SW,406,Beecher Hills,I,33.73584,-84.45968,
LARCENY-FROM VEHICLE,183640782,12/30/2018,171 AUBURN AVE NE,510,Downtown,M,33.75546,-84.38185,
LARCENY-FROM VEHICLE,183640694,12/30/2018,877 VICTORIA PL SW,401,West End,T,33.73446,-84.4163,
LARCENY-FROM VEHICLE,183640851,12/30/2018,1545 NORTHSIDE DR NW,207,Loring Heights,E,33.79746,-84.40773,
LARCENY-FROM VEHICLE,183640160,12/30/2018,659 PEACHTREE ST NE @GEORGIAN TERRACE,505,Midtown,E,33.77258,-84.38449,
LARCENY-FROM VEHICLE,183640063,12/30/2018,338 PETERS ST SW,507,Castleberry Hill,M,33.74552,-84.40339,
LARCENY-FROM VEHICLE,183640508,12/30/2018,960 CONSTITUTION RD SE,308,Norwood Manor,Z,33.69307,-84.35805,
LARCENY-FROM VEHICLE,183640643,12/30/2018,215 NORTH AVE NE,603,Old Fourth Ward,M,33.77117,-84.38025,
LARCENY-FROM VEHICLE,183640692,12/30/2018,704 HORTENSE PL NW,110,Grove Park,J,33.77409,-84.44103,
LARCENY-NON VEHICLE,183641655,12/30/2018,25 PEACHTREE ST SE,510,Downtown,M,33.75366,-84.39047,
LARCENY-NON VEHICLE,183641697,12/30/2018,1801 HOWELL MILL RD NW,204,Berkeley Park,D,33.80388,-84.41278,
LARCENY-NON VEHICLE,183641780,12/30/2018,835 MARTIN L KING JR DR NW,102,Vine City,L,33.75504,-84.41457,
LARCENY-NON VEHICLE,183641554,12/30/2018,1938 METROPOLITAN PKWY SW,306,Sylvan Hills,X,33.70131,-84.40797,
LARCENY-NON VEHICLE,183640978,12/30/2018,3500 MARTIN L KING JR DR SW,407,Adamsville,H,33.75735,-84.50282,
LARCENY-NON VEHICLE,183640968,12/30/2018,1275 CAROLINE ST NE @TARGET - CAROLINE,609,Edgewood,O,33.75674,-84.34619,
LARCENY-NON VEHICLE,183641374,12/30/2018,3050 MARTIN L KING JR DR SW,405,Harland Terrace,I,33.75177,-84.4857,
LARCENY-NON VEHICLE,183641493,12/30/2018,867 PEACHTREE ST NE,505,Midtown,E,33.77829,-84.38421,
BURGLARY-RESIDENCE,183640623,12/30/2018,36 MORELAND AVE NE,606,Reynoldstown,N,33.75443,-84.34955,
BURGLARY-RESIDENCE,183641085,12/30/2018,3410 MOUNT GILEAD RD SW,412,Mt. Gilead Woods,P,33.69938,-84.5016,
BURGLARY-RESIDENCE,183641735,12/30/2018,1406 DESOTO AVE SW,301,Capitol View,X,33.71649,-84.41162,
BURGLARY-RESIDENCE,183641864,12/30/2018,1552 BEATIE AVE SW,301,Capitol View,X,33.71277,-84.41066,
BURGLARY-RESIDENCE,183641927,12/30/2018,1911 SUMTER ST NW,203,Bolton,D,33.815,-84.45031,
BURGLARY-RESIDENCE,183641941,12/30/2018,300 MARTIN L KING JR DR SE,605,Oakland,W,33.74749,-84.37762,
BURGLARY-RESIDENCE,183641783,12/30/2018,2413 BAKER RD,109,Center Hill,J,33.76966,-84.46627,
BURGLARY-RESIDENCE,183640277,12/30/2018,1993 BENT CREEK WAY SW,410,Campbellton Road,R,33.70084,-84.46568,
BURGLARY-RESIDENCE,183641024,12/30/2018,2211 PANSY ST NW,108,Dixie Hills,J,33.75807,-84.45994,
AGG ASSAULT,183640052,12/30/2018,691 UNIVERSITY AVE SW,301,Adair Park,V,33.72228,-84.40998,
AGG ASSAULT,183641343,12/30/2018,168 WESTVIEW PL SW,104,Mozley Park,K,33.75058,-84.43442,
AGG ASSAULT,183641948,12/30/2018,176 FAIRBURN RD NW,111,Adamsville,H,33.76057,-84.50534,
AGG ASSAULT,183641387,12/30/2018,1181 JOSEPH E BOONE BLVD NW,106,Bankhead,K,33.76426,-84.42637,
AGG ASSAULT,183641583,12/30/2018,1185 SELLS AVE SW,104,West End,T,33.74541,-84.42646,
ROBBERY-PEDESTRIAN,183641731,12/30/2018,2453 CORONET WAY NW,201,,C,33.8209,-84.44958,
ROBBERY-COMMERCIAL,183641195,12/30/2018,1117 EUCLID AVE NE,602,Inman Park,N,33.76427,-84.35022,
ROBBERY-RESIDENCE,183640505,12/30/2018,2639 LAURENS CIR SW,409,Laurens Valley,R,33.70983,-84.47845,
ROBBERY-PEDESTRIAN,183641835,12/30/2018,1313 W PACES FERRY RD NW,202,Randall Mill,A,33.84933,-84.43048,
ROBBERY-PEDESTRIAN,183632114,12/30/2018,1084 KATHERWOOD DR SW,306,Sylvan Hills,X,33.71006,-84.42383,
ROBBERY-PEDESTRIAN,183641647,12/30/2018,2798 PEEK RD NW,112,Collier Heights,I,33.77743,-84.47815,
HOMICIDE,183640023,12/30/2018,1025 SIMS AVE NW,110,Grove Park,J,33.78225,-84.45237,
ROBBERY-PEDESTRIAN,183631897,12/29/2018,3376 LAKE VALLEY RD NW,111,Oakcliff,H,33.76397,-84.49825,
ROBBERY-PEDESTRIAN,183630123,12/29/2018,781 CENTRAL AVE SW,303,Mechanicsville,V,33.73366,-84.39363,
ROBBERY-PEDESTRIAN,183631360,12/29/2018,4511 CAMPBELLTON RD SW,412,,P,33.69625,-84.53567,
ROBBERY-RESIDENCE,183621764,12/29/2018,800 W MARIETTA ST NW,103,English Avenue,L,33.78022,-84.41514,
AGG ASSAULT,183630199,12/29/2018,CAMPBELLTON RD SW / BENT CREEK WAY SW,409,Campbellton Road,R,33.70378,-84.46667,
AGG ASSAULT,183632021,12/29/2018,200 CLEVELAND AVE SW,311,Glenrose Heights,Z,33.68081,-84.39492,
AGG ASSAULT,183631903,12/29/2018,1975 NORTH AVE NW,107,Grove Park,J,33.76879,-84.45246,
AGG ASSAULT,183631996,12/29/2018,1134 REGIS RD SE,308,Leila Valley,Z,33.6905,-84.35158,
AGG ASSAULT,183632029,12/29/2018,232 FORSYTH ST SW @GREYHOUND BUS DEPOT,512,Downtown,M,33.74852,-84.39636,
AGG ASSAULT,183630099,12/29/2018,532 CLEVELAND AVE SW,311,Hammond Park,X,33.68116,-84.4059,
BURGLARY-RESIDENCE,183631611,12/29/2018,3236 SPREADING OAK DR SW,406,East Ardley Road,I,33.73064,-84.49409,
BURGLARY-RESIDENCE,183631965,12/29/2018,731 STOKESWOOD AVE SE,612,East Atlanta,W,33.73416,-84.345,
BURGLARY-RESIDENCE,183631615,12/29/2018,532 CLEVELAND AVE SW,311,Hammond Park,X,33.68116,-84.4059,
LARCENY-NON VEHICLE,183631173,12/29/2018,1380 ATLANTIC DR NW @PUBLIX - ATLANTIC,501,Atlantic Station,E,33.79282,-84.39779,
LARCENY-NON VEHICLE,183631044,12/29/2018,516 LEE ST SW,401,West End,T,33.74087,-84.41346,
LARCENY-NON VEHICLE,183630894,12/29/2018,1938 METROPOLITAN PKWY SW,306,Sylvan Hills,X,33.70131,-84.40797,
LARCENY-NON VEHICLE,183630879,12/29/2018,1275 CAROLINE ST NE @TARGET - CAROLINE,609,Edgewood,O,33.75674,-84.34619,
LARCENY-NON VEHICLE,183631572,12/29/2018,3440 PEACHTREE RD NE,208,North Buckhead,B,33.85166,-84.36235,
LARCENY-NON VEHICLE,183630241,12/29/2018,1860 MEMORIAL DR SE,610,Kirkwood,O,33.74774,-84.32665,
LARCENY-NON VEHICLE,183631131,12/29/2018,186 COURTLAND ST NE,510,Downtown,M,33.75939,-84.38431,
BURGLARY-NONRES,183630156,12/29/2018,3163 ROSWELL RD NE,208,Buckhead Forest,B,33.84144,-84.37828,
LARCENY-FROM VEHICLE,183631011,12/29/2018,2833 KATHRYN CIR SW,414,Deerwood,P,33.67708,-84.51022,
LARCENY-FROM VEHICLE,183631009,12/29/2018,1663 N ROCK SPRINGS RD NE,213,Morningside/Lenox Park,F,33.80005,-84.36242,
LARCENY-FROM VEHICLE,183630960,12/29/2018,1735 DEFOOR PL NW,204,Underwood Hills,D,33.80224,-84.42161,
LARCENY-FROM VEHICLE,183630680,12/29/2018,776 AZALIA STREET SW,401,West End,T,33.7338,-84.41896,
LARCENY-FROM VEHICLE,183630849,12/29/2018,255 COURTLAND ST NE @HILTON HOTEL,509,Downtown,M,33.76157,-84.38314,
LARCENY-FROM VEHICLE,183631956,12/29/2018,2050 SYLVAN RD SW,306,Sylvan Hills,X,33.69852,-84.41798,
LARCENY-FROM VEHICLE,183631924,12/29/2018,1738 MACARTHUR BLVD NW,203,Bolton,D,33.81326,-84.4448,
LARCENY-FROM VEHICLE,183631869,12/29/2018,1950 HOWELL MILL RD NW,205,Wildwood (NPU-C),C,33.80838,-84.41356,
LARCENY-FROM VEHICLE,183631859,12/29/2018,2235 DEFOOR HILLS RD NW,204,Underwood Hills,D,33.81634,-84.43376,
LARCENY-FROM VEHICLE,183631849,12/29/2018,1075 PEACHTREE ST NE,503,Midtown,E,33.78363,-84.38295,
LARCENY-FROM VEHICLE,183632103,12/29/2018,2233 PEACHTREE RD NE,211,,E,33.8153,-84.39131,
LARCENY-FROM VEHICLE,183631761,12/29/2018,493 MAGNOLIA ST NW,102,Vine City,L,33.7583,-84.40401,
LARCENY-FROM VEHICLE,183631632,12/29/2018,488 NELSON ST SW,507,Castleberry Hill,M,33.7503,-84.40356,
LARCENY-FROM VEHICLE,183631594,12/29/2018,634 WHITEHALL ST SW,303,Adair Park,V,33.74179,-84.40844,
LARCENY-FROM VEHICLE,183631837,12/29/2018,1735 DEFOOR PL NW,204,Underwood Hills,D,33.80224,-84.42161,
LARCENY-FROM VEHICLE,183631435,12/29/2018,590 CASCADE AVE SW @KROGER - CASCADE,402,West End,T,33.73812,-84.43276,
LARCENY-FROM VEHICLE,183631585,12/29/2018,134 HOWELL ST NE,604,Old Fourth Ward,M,33.75796,-84.37017,
LARCENY-FROM VEHICLE,183630135,12/29/2018,1015 W MARIETTA ST NW,106,Knight Park/Howell Station,K,33.78518,-84.42022,
LARCENY-FROM VEHICLE,183630435,12/29/2018,1888 EMERY ST NW,205,Wildwood (NPU-C),C,33.80701,-84.41444,
LARCENY-FROM VEHICLE,183630275,12/29/2018,165 COURTLAND ST NE,510,Downtown,M,33.75892,-84.3841,
LARCENY-FROM VEHICLE,183630658,12/29/2018,1356 GIDEONS DR SW,104,Mozley Park,K,33.75203,-84.43194,
LARCENY-FROM VEHICLE,183630141,12/29/2018,CHAMBERLAIN ST SE / WILLIAM HOLMES BORDERS DR SE,604,Sweet Auburn,M,33.75384,-84.37554,
LARCENY-FROM VEHICLE,183630676,12/29/2018,1390 NORTHSIDE DR NW,207,Berkeley Park,D,33.79259,-84.40878,
LARCENY-NON VEHICLE,183630864,12/29/2018,1544 PIEDMONT AVE NE @ANSLEY MALL,213,Piedmont Heights,F,33.79789,-84.37101,
LARCENY-FROM VEHICLE,183621900,12/29/2018,1991 HOWELL MILL RD,205,Channing Valley,C,33.80944,-84.41286,
LARCENY-FROM VEHICLE,183531964,12/29/2018,2770 LENOX RD NE,210,Pine Hills,B,33.83092,-84.35683,
LARCENY-FROM VEHICLE,183631128,12/29/2018,3144 ABBEY DR SW,414,Princeton Lakes,P,33.66463,-84.51095,
LARCENY-FROM VEHICLE,183630806,12/29/2018,1005 LEE ST SW,402,Oakland City,S,33.72724,-84.41795,
LARCENY-NON VEHICLE,183630929,12/29/2018,1528 RALPH D ABERNATHY BLVD SW,404,Westview,T,33.74302,-84.4376,
AUTO THEFT,183631592,12/29/2018,238 HOLDERNESS ST SW,104,Ashview Heights,T,33.7482,-84.42625,
AUTO THEFT,183631137,12/29/2018,3405 LENOX RD ,210,Lenox,B,33.848,-84.35947,
AUTO THEFT,183631272,12/29/2018,3097 MAPLE DR NE,206,Buckhead Village,B,33.83977,-84.37198,
AUTO THEFT,183631798,12/29/2018,3030 HEADLAND DR SW,411,Greenbriar,R,33.68841,-84.48742,
AUTO THEFT,183621514,12/29/2018,2251 MARIETTA BLVD NW,201,,C,33.81831,-84.44881,
AUTO THEFT,183630752,12/29/2018,3334 PEACHTREE RD NE @ONE BUCKHEAD LOOP,208,North Buckhead,B,33.84911,-84.37075,
AUTO THEFT,183630802,12/29/2018,3405 LENOX RD ,210,Lenox,B,33.848,-84.35947,
AUTO THEFT,183630935,12/29/2018,3405 LENOX RD ,210,Lenox,B,33.848,-84.35947,
AUTO THEFT,183630257,12/29/2018,LARKIN ST SW / WALKER ST SW,507,Castleberry Hill,M,33.74796,-84.4028,
AUTO THEFT,183630239,12/29/2018,2195 MONROE DR NE,212,Piedmont Heights,F,33.81062,-84.37139,
AUTO THEFT,183630571,12/29/2018,1048 WEST AVE SW,302,Pittsburgh,V,33.72608,-84.39561,
AUTO THEFT,183631936,12/29/2018,3040 PIEDMONT RD NE,206,Buckhead Village,B,33.8379,-84.36906,
AUTO THEFT,183631883,12/29/2018,1065 PEACHTREE ST NE,503,Midtown,E,33.78363,-84.38295,
LARCENY-NON VEHICLE,183631667,12/29/2018,10TH ST NE / PEACHTREE ST NE,503,Midtown,E,33.78171,-84.38401,
LARCENY-NON VEHICLE,183630246,12/29/2018,3500 PEACHTREE RD NE,208,North Buckhead,B,33.85252,-84.36116,
LARCENY-NON VEHICLE,183631187,12/29/2018,119 LEBRUN ROAD,209,East Chastain Park,B,33.86045,-84.38339,
LARCENY-NON VEHICLE,183631601,12/29/2018,2284 CHESHIRE BRIDGE RD NE,212,Lindridge/Martin Manor,F,33.81757,-84.35207,
LARCENY-NON VEHICLE,183630603,12/29/2018,216 Peachtree St NE,508,Hunter Hills,K,33.76342,-84.42645,
LARCENY-NON VEHICLE,183621059,12/28/2018,1493 WILLIS MILL RD SW,409,Cascade Heights,I,33.7151,-84.46897,
LARCENY-NON VEHICLE,183621219,12/28/2018,2044 LENOX RD NE,213,Lindridge/Martin Manor,F,33.81074,-84.35222,
LARCENY-NON VEHICLE,183620552,12/28/2018,166 ARTHUR LANGFORD WB PKWY SW ,307,Polar Rock,Z,33.69851,-84.39315,
LARCENY-NON VEHICLE,183620534,12/28/2018,1220 MECASLIN ST NW,501,Home Park,E,33.78791,-84.39991,
LARCENY-NON VEHICLE,183620955,12/28/2018,1058 HOWELL MILL RD NW,501,Home Park,E,33.78345,-84.4119,
LARCENY-NON VEHICLE,183621069,12/28/2018,2860 OLDKNOW DR NW,112,Collier Heights,I,33.77158,-84.48134,
LARCENY-NON VEHICLE,183621579,12/28/2018,1131 HUBBARD ST SW,302,Pittsburgh,V,33.72388,-84.40253,
LARCENY-NON VEHICLE,183620898,12/28/2018,766 W PEACHTREE ST NW,505,Midtown,E,33.77559,-84.38776,
LARCENY-NON VEHICLE,183621768,12/28/2018,2379 SPRINGDALE CIR SW,309,Perkerson,X,33.68993,-84.41585,
AUTO THEFT,183620376,12/28/2018,490 FAIRBURN RD SW,407,Fairburn Mays,H,33.74107,-84.50997,
AUTO THEFT,183620060,12/28/2018,1176 CHATTAHOOCHEE AVE NW,203,Blandtown,D,33.80058,-84.42561,
AUTO THEFT,183621696,12/28/2018,2251 MARIETTA BLVD NW,201,,C,33.81831,-84.44881,
AUTO THEFT,183621704,12/28/2018,2841 GREENBRIAR PKWY SW @GREENBRIAR MALL,411,Greenbriar,R,33.68677,-84.49773,
AUTO THEFT,183621363,12/28/2018,2079 BAKER RD NW,107,Grove Park,J,33.77044,-84.45581,
AUTO THEFT,183621985,12/28/2018,2225 CHESHIRE BRIDGE RD NE,213,Lindridge/Martin Manor,F,33.81592,-84.35224,
AUTO THEFT,183620812,12/28/2018,1982 BREWER BLVD SW,306,Sylvan Hills,X,33.70034,-84.41168,
AUTO THEFT,183620849,12/28/2018,3200 STONE RD SW,411,Greenbriar,R,33.6697,-84.49403,
AUTO THEFT,183620639,12/28/2018,2800 MARTIN LUTHER KING JR DRIVE SW,405,Harland Terrace,I,33.75431,-84.4793,
AUTO THEFT,183621977,12/28/2018,245 AMAL DR SW,307,Betmar LaVilla,Y,33.70612,-84.39573,
LARCENY-FROM VEHICLE,183621123,12/28/2018,2161 COLLEGE AVE NE,610,Kirkwood,O,33.76408,-84.31645,
LARCENY-FROM VEHICLE,183622083,12/28/2018,163 PETERS ST SW,507,Castleberry Hill,M,33.75021,-84.39844,
LARCENY-FROM VEHICLE,183622056,12/28/2018,1425 ELLSWORTH INDUSTRIAL BLVD,203,South Tuxedo Park,B,33.84331,-84.38402,
LARCENY-FROM VEHICLE,183621699,12/28/2018,1133 HUFF RD NW,203,Blandtown,D,33.78978,-84.42557,
LARCENY-FROM VEHICLE,183620045,12/28/2018,752 N HIGHLAND AVE NE,601,Virginia Highland,F,33.77498,-84.35291,
LARCENY-FROM VEHICLE,183620007,12/28/2018,2345 CHESHIRE BRIDGE RD NE,212,Midtown,E,33.78063,-84.36828,
LARCENY-FROM VEHICLE,183621325,12/28/2018,898 OAK ST SW,401,West End,T,33.74057,-84.41738,
LARCENY-FROM VEHICLE,183621446,12/28/2018,220 26TH ST NW,207,Brookwood,E,33.80312,-84.4011,
LARCENY-FROM VEHICLE,183621425,12/28/2018,2001 JAMES JACKSON PKWY NW,203,Riverside,D,33.81063,-84.47569,
LARCENY-FROM VEHICLE,183621523,12/28/2018,2348 CASCADE RD SW,409,Adams Park,R,33.72146,-84.46522,
LARCENY-FROM VEHICLE,183621319,12/28/2018,1838 METROPOLITAN PKWY SW,306,Sylvan Hills,X,33.70425,-84.40698,
LARCENY-FROM VEHICLE,183621282,12/28/2018,1620 HOLLYWOOD RD,110,Scotts Crossing,G,33.79939,-84.47179,
LARCENY-FROM VEHICLE,183621698,12/28/2018,1720 MARIETTA BLVD,203,Hills Park,D,33.80169,-84.43644,
LARCENY-FROM VEHICLE,183621614,12/28/2018,360 MARIETTA ST NW,507,Downtown,M,33.76269,-84.39702,
LARCENY-FROM VEHICLE,183621483,12/28/2018,12 ATLANTA AVENUE SE,304,Peoplestown,V,33.73048,-84.38742,
LARCENY-FROM VEHICLE,183621563,12/28/2018,1600 ELLSWORTH INDUSTRIAL BLVD NW,203,Hills Park,D,33.80231,-84.43238,
LARCENY-FROM VEHICLE,183621032,12/28/2018,1356 CHATTAHOOCHEE AVE NW,205,Blandtown,D,33.79826,-84.42811,
LARCENY-FROM VEHICLE,183621017,12/28/2018,1341 COLLIER RD NW,204,Underwood Hills,D,33.81154,-84.43164,
LARCENY-FROM VEHICLE,183620958,12/28/2018,1480 CHATTAHOOCHEE AVE NW ,204,Hills Park,D,33.80809,-84.4361,
LARCENY-FROM VEHICLE,183620947,12/28/2018,1071 HOWELL MILL RD NW,501,Home Park,E,33.78412,-84.41124,
LARCENY-FROM VEHICLE,183621184,12/28/2018,1400 DONALD LEE HOLLOWELL PKWY NW,106,Bankhead,K,33.77125,-84.43359,
LARCENY-FROM VEHICLE,183621134,12/28/2018,490 WHITEHALL ST SW,507,Castleberry Hill,M,33.74348,-84.40341,
LARCENY-FROM VEHICLE,183621088,12/28/2018,1587 HOWELL MILL RD ,207,Berkeley Park,D,33.7996,-84.41601,
LARCENY-FROM VEHICLE,183621045,12/28/2018,3714 ROSWELL RD NE,209,East Chastain Park,B,33.85821,-84.3827,
LARCENY-FROM VEHICLE,183620624,12/28/2018,1246 GLENWOOD AVE,612,East Atlanta,W,33.74036,-84.34687,
LARCENY-FROM VEHICLE,183620575,12/28/2018,741 MOROSGO DR NE,211,Lindbergh/Morosgo,B,33.82266,-84.3643,
LARCENY-FROM VEHICLE,183620689,12/28/2018,210 PEACHTREE ST NW @PEACHTREE PLAZA HOT,508,Downtown,M,33.75943,-84.38837,
LARCENY-FROM VEHICLE,183620505,12/28/2018,360 PHARR RD NE,206,Buckhead Village,B,33.83752,-84.37574,
LARCENY-FROM VEHICLE,183620144,12/28/2018,1438 N MORNINGSIDE DR NE,213,Morningside/Lenox Park,F,33.7936,-84.3582,
LARCENY-FROM VEHICLE,183620570,12/28/2018,1101 JUNIPER ST NE,503,Midtown,E,33.78465,-84.3821,
LARCENY-FROM VEHICLE,183620907,12/28/2018,283 CARLYLE PARK DR NE,609,Edgewood,O,33.76053,-84.33699,
LARCENY-FROM VEHICLE,183620893,12/28/2018,3215 CAINS HILL PL NW,206,South Tuxedo Park,B,33.84233,-84.38044,
LARCENY-FROM VEHICLE,183620890,12/28/2018,2108 OLD GEORGIAN TER NW,203,Whittier Mill Village,D,33.8131,-84.48174,
LARCENY-FROM VEHICLE,183620683,12/28/2018,570 SPRING ST NW,509,Downtown,M,33.77028,-84.38939,
LARCENY-FROM VEHICLE,183620078,12/28/2018,782 PEACHTREE ST NE,505,Midtown,E,33.77585,-84.38505,
LARCENY-FROM VEHICLE,183620842,12/28/2018,1910 MACARTHUR BLVD NW,203,Bolton,D,33.81271,-84.44993,
LARCENY-FROM VEHICLE,183620821,12/28/2018,1860 PEACHTREE RD NW,207,Ardmore,E,33.80586,-84.39439,
LARCENY-FROM VEHICLE,183620785,12/28/2018,968 MEMORIAL DR SE,606,Reynoldstown,N,33.74676,-84.35595,
LARCENY-FROM VEHICLE,183620738,12/28/2018,31 BAKER ST NW,508,Downtown,M,33.76257,-84.38867,
LARCENY-FROM VEHICLE,183620726,12/28/2018,180 WALKER ST SW,507,Castleberry Hill,M,33.74964,-84.40132,
LARCENY-FROM VEHICLE,183620884,12/28/2018,826 MARIETTA ST NW,504,Marietta Street Artery,E,33.77477,-84.4067,
LARCENY-FROM VEHICLE,183621835,12/28/2018,1000 NORTHSIDE DR NW,501,Home Park,E,33.78196,-84.40835,
LARCENY-FROM VEHICLE,183621820,12/28/2018,3424 PEACHTREE RD NE,208,North Buckhead,B,33.85153,-84.36486,
LARCENY-FROM VEHICLE,183621806,12/28/2018,17 BAKER ST NW,508,Downtown,M,33.76235,-84.38819,
LARCENY-FROM VEHICLE,183621769,12/28/2018,768 MARIETTA ST NW,504,Marietta Street Artery,E,33.77331,-84.40403,
LARCENY-FROM VEHICLE,183621923,12/28/2018,1962 HOWELL MILL RD NW,205,Wildwood (NPU-C),C,33.80831,-84.41287,
LARCENY-FROM VEHICLE,183621846,12/28/2018,4475 ROSWELL RD NE,209,North Buckhead,B,33.87728,-84.37949,
LARCENY-FROM VEHICLE,183621910,12/28/2018,1000 NORTHSIDE DR NW,501,Home Park,E,33.78194,-84.40758,
BURGLARY-NONRES,183620705,12/28/2018,239 WALKER ST SW,507,Castleberry Hill,M,33.7483,-84.40292,
BURGLARY-NONRES,183620086,12/28/2018,51 ELLIOTT ST SW,507,Castleberry Hill,M,33.75322,-84.39821,
BURGLARY-NONRES,183620998,12/28/2018,955 HANK AARON DR SW,304,Peoplestown,V,33.72851,-84.38832,
LARCENY-NON VEHICLE,183620883,12/28/2018,2275 MARIETTA BLVD NW,201,,C,33.81857,-84.4498,
LARCENY-NON VEHICLE,183621861,12/28/2018,535 LEE ST,402,West End,T,33.74042,-84.41435,
LARCENY-NON VEHICLE,183620926,12/28/2018,835 MARTIN LUTHER KING JR DR NW ,102,Vine City,L,33.75504,-84.41457,
LARCENY-NON VEHICLE,183621550,12/28/2018,565 JOSEPH E LOWERY BLVD SW,401,West End,T,33.73969,-84.41828,
LARCENY-NON VEHICLE,183620891,12/28/2018,2841 GREENBRIAR PARKWAY,411,Greenbriar,R,33.68677,-84.49773,
BURGLARY-RESIDENCE,183621897,12/28/2018,3378 GREENBRIAR PKWY SW,413,,P,33.68387,-84.50204,
BURGLARY-RESIDENCE,183620816,12/28/2018,681 UNIVERSITY AVE SW,301,Adair Park,V,33.72227,-84.40975,
BURGLARY-RESIDENCE,183621206,12/28/2018,1788 MOORES MILL RD NW,201,Ridgewood Heights,C,33.8245,-84.44596,
BURGLARY-RESIDENCE,183620238,12/28/2018,633 SANDYS LN SE,313,South River Gardens,Z,33.67067,-84.3684,
BURGLARY-RESIDENCE,183620121,12/28/2018,2735 SANTA BARBARA DR NW,112,Collier Heights,I,33.7667,-84.47528,
BURGLARY-RESIDENCE,183620868,12/28/2018,643 CENTER HILL AVE NW,109,Center Hill,J,33.77258,-84.46368,
BURGLARY-RESIDENCE,183621406,12/28/2018,237 SUNSET AVE NW,102,Vine City,L,33.76106,-84.40971,
ROBBERY-PEDESTRIAN,183621998,12/28/2018,811 JUNIPER ST NE @PYSC INST OF ATLANT,505,Midtown,E,33.77651,-84.38245,
ROBBERY-COMMERCIAL,183620653,12/28/2018,1938 METROPOLITAN PKWY SW,306,Sylvan Hills,X,33.70131,-84.40797,
ROBBERY-PEDESTRIAN,183621934,12/28/2018,898 MCDANIEL ST SW,302,Pittsburgh,V,33.73041,-84.40144,
ROBBERY-PEDESTRIAN,183611713,12/27/2018,134 RENAISSANCE PKWY NE,509,Downtown,M,33.76872,-84.38273,
AGG ASSAULT,183611512,12/27/2018,475 LYNNHAVEN DR SW,301,Capitol View Manor,X,33.71601,-84.40329,
BURGLARY-RESIDENCE,183611767,12/27/2018,818 EASTWOOD AVE SE,607,Ormewood Park,W,33.73208,-84.35399,
BURGLARY-RESIDENCE,183610967,12/27/2018,779 MAGNOLIA WAY NW,102,Vine City,L,33.75822,-84.41371,
AGG ASSAULT,183611691,12/27/2018,1866 BRANDYWINE ST SW,306,Sylvan Hills,X,33.70392,-84.41681,
AGG ASSAULT,183611865,12/27/2018,2916 GRAND AVE SW,311,Hammond Park,X,33.67533,-84.40248,
AGG ASSAULT,183611743,12/27/2018,2175 PIEDMONT RD NE,211,Lindridge/Martin Manor,F,33.81716,-84.36632,
BURGLARY-NONRES,183610756,12/27/2018,464 BISHOP ST NW,207,Loring Heights,E,33.79291,-84.40267,
BURGLARY-RESIDENCE,183610413,12/27/2018,87 HARWELL RD NW,111,,I,33.7545,-84.49282,
BURGLARY-RESIDENCE,183610754,12/27/2018,507 BISHOP ST NW,207,Loring Heights,E,33.79257,-84.4046,
BURGLARY-RESIDENCE,183610455,12/27/2018,950 MARIETTA ST NW,504,Marietta Street Artery,E,33.77689,-84.40807,
BURGLARY-RESIDENCE,183611342,12/27/2018,350 THOMASVILLE BLVD SE,308,Thomasville Heights,Z,33.70605,-84.35684,
BURGLARY-RESIDENCE,183611453,12/27/2018,1465 MCPHERSON AVE SE,612,East Atlanta,W,33.74386,-84.33976,
BURGLARY-NONRES,183611328,12/27/2018,3150 ROSWELL RD NW,206,South Tuxedo Park,B,33.84097,-84.37929,
LARCENY-NON VEHICLE,183611807,12/27/2018,2840 GREENBRIAR PKWY SW,411,Greenbriar,R,33.68764,-84.48965,
LARCENY-NON VEHICLE,183611754,12/27/2018,1801 HOWELL MILL RD NW,204,Berkeley Park,D,33.80388,-84.41278,
LARCENY-NON VEHICLE,183611959,12/27/2018,3393 PEACHTREE RD NE @LENOX MALL,210,Lenox,B,33.84676,-84.36212,
LARCENY-NON VEHICLE,183611739,12/27/2018,375 18TH ST NW @TARGET - 18TH,501,Atlantic Station,E,33.79303,-84.39921,
BURGLARY-RESIDENCE,183610860,12/27/2018,98 MORRIS BROWN DR SW,104,Just Us,T,33.75215,-84.42384,
BURGLARY-NONRES,183610652,12/27/2018,959 CONSTITUTION RD SE,308,Leila Valley,Z,33.69255,-84.35777,
BURGLARY-RESIDENCE,183610019,12/27/2018,1679 N OLYMPIAN WAY SW,404,Westview,T,33.73647,-84.44275,
BURGLARY-RESIDENCE,183610780,12/27/2018,1572 HARDEE ST NE,609,Edgewood,O,33.75546,-84.33644,
LARCENY-FROM VEHICLE,183611789,12/27/2018,275 BAKER ST NW,508,Downtown,M,33.76206,-84.39568,
LARCENY-FROM VEHICLE,183611719,12/27/2018,950 W PEACHTREE ST NW @PUBLIX - W PEACHTREE,503,Midtown,E,33.78014,-84.38747,
LARCENY-FROM VEHICLE,183611700,12/27/2018,99 KROG ST NE,602,Inman Park,N,33.75667,-84.3639,
LARCENY-FROM VEHICLE,183611579,12/27/2018,1730 HADLOCK ST SW,408,,R,33.70828,-84.44603,
LARCENY-FROM VEHICLE,183611524,12/27/2018,1600 ELLSWORTH INDUSTRIAL BLVD NW,203,Blandtown,D,33.79826,-84.42811,
LARCENY-FROM VEHICLE,183612070,12/27/2018,615 PEACHTREE ST NE ,505,Midtown,E,33.77138,-84.38487,
LARCENY-FROM VEHICLE,183611857,12/27/2018,2165 CHESHIRE BRIDGE RD NE,213,Lindridge/Martin Manor,F,33.81341,-84.35347,
LARCENY-FROM VEHICLE,183612069,12/27/2018,250 10TH ST NE,502,Midtown,E,33.78218,-84.37867,
LARCENY-NON VEHICLE,183610757,12/27/2018,1001 PONCE DE LEON AVE NE @PUBLIX - PONCE,602,Poncey-Highland,N,33.7734,-84.35467,
LARCENY-NON VEHICLE,183611385,12/27/2018,3393 PEACHTREE RD NE @LENOX MALL,210,Lenox,B,33.84676,-84.36212,
LARCENY-NON VEHICLE,183611030,12/27/2018,595 PIEDMONT AVE NE @PUBLIX - PIEDMONT,603,Old Fourth Ward,M,33.77067,-84.38023,
LARCENY-NON VEHICLE,183611009,12/27/2018,3440 PEACHTREE RD NE,208,North Buckhead,B,33.85166,-84.36235,
LARCENY-NON VEHICLE,183611386,12/27/2018,520 BOULEVARD SE,605,Grant Park,W,33.7407,-84.36764,
LARCENY-NON VEHICLE,183610774,12/27/2018,3393 PEACHTREE RD NE @LENOX MALL,210,Lenox,B,33.84676,-84.36212,
LARCENY-FROM VEHICLE,183611483,12/27/2018,60 AUBURN AVE NE,510,Downtown,M,33.75567,-84.38634,
LARCENY-FROM VEHICLE,183610623,12/27/2018,191 RALPH DAVID ABERNATHY BLVD,303,Mechanicsville,V,33.73701,-84.39419,
LARCENY-FROM VEHICLE,183610081,12/27/2018,500 STOKESWOOD AVE SE,612,East Atlanta,W,33.73951,-84.34459,
LARCENY-FROM VEHICLE,183610172,12/27/2018,556 LOVEJOY ST NW,504,Downtown,M,33.76681,-84.39328,
LARCENY-FROM VEHICLE,183610307,12/27/2018,1 SANDY CREEK RD NW,114,Bankhead/Bolton,H,33.78735,-84.49452,
LARCENY-FROM VEHICLE,183610406,12/27/2018,855 PEACHTREE ST NE,505,Midtown,E,33.77798,-84.38389,
LARCENY-FROM VEHICLE,183610484,12/27/2018,55 HILLIARD ST SE,604,Sweet Auburn,M,33.75319,-84.37675,
LARCENY-FROM VEHICLE,183610569,12/27/2018,1845 PIEDMONT AVE NE,213,Morningside/Lenox Park,F,33.80622,-84.36626,
LARCENY-FROM VEHICLE,183610811,12/27/2018,300 PEACHTREE ST NE,508,Downtown,M,33.76254,-84.38789,
LARCENY-FROM VEHICLE,183610907,12/27/2018,1250 WPACES FERRY RD,201,West Paces Ferry/Northside,A,33.84862,-84.42869,
LARCENY-FROM VEHICLE,183611057,12/27/2018,339 14TH ST NW,501,Home Park,E,33.78627,-84.39817,
LARCENY-FROM VEHICLE,183610599,12/27/2018,1254 ALMONT DR SW,403,Oakland City,S,33.72556,-84.42878,
LARCENY-FROM VEHICLE,183611109,12/27/2018,230 10TH ST NE,502,Midtown,E,33.78187,-84.37981,
LARCENY-FROM VEHICLE,183610592,12/27/2018,3802 ROSWELL RD NE,209,East Chastain Park,B,33.85865,-84.38102,
LARCENY-FROM VEHICLE,183611154,12/27/2018,337 MORELAND AVE NE,608,Candler Park,N,33.7636,-84.34901,
LARCENY-FROM VEHICLE,183611177,12/27/2018,400 W PEACHTREE ST NW,504,Downtown,M,33.76614,-84.3876,
LARCENY-FROM VEHICLE,183611239,12/27/2018,1259 MONROE PL NE,212,Piedmont Heights,F,33.80967,-84.37048,
LARCENY-FROM VEHICLE,183611269,12/27/2018,931 MONROE DR NE @BELTLINE BUSINESS,506,Midtown,E,33.77909,-84.36717,
LARCENY-FROM VEHICLE,183611278,12/27/2018,507 JOSEPH E LOWERY BLVD SW,401,West End,T,33.74097,-84.41809,
LARCENY-FROM VEHICLE,183611324,12/27/2018,782 PONCE DE LEON AVE NE,601,Virginia Highland,F,33.77412,-84.36179,
LARCENY-FROM VEHICLE,183611375,12/27/2018,931 PONCE DE LEON AVE NE,602,Poncey-Highland,N,33.7735,-84.35694,
LARCENY-FROM VEHICLE,183611407,12/27/2018,928 GARRETT ST SE,606,Ormewood Park,W,33.7407,-84.35736,
LARCENY-FROM VEHICLE,183611451,12/27/2018,276 15TH ST NE,502,Ansley Park,E,33.78857,-84.37789,
LARCENY-FROM VEHICLE,183611079,12/27/2018,1144 CRESCENT AVE NE,503,Midtown,E,33.78601,-84.38445,
LARCENY-FROM VEHICLE,183611150,12/27/2018,2685 METROPOLITAN PKWY SW,309,Grant Park,W,33.73063,-84.37339,
LARCENY-FROM VEHICLE,183610624,12/27/2018,880 GLENDALE TER NE,506,Midtown,E,33.77896,-84.37653,
LARCENY-FROM VEHICLE,183610705,12/27/2018,2181 HIGHVIEW RD SW,406,Beecher Hills,I,33.72839,-84.46023,
LARCENY-FROM VEHICLE,183610717,12/27/2018,421 EDGEWOOD AVE SE,604,Sweet Auburn,M,33.75414,-84.37378,
LARCENY-NON VEHICLE,183611046,12/27/2018,2476 SANTA ROSA DR SW,413,Arlington Estates,P,33.68794,-84.54065,
LARCENY-NON VEHICLE,183600547,12/27/2018,325 RALPH DAVID ABERNATHY BLVD,302,Mechanicsville,V,33.73724,-84.39859,
LARCENY-NON VEHICLE,183611235,12/27/2018,2033 PINECONE DR SW,412,Heritage Valley,P,33.7003,-84.50043,
LARCENY-NON VEHICLE,183611131,12/27/2018,715 BROOKLINE ST SW,301,Adair Park,V,33.72738,-84.41107,
LARCENY-NON VEHICLE,183611181,12/27/2018,3000 HEADLAND DR SW,411,Greenbriar,R,33.68923,-84.48657,
LARCENY-NON VEHICLE,183611900,12/27/2018,350 MORELAND AVE NE,602,Inman Park,N,33.76377,-84.3497,
LARCENY-NON VEHICLE,183611801,12/27/2018,64 LEATHERS CIR NW,105,West Lake,J,33.75654,-84.4423,
LARCENY-NON VEHICLE,183612038,12/27/2018,1504 PEACHTREE PARK DR NE,207,,E,33.81355,-84.38948,
AUTO THEFT,183611287,12/27/2018,870 MAYSON TURNER RD NW,102,Vine City,L,33.756,-84.41629,
AUTO THEFT,183611352,12/27/2018,635 S GRAND AVE NW,109,Center Hill,J,33.77247,-84.46243,
AUTO THEFT,183611012,12/27/2018,450 FAIRBURN RD SW,407,Fairburn Mays,H,33.74276,-84.50984,
AUTO THEFT,183610388,12/27/2018,2328 CAMPBELLTON RD SW,410,Campbellton Road,R,33.70439,-84.4634,
AUTO THEFT,183611646,12/27/2018,144 MORELAND AVE NE,606,Reynoldstown,N,33.75698,-84.34929,
AUTO THEFT,183601595,12/26/2018,1300 PORTLAND AVE SE,612,East Atlanta,W,33.73912,-84.34488,
AUTO THEFT,183600858,12/26/2018,528 WOODS DR NW,109,Center Hill,J,33.76927,-84.46884,
AUTO THEFT,183601651,12/26/2018,2837 HEDGEWOOD DR NW,111,Westhaven,I,33.75802,-84.48072,
AUTO THEFT,183601873,12/26/2018,1994 BENT CREEK WAY SW,410,Campbellton Road,R,33.7011,-84.46631,
AUTO THEFT,183601601,12/26/2018,3517 PARC CIR SW,409,Southwest,R,33.69868,-84.4977,
LARCENY-NON VEHICLE,183600576,12/26/2018,972 CANTER RD NE,210,Pine Hills,B,33.84202,-84.35574,
AUTO THEFT,183601280,12/26/2018,154 KROG ST NE @Multiple,602,Inman Park,N,33.75885,-84.364,
AUTO THEFT,183600990,12/26/2018,765 MCDANIEL ST SW,302,Pittsburgh,V,33.73365,-84.40221,
AUTO THEFT,183601259,12/26/2018,1892 HOWELL MILL RD NW,205,Wildwood (NPU-C),C,33.80673,-84.41316,
AUTO THEFT,183601342,12/26/2018,1299 NORTHSIDE DR,207,Ben Hill,P,33.66311,-84.52345,
AUTO THEFT,183600500,12/26/2018,2430 CHESHIRE BRIDGE RD NE,212,Lindridge/Martin Manor,F,33.82149,-84.35161,
LARCENY-NON VEHICLE,183600224,12/26/2018,1578 PIEDMONT AVE NE,213,Piedmont Heights,F,33.79764,-84.36884,
LARCENY-NON VEHICLE,183600156,12/26/2018,3760 PRINCETON LAKES PKWY SW,414,Princeton Lakes,P,33.65806,-84.51051,
LARCENY-NON VEHICLE,183600759,12/26/2018,1010 DUNNING ST SE,304,Peoplestown,V,33.72696,-84.38688,
LARCENY-NON VEHICLE,183600925,12/26/2018,265 PEACHTREE CENTER AVE NE @MARIOTT MARQUIS,509,Downtown,M,33.76158,-84.38496,
LARCENY-NON VEHICLE,183601311,12/26/2018,569 IRA ST SW,303,Mechanicsville,V,33.73928,-84.40013,
LARCENY-NON VEHICLE,183601350,12/26/2018,3500 PEACHTREE RD NE,208,North Buckhead,B,33.85302,-84.36278,
LARCENY-NON VEHICLE,183601528,12/26/2018,506 MORELAND AVE NE,602,Inman Park,N,33.76813,-84.34952,
LARCENY-NON VEHICLE,183601186,12/26/2018,746 MARIETTA ST,501,Marietta Street Artery,E,33.77314,-84.40353,
LARCENY-NON VEHICLE,183600913,12/26/2018,30 OLD IVY RD NE,208,Ardmore,E,33.8053,-84.39602,
LARCENY-NON VEHICLE,183600492,12/26/2018,181 RALPH DAVID ABERNATHY BLVD,303,Home Park,E,33.78447,-84.4071,
LARCENY-FROM VEHICLE,183600799,12/26/2018,401 GLEN IRIS DR NE,603,Old Fourth Ward,M,33.7653,-84.36721,
LARCENY-FROM VEHICLE,183600813,12/26/2018,349 DECATUR ST SE,604,Sweet Auburn,M,33.74993,-84.37706,
LARCENY-FROM VEHICLE,183601733,12/26/2018,131 PONCE DE LEON AVE NE,505,Midtown,E,33.77199,-84.38304,
LARCENY-FROM VEHICLE,183600433,12/26/2018,165 COURTLAND ST NE @SHERATON ATLANTA,510,Downtown,M,33.75895,-84.3834,
LARCENY-FROM VEHICLE,183600446,12/26/2018,837 CRESTWELL CIR SW,407,Mays,H,33.74405,-84.50353,
LARCENY-FROM VEHICLE,183600461,12/26/2018,656 RALPH DAVID ABERNATHY ,303,Norwood Manor,Z,33.69714,-84.36488,
LARCENY-FROM VEHICLE,183600601,12/26/2018,1198 HOWELL MILL RD NW,203,Blandtown,D,33.78703,-84.41185,
LARCENY-FROM VEHICLE,183600725,12/26/2018,1040 GRANT ST SE,605,Grant Park,W,33.72585,-84.37609,
LARCENY-FROM VEHICLE,183600760,12/26/2018,1099 BOULEVARD SE,305,Chosewood Park,Y,33.7244,-84.36871,
LARCENY-FROM VEHICLE,183601554,12/26/2018,491 FLAT SHOALS AVE SE,612,East Atlanta,W,33.74053,-84.3462,
LARCENY-FROM VEHICLE,183601633,12/26/2018,265 PONCE DE LEON AVE NE,505,Midtown,E,33.77206,-84.37869,
LARCENY-FROM VEHICLE,183600802,12/26/2018,768 MARIETTA ST NW,504,Marietta Street Artery,E,33.77331,-84.40403,
LARCENY-FROM VEHICLE,183601779,12/26/2018,450 STONEWALL ST SW,507,Castleberry Hill,M,33.74942,-84.40228,
LARCENY-FROM VEHICLE,183601863,12/26/2018,210 PEACHTREE ST NW @WESTIN HOTEL,508,Downtown,M,33.75943,-84.38837,
LARCENY-FROM VEHICLE,183601887,12/26/2018,27 ELLIS ST NE,510,Downtown,M,33.75833,-84.38665,
LARCENY-FROM VEHICLE,183600830,12/26/2018,777 DIXIE AVE NE,602,Inman Park,N,33.75645,-84.36231,
LARCENY-FROM VEHICLE,183600867,12/26/2018,12 S PRADO NE,502,Ansley Park,E,33.78931,-84.37629,
LARCENY-FROM VEHICLE,183600972,12/26/2018,895 RALPH D ABERNATHY BLVD SW,401,West End,T,33.7398,-84.41751,
LARCENY-FROM VEHICLE,183601011,12/26/2018,3393 PEACHTREE RD NE,210,Lenox,B,33.84676,-84.36212,
LARCENY-FROM VEHICLE,183601220,12/26/2018,17 BAKER ST NW,508,Downtown,M,33.76235,-84.38819,
LARCENY-FROM VEHICLE,183601299,12/26/2018,2852 CASCADE RD SW,409,Cascade Heights,I,33.71785,-84.47959,
LARCENY-FROM VEHICLE,183601525,12/26/2018,300 N HIGHLAND AVE NE,602,Inman Park,N,33.76284,-84.35859,
LARCENY-FROM VEHICLE,183601673,12/26/2018,837 HARTFOED PL,302,Capitol View,X,33.72139,-84.41536,
LARCENY-NON VEHICLE,183600628,12/26/2018,2525 PIEDMONT RD NE @HOME DEPOT,211,Lindbergh/Morosgo,B,33.824,-84.36521,
LARCENY-NON VEHICLE,183601303,12/26/2018,2539 PIEDMONT RD NE @TARGET - PIEDMONT,211,Lindbergh/Morosgo,B,33.82403,-84.36328,
LARCENY-NON VEHICLE,183601006,12/26/2018,2615 DONALD LEE HOLLOWELL PKWY NW,109,Center Hill,J,33.7762,-84.47236,
LARCENY-NON VEHICLE,183601390,12/26/2018,1165 RALPH D ABERNATHY BLVD SW,401,West End,T,33.73859,-84.42597,
LARCENY-NON VEHICLE,183601654,12/26/2018,2685 METROPOLITAN PKWY,309,Perkerson,X,33.68274,-84.40902,
LARCENY-NON VEHICLE,183601531,12/26/2018,3393 PEACHTREE RD NE @LENOX MALL,210,Lenox,B,33.84676,-84.36212,
BURGLARY-RESIDENCE,183600045,12/26/2018,415 FAIRBURN RD SW,407,Fairburn Mays,H,33.74349,-84.50968,
BURGLARY-RESIDENCE,183600852,12/26/2018,1867 LA DAWN LN NW,203,Bolton,D,33.81581,-84.44892,
BURGLARY-RESIDENCE,183601378,12/26/2018,576 CRESTHILL AVE NE,601,Virginia Highland,F,33.78418,-84.36881,
BURGLARY-RESIDENCE,183600123,12/26/2018,415 ARMOUR DR NE,212,,F,33.81267,-84.37412,
BURGLARY-RESIDENCE,183600798,12/26/2018,906 NEAL ST NW,103,English Avenue,L,33.76634,-84.4171,
BURGLARY-RESIDENCE,183600765,12/26/2018,2555 COUNTY LINE RD SW,413,Fairway Acres,P,33.68563,-84.53586,
BURGLARY-RESIDENCE,183600722,12/26/2018,4 WHATLEY ST SE,307,Lakewood Heights,Y,33.70709,-84.37923,
BURGLARY-RESIDENCE,183601785,12/26/2018,616 PROVIDENCE PL SW,407,Mays,H,33.74337,-84.50529,
BURGLARY-RESIDENCE,183600583,12/26/2018,55 MOURY AVE SE,305,South Atlanta,Y,33.71288,-84.38541,
LARCENY-NON VEHICLE,183600992,12/26/2018,411 POMONA CIR SW,309,Perkerson,X,33.68799,-84.40306,
BURGLARY-NONRES,183600839,12/26/2018,44 WARREN ST SE,610,Kirkwood,O,33.75204,-84.326,
BURGLARY-RESIDENCE,183600897,12/26/2018,2637 OLD HAPEVILLE RD SW,310,Browns Mill Park,Z,33.68294,-84.39417,
BURGLARY-NONRES,183600019,12/26/2018,2444 FORREST PARK RD SE,308,Rebel Valley Forest,Z,33.68706,-84.35977,
AGG ASSAULT,183601379,12/26/2018,3030 CONTINENTAL COLONY PKWY SW,411,Greenbriar,R,33.68066,-84.49371,
ROBBERY-PEDESTRIAN,183601847,12/26/2018,203 MILLS ST NW,504,Downtown,M,33.76541,-84.39394,
ROBBERY-PEDESTRIAN,183601831,12/26/2018,371 BOULEVARD SE,605,Grant Park,W,33.7445,-84.3687,
ROBBERY-PEDESTRIAN,183601268,12/26/2018,1152 DEKALB AVE NE,602,Inman Park,N,33.75886,-84.35204,
ROBBERY-COMMERCIAL,183590637,12/25/2018,2308 CASCADE RD SW,409,Adams Park,R,33.72212,-84.46392,
HOMICIDE,183581341,12/25/2018,1190 OAKLAND LN,403,Oakland City,S,33.71947,-84.42706,
AGG ASSAULT,183590400,12/25/2018,I-285 SB EXPY SW / ARTHUR LANGFORD EB PKWY SW,413,,P,33.69012,-84.5002,
AGG ASSAULT,183591016,12/25/2018,1196 ARLINGTON AVE ,403,Oakland City,S,33.72524,-84.42708,
AGG ASSAULT,183590978,12/25/2018,2400 PARKLAND DR NE,211,Lindbergh/Morosgo,B,33.81948,-84.36425,
AGG ASSAULT,183590899,12/25/2018,UNIVERSITY AVE/RIDGE AVE ,404,,I,33.74851,-84.4425,
AGG ASSAULT,183590854,12/25/2018,171  PEACHTREE ST SW,512,Downtown,M,33.75015,-84.39399,
AGG ASSAULT,183591111,12/25/2018,501 CONNELL AVE SW,309,Perkerson,X,33.68348,-84.40624,
AGG ASSAULT,183590413,12/25/2018,445 MARKHAM ST SW,507,Castleberry Hill,M,33.75274,-84.40069,
AGG ASSAULT,183590101,12/25/2018,1277 JASPER ST SW,104,Mozley Park,K,33.75271,-84.42929,
BURGLARY-RESIDENCE,183590057,12/25/2018,1695 FAIRBURN RD SW,412,Kings Forest,P,33.70794,-84.50773,
BURGLARY-NONRES,183590827,12/25/2018,119 MARONA ST NE,609,Edgewood,O,33.75702,-84.3353,
BURGLARY-RESIDENCE,183591050,12/25/2018,415 ARMOUR DR NE,212,,F,33.81267,-84.37412,
BURGLARY-RESIDENCE,183590218,12/25/2018,2453 CORONET WAY NW,201,,C,33.8209,-84.44958,
BURGLARY-NONRES,183590809,12/25/2018,2497 FORREST PARK RD SE,308,Leila Valley,Z,33.68641,-84.36054,
BURGLARY-NONRES,183590166,12/25/2018,2685 METROPOLITAN PKWY SW,309,Perkerson,X,33.68274,-84.40902,
LARCENY-NON VEHICLE,183590439,12/25/2018,371 BOULEVARD NE,603,Old Fourth Ward,M,33.76454,-84.37155,
LARCENY-NON VEHICLE,183590597,12/25/2018,565 JOSEPH E LOWERY BLVD SW,401,West End,T,33.73969,-84.41828,
LARCENY-FROM VEHICLE,183590580,12/25/2018,2798 PEEK RD NW,112,Collier Heights,I,33.77743,-84.47815,
LARCENY-FROM VEHICLE,183590086,12/25/2018,850 PIEDMONT AVE NE,505,Midtown,E,33.77803,-84.38159,
LARCENY-FROM VEHICLE,183590630,12/25/2018,1359 LA FRANCE ST NE,609,Edgewood,O,33.75992,-84.34308,
LARCENY-FROM VEHICLE,183590091,12/25/2018,25 LARKIN PL SW,507,Castleberry Hill,M,33.74709,-84.4042,
LARCENY-FROM VEHICLE,183590382,12/25/2018,180 CARROLL ST SE,606,Cabbagetown,N,33.74962,-84.36791,
LARCENY-FROM VEHICLE,183590416,12/25/2018,3143 ESPLANADE CIR SW,409,Southwest,R,33.70506,-84.49295,
LARCENY-FROM VEHICLE,183590418,12/25/2018,3179 PEACHTREE RD NE @MOONDOGS,206,Buckhead Village,B,33.84103,-84.37544,
LARCENY-FROM VEHICLE,183590449,12/25/2018,3385 SOMERSET TRL SW,414,Huntington,P,33.66211,-84.52741,
LARCENY-FROM VEHICLE,183590507,12/25/2018,3566 PIEDMONT RD NE,208,Buckhead Forest,B,33.85134,-84.37963,
LARCENY-FROM VEHICLE,183590598,12/25/2018,1090 LANIER BLVD NE,601,Virginia Highland,F,33.78466,-84.35179,
LARCENY-FROM VEHICLE,183590867,12/25/2018,1968 PEACHTREE RD NW ,207,,E,33.81,-84.39583,
LARCENY-FROM VEHICLE,183590995,12/25/2018,123 MARIETTA ST NW,508,Downtown,M,33.75767,-84.39266,
LARCENY-FROM VEHICLE,183590708,12/25/2018,3351 PARC LN SW,409,Southwest,R,33.69887,-84.49683,
LARCENY-FROM VEHICLE,183590688,12/25/2018,693 PEACHTREE ST NE,505,Midtown,E,33.77347,-84.38449,
LARCENY-NON VEHICLE,183590963,12/25/2018,102 OLLIE ST NW @WASHINGTON PARK,105,Washington Park,K,33.75799,-84.42287,
LARCENY-NON VEHICLE,183590496,12/25/2018,844 REGINA DR NW,109,Center Hill,J,33.77648,-84.47302,
AUTO THEFT,183590571,12/25/2018,489 LINDBERGH PL NE,211,Lindbergh/Morosgo,B,33.81962,-84.37115,
AUTO THEFT,183590661,12/25/2018,40 PEACHTREE VALLEY RD NE,207,,E,33.81096,-84.39145,
AUTO THEFT,183581437,12/24/2018,2800 MARTIN L KING JR DR SW,405,Harland Terrace,I,33.75431,-84.4793,
AUTO THEFT,183580176,12/24/2018,2131 FAIRBURN RD SW    ,412,Kings Forest,P,33.69621,-84.51077,
AUTO THEFT,183580610,12/24/2018,2234 MEADOWLANE DR SW,409,Southwest,R,33.69461,-84.49721,
AUTO THEFT,183580200,12/24/2018,600 PHIPPS BLVD NE,209,North Buckhead,B,33.85348,-84.3653,
AUTO THEFT,183580087,12/24/2018,634 WHITEHALL ST SW,303,Adair Park,V,33.74179,-84.40844,
AUTO THEFT,183580607,12/24/2018,803 MAGNOLIA WAY NW,102,Vine City,L,33.75823,-84.41403,
AUTO THEFT,183580482,12/24/2018,42 RAWSON ST SE,605,Capitol Gateway,V,33.74447,-84.38604,
AUTO THEFT,183580427,12/24/2018,3390 FAIRBURN RD SW,414,Ben Hill,P,33.6639,-84.52377,
AUTO THEFT,183580393,12/24/2018,1382 BELMONT AVE SW,301,Capitol View,X,33.71715,-84.40961,
AUTO THEFT,183581288,12/24/2018,3761 CAMPBELLTON RD SW,412,Kings Forest,P,33.69087,-84.51166,
AUTO THEFT,183581079,12/24/2018,736 PEACHTREE ST NE,505,Midtown,E,33.77492,-84.38465,
AUTO THEFT,183581425,12/24/2018,1275 CAROLINE ST NE @TARGET - CAROLINE,609,Edgewood,O,33.75674,-84.34619,
AUTO THEFT,183581217,12/24/2018,3600 HERITAGE VALLEY RD SW,412,Heritage Valley,P,33.70612,-84.50599,
AUTO THEFT,183581365,12/24/2018,2239 CHESHIRE BRIDGE RD NE,213,Lindridge/Martin Manor,F,33.81617,-84.35215,
AUTO THEFT,183580052,12/24/2018,3335 MARTIN L KING JR DR NW,111,Adamsville,H,33.7551,-84.49652,
LARCENY-NON VEHICLE,183581596,12/24/2018,1950 RAMBLING DR SW,306,Sylvan Hills,X,33.70135,-84.4062,
LARCENY-NON VEHICLE,183581417,12/24/2018,3050 MARTIN L KING JR DR SW,405,Harland Terrace,I,33.75177,-84.4857,
LARCENY-NON VEHICLE,183581058,12/24/2018,3085 EMPIRE BLVD SW,312,Glenrose Heights,Z,33.67044,-84.39354,
LARCENY-NON VEHICLE,183580847,12/24/2018,3120 MAPLE DR NE @Z2,206,Buckhead Village,B,33.84008,-84.37231,
LARCENY-NON VEHICLE,183580939,12/24/2018,3100 PEACHTREE PARK DR NE,207,,E,33.81363,-84.38964,
LARCENY-NON VEHICLE,183580797,12/24/2018,394 RICHARDS ST NW,501,Home Park,E,33.78351,-84.40001,
LARCENY-NON VEHICLE,183580296,12/24/2018,2 AUBURN AVE NE,508,Downtown,M,33.75624,-84.38831,
LARCENY-FROM VEHICLE,183581645,12/24/2018,2595 MLKJR DR NW,111,,I,33.75224,-84.49046,
LARCENY-FROM VEHICLE,183581745,12/24/2018,968 MYRTLE ST NE,503,Midtown,E,33.78105,-84.37966,
LARCENY-FROM VEHICLE,183581303,12/24/2018,2365 PEACHTREE RD NE ,211,Peachtree Hills,B,33.82002,-84.38776,
LARCENY-FROM VEHICLE,183580820,12/24/2018,390 17TH ST NW,501,Atlantic Station,E,33.7903,-84.39976,
LARCENY-FROM VEHICLE,183581426,12/24/2018,1093 HEMPHILL AVE NW,501,Home Park,E,33.78466,-84.40561,
LARCENY-FROM VEHICLE,183580970,12/24/2018,1968 PEACHTREE RD NW       ,207,,E,33.81,-84.39583,
LARCENY-FROM VEHICLE,183580992,12/24/2018,447 MORELAND AVE NE,608,Candler Park,N,33.76653,-84.34889,
LARCENY-FROM VEHICLE,183581028,12/24/2018,990 JUNIPER ST NE,503,Midtown,E,33.78194,-84.38258,
LARCENY-FROM VEHICLE,183581080,12/24/2018,2781LAKEWOOD AVE SW,306,Sylvan Hills,X,33.69729,-84.40943,
LARCENY-FROM VEHICLE,183581131,12/24/2018,2841 GREENBRIAR PARKWAY SW,411,Greenbriar,R,33.68845,-84.49328,
LARCENY-FROM VEHICLE,183581190,12/24/2018,3500 PEACHTREE RD NE,208,North Buckhead,B,33.85252,-84.36116,
LARCENY-FROM VEHICLE,183581262,12/24/2018,985 MEMORIAL DR SE,606,Reynoldstown,N,33.74627,-84.355,
LARCENY-FROM VEHICLE,183581284,12/24/2018,895 RALPH D ABERNATHY BLVD SW,401,West End,T,33.7398,-84.41751,
LARCENY-FROM VEHICLE,183581694,12/24/2018,1049 PONCE DE LEON AVE NE,602,Poncey-Highland,N,33.77315,-84.35304,
LARCENY-FROM VEHICLE,183581376,12/24/2018,3393 PEACHTREE RD NE,210,Lenox,B,33.84676,-84.36212,
LARCENY-FROM VEHICLE,183581682,12/24/2018,1959 METROPOLITAN PKWY SW,306,Sylvan Hills,X,33.7008,-84.41018,
LARCENY-FROM VEHICLE,183581432,12/24/2018,1328 PEACHTREE ST NE,502,Midtown,E,33.79087,-84.38612,
LARCENY-FROM VEHICLE,183581447,12/24/2018,484 FLAT SHOALS AVE SE,612,East Atlanta,W,33.74104,-84.34615,
LARCENY-FROM VEHICLE,183581461,12/24/2018,400 W PEACHTREE ST NW,504,Downtown,M,33.76614,-84.3876,
LARCENY-FROM VEHICLE,183581471,12/24/2018,61 NORTH AVE NW @VARSITY DRIVE INN,505,Midtown,E,33.77138,-84.38943,
LARCENY-FROM VEHICLE,183581487,12/24/2018,870 MAYSON TURNER RD NW,102,Vine City,L,33.756,-84.41629,
LARCENY-FROM VEHICLE,183581519,12/24/2018,895 RALPH D ABERNATHY BLVD SW,401,West End,T,33.7398,-84.41751,
LARCENY-FROM VEHICLE,183581573,12/24/2018,2891 CHERRY LAUREL LN SW,411,Greenbriar,R,33.69628,-84.4821,
LARCENY-FROM VEHICLE,183581641,12/24/2018,542 MORELAND AVE SE,612,East Atlanta,W,33.73931,-84.34896,
LARCENY-FROM VEHICLE,183580912,12/24/2018,341 SIMPSON ST NW,507,Downtown,M,33.76444,-84.3884,
LARCENY-FROM VEHICLE,183580446,12/24/2018,217 THIRKELD AVE SW,305,The Villages at Carver,Y,33.71362,-84.39264,
LARCENY-FROM VEHICLE,183580029,12/24/2018,3778 LANDAU LN SW ,412,Cascade Green,P,33.71229,-84.50583,
LARCENY-FROM VEHICLE,183580426,12/24/2018,960 E PACES FERRY RD NE,210,Buckhead Heights,B,33.84691,-84.35618,
LARCENY-FROM VEHICLE,183580543,12/24/2018,1240 OLD CHATTAHOOCHEE AVE NW,203,Blandtown,D,33.80036,-84.42664,
LARCENY-FROM VEHICLE,183580650,12/24/2018,590 W PEACHTREE ST,509,Downtown,M,33.77023,-84.38815,
LARCENY-FROM VEHICLE,183580704,12/24/2018,915 CUMBERLAND RD NE,213,Morningside/Lenox Park,F,33.79538,-84.35735,
LARCENY-FROM VEHICLE,183580726,12/24/2018,765 SAINT CHARLES AVE NE,601,Virginia Highland,F,33.77528,-84.36232,
LARCENY-FROM VEHICLE,183580727,12/24/2018,3275 CASCADE PARC BOULEVARD SW,409,Southwest,R,33.69981,-84.49654,
LARCENY-FROM VEHICLE,183580734,12/24/2018,450 THOMASVILLE BLVD SE,308,Thomasville Heights,Z,33.70515,-84.35925,
LARCENY-FROM VEHICLE,183580782,12/24/2018,177 MOURY AVE SW,305,The Villages at Carver,Y,33.71348,-84.39052,
LARCENY-FROM VEHICLE,183580809,12/24/2018,1133 HUFF RD NW,203,Blandtown,D,33.78909,-84.42518,
LARCENY-FROM VEHICLE,183580066,12/24/2018,255 PETERS ST SW,507,Castleberry Hill,M,33.74747,-84.40182,
LARCENY-FROM VEHICLE,183580903,12/24/2018,284 HUNNICUTT ST NW,504,Downtown,M,33.76644,-84.39552,
LARCENY-NON VEHICLE,183581316,12/24/2018,3393 PEACHTREE RD NE,210,Lenox,B,33.84676,-84.36212,
LARCENY-NON VEHICLE,183581278,12/24/2018,835 MARTIN L KING JR DR NW,102,Vine City,L,33.75504,-84.41457,
LARCENY-NON VEHICLE,183580019,12/24/2018,2452 MOROSGO WAY NE,211,Lindbergh/Morosgo,B,33.82295,-84.36559,
LARCENY-NON VEHICLE,183581188,12/24/2018,3334 PEACHTREE RD NE,208,North Buckhead,B,33.84911,-84.37075,
LARCENY-NON VEHICLE,183581125,12/24/2018,25 PEACHTREE ST SW,511,Downtown,M,33.75366,-84.39047,
LARCENY-NON VEHICLE,183580546,12/24/2018,3500 PEACHTREE RD NE,208,North Buckhead,B,33.85248,-84.36058,
LARCENY-NON VEHICLE,183580746,12/24/2018,835 MARTIN L KING JR DR NW,102,Vine City,L,33.75504,-84.41457,
LARCENY-NON VEHICLE,183580684,12/24/2018,1801 HOWELL MILL RD NW,204,Berkeley Park,D,33.80388,-84.41278,
LARCENY-NON VEHICLE,183580667,12/24/2018,3523 NORTHSIDE PKWY NW,202,Randall Mill,A,33.85082,-84.43029,
LARCENY-NON VEHICLE,183580850,12/24/2018,231 18TH ST NW,501,Atlantic Station,E,33.79275,-84.39544,
LARCENY-NON VEHICLE,183580867,12/24/2018,2636 MARTIN L KING JR DR SW,405,Harland Terrace,I,33.75379,-84.47417,
LARCENY-NON VEHICLE,183580837,12/24/2018,3334 PEACHTREE RD NE @ONE BUCKHEAD LOOP,208,North Buckhead,B,33.84911,-84.37075,
LARCENY-NON VEHICLE,183581311,12/24/2018,1371 MARKET ST NW,501,Atlantic Station,E,33.7921,-84.39466,
LARCENY-NON VEHICLE,183580979,12/24/2018,1275 CAROLINE ST NE @TARGET - CAROLINE,609,Edgewood,O,33.75674,-84.34619,
LARCENY-NON VEHICLE,183580953,12/24/2018,25 PEACHTREE ST SW,511,Downtown,M,33.75366,-84.39047,
LARCENY-NON VEHICLE,183580975,12/24/2018,950 W PEACHTREE ST NW @PUBLIX - W PEACHTREE,503,Midtown,E,33.78014,-84.38747,
BURGLARY-NONRES,183580909,12/24/2018,2151 CAMPBELLTON RD SW,409,Adams Park,R,33.70602,-84.45942,
BURGLARY-RESIDENCE,183580346,12/24/2018,2770 BENJAMIN E MAYS DR SW,406,Audobon Forest West,I,33.72828,-84.47902,
BURGLARY-RESIDENCE,183580025,12/24/2018,1090  WHITE OAK AVE SW,402,Oakland City,S,33.72625,-84.42366,
BURGLARY-RESIDENCE,183581356,12/24/2018,2058 CHICAGO AVE NW,107,Grove Park,J,33.76438,-84.45508,
BURGLARY-RESIDENCE,183580830,12/24/2018,1121 WEDGEWOOD DR NW,113,Carey Park,G,33.78568,-84.47553,
BURGLARY-RESIDENCE,183580955,12/24/2018,2424 ARNO DR,113,Carver Hills,G,33.7991,-84.46765,
BURGLARY-RESIDENCE,183581074,12/24/2018,1425 JOSEPH E BOONE BLVD NW,107,Grove Park,J,33.76364,-84.43461,
BURGLARY-RESIDENCE,183581060,12/24/2018,21 LARKIN PL SW,507,Castleberry Hill,M,33.74753,-84.40413,
BURGLARY-RESIDENCE,183580972,12/24/2018,691 BONAVENTURE AVE NE,602,Poncey-Highland,N,33.77361,-84.36073,
BURGLARY-RESIDENCE,183581495,12/24/2018,600 GARSON DR NE,211,Lindbergh/Morosgo,B,33.81861,-84.37021,
BURGLARY-RESIDENCE,183580629,12/24/2018,1470 ATHENS AVE SW,301,Capitol View,X,33.71472,-84.4087,
BURGLARY-RESIDENCE,183580528,12/24/2018,3901 CAMPBELLTON RD SW,412,Kings Forest,P,33.69231,-84.51621,
BURGLARY-RESIDENCE,183581223,12/24/2018,644 S EUGENIA PL NW,107,Grove Park,J,33.77307,-84.4543,
BURGLARY-NONRES,183580271,12/24/2018,2159 CAMPBELLTON RD SW,409,Adams Park,R,33.70577,-84.45958,
LARCENY-NON VEHICLE,183581011,12/24/2018,2020 HOWELL MILL RD NW @PUBLIX - HOWELL,205,Wildwood (NPU-C),C,33.81022,-84.41347,
AGG ASSAULT,183581491,12/24/2018,504 BOULEVARD NE,603,Old Fourth Ward,M,33.76806,-84.37199,
AGG ASSAULT,183580076,12/24/2018,3098 DAWSON LN SW,414,Princeton Lakes,P,33.66892,-84.51023,
ROBBERY-COMMERCIAL,183581113,12/24/2018,231 PEACHTREE ST NE,509,Downtown,M,33.76045,-84.38746,
ROBBERY-PEDESTRIAN,183580526,12/24/2018,1222 JOSEPH E BOONE BLVD NW,105,Hunter Hills,K,33.76343,-84.42769,
ROBBERY-COMMERCIAL,183581412,12/24/2018,2645 DONALD LEE HOLLOWELL PKWY NW,109,Center Hill,J,33.77665,-84.47324,
ROBBERY-RESIDENCE,183571101,12/23/2018,764 CASCADE AVE SW,402,West End,T,33.73446,-84.43665,
ROBBERY-PEDESTRIAN,183570199,12/23/2018,2052 MARTIN LUTHER KING DR,108,,I,33.75002,-84.45409,
HOMICIDE,183570011,12/23/2018,599 WHITEHALL ST SW,303,Pittsburgh,V,33.74277,-84.40756,
ROBBERY-PEDESTRIAN,183570443,12/23/2018,2909 CAMPBELLTON RD SW,409,Southwest,R,33.69869,-84.48265,
AGG ASSAULT,183571017,12/23/2018,1919 METROPOLITAN PKWY SW,306,Sylvan Hills,X,33.70278,-84.41017,
AGG ASSAULT,183570933,12/23/2018,3563 BOLFAIR DR NW,114,Carroll Heights,H,33.77755,-84.50412,
AGG ASSAULT,183571767,12/23/2018,404 RAWSON ST SW,303,Mechanicsville,V,33.74279,-84.40104,
AGG ASSAULT,183571668,12/23/2018,1083 LAWTON ST SW,104,Mozley Park,K,33.75204,-84.43177,
AGG ASSAULT,183570997,12/23/2018,323 ARD PL NW,111,Adamsville,H,33.76407,-84.50264,
AGG ASSAULT,183571306,12/23/2018,619 AMAL DR SW,307,Amal Heights,Y,33.7082,-84.398,
AGG ASSAULT,183571329,12/23/2018,570 PIEDMONT AVE NE ,509,Downtown,M,33.77012,-84.38249,
BURGLARY-RESIDENCE,183570798,12/23/2018,1411 FAIRBANKS ST SW,301,Capitol View,X,33.71634,-84.41532,
BURGLARY-RESIDENCE,183570693,12/23/2018,1940 FISHER RD SE,607,Custer/McDonough/Guice,W,33.70979,-84.35849,
BURGLARY-RESIDENCE,183570598,12/23/2018,1940 FISHER RD SE,607,Custer/McDonough/Guice,W,33.70979,-84.35849,
AGG ASSAULT,183561676,12/23/2018,691 FLORENCE PL NW,110,Grove Park,J,33.77371,-84.44173,
AGG ASSAULT,183570557,12/23/2018,680 LEE ST SW,401,West End,T,33.73608,-84.41364,
AGG ASSAULT,183571605,12/23/2018,2909 CAMPBELLTON RD SW,409,Southwest,R,33.69869,-84.48265,
AGG ASSAULT,183571301,12/23/2018,1411 VENETIAN DR SW,403,Venetian Hills,S,33.71493,-84.43443,
BURGLARY-RESIDENCE,183571481,12/23/2018,1038 WASHINGTON ST SW,304,Peoplestown,V,33.72669,-84.39088,
BURGLARY-RESIDENCE,183570737,12/23/2018,1627 EZRA CHURCH DR NW,105,West Lake,J,33.76049,-84.44049,
BURGLARY-RESIDENCE,183571049,12/23/2018,900 CASCADE AVE SW,403,Cascade Avenue/Road,S,33.73062,-84.43965,
BURGLARY-RESIDENCE,183571390,12/23/2018,321 KING RD NW,202,Chastain Park,A,33.86296,-84.39802,
BURGLARY-RESIDENCE,183571504,12/23/2018,280 SISSON AVE NE,610,Kirkwood,O,33.76098,-84.31504,
LARCENY-NON VEHICLE,183570686,12/23/2018,835 MARTIN L KING JR DR NW,102,Vine City,L,33.75504,-84.41457,
LARCENY-NON VEHICLE,183571172,12/23/2018,3393 PEACHTREE RD NE,210,Lenox,B,33.84676,-84.36212,
LARCENY-NON VEHICLE,183571209,12/23/2018,835 MARTIN L KING JR DR NW,102,Vine City,L,33.75504,-84.41457,
LARCENY-NON VEHICLE,183571312,12/23/2018,1801 HOWELL MILL RD NW,204,Berkeley Park,D,33.80388,-84.41278,
LARCENY-NON VEHICLE,183571355,12/23/2018,25 PEACHTREE ST SE,510,Downtown,M,33.75366,-84.39047,
LARCENY-NON VEHICLE,183571388,12/23/2018,3334 PEACHTREE RD NE,208,North Buckhead,B,33.84911,-84.37075,
LARCENY-NON VEHICLE,183571087,12/23/2018,835 MARTIN L KING JR DR NW,102,Vine City,L,33.75504,-84.41457,
LARCENY-NON VEHICLE,183571400,12/23/2018,1801 HOWELL MILL RD NW,204,Berkeley Park,D,33.80388,-84.41278,
LARCENY-NON VEHICLE,183570953,12/23/2018,3393 PEACHTREE RD NE @LENOX MALL,210,Lenox,B,33.84676,-84.36212,
LARCENY-NON VEHICLE,183560640,12/23/2018,3050 MARTIN LUTHER KING JR DR SW,,Reynoldstown,N,33.7503,-84.35977,
LARCENY-FROM VEHICLE,183561850,12/23/2018,655 CLEVELAND AVE SW,311,Perkerson,X,33.68128,-84.4077,
LARCENY-FROM VEHICLE,183571412,12/23/2018,656 CLEBURNE TER NE,602,Poncey-Highland,N,33.77244,-84.35368,
LARCENY-FROM VEHICLE,183570114,12/23/2018,396 CHAMBERLAIN ST SE,604,Sweet Auburn,M,33.75392,-84.37536,
LARCENY-FROM VEHICLE,183570129,12/23/2018,1334 GREENLAND DR NE,213,Morningside/Lenox Park,F,33.79111,-84.36147,
LARCENY-FROM VEHICLE,183570286,12/23/2018,931 MONROE DR NE @TRADER JOES - MONROE,506,Midtown,E,33.77909,-84.36717,
LARCENY-FROM VEHICLE,183570320,12/23/2018,749 PEACHTREE ST,505,Midtown,E,33.77482,-84.38308,
LARCENY-FROM VEHICLE,183570581,12/23/2018,2608 ARLENE WAY NE,206,Garden Hills,B,33.82563,-84.37278,
LARCENY-FROM VEHICLE,183570733,12/23/2018,3236 SAVILLE ST,414,Princeton Lakes,P,33.66497,-84.5164,
LARCENY-FROM VEHICLE,183571060,12/23/2018,200 MITCHELL ST SW,512,Downtown,M,33.75169,-84.39458,
LARCENY-FROM VEHICLE,183571090,12/23/2018,261 WALKER ST SW,507,Castleberry Hill,M,33.74753,-84.40329,
LARCENY-FROM VEHICLE,183571108,12/23/2018,774 BROOKRIDGE DR NE,601,Virginia Highland,F,33.78613,-84.36196,
LARCENY-FROM VEHICLE,183571213,12/23/2018,956 VIRGINIA AVE NE,601,Virginia Highland,F,33.78253,-84.35608,
LARCENY-FROM VEHICLE,183571381,12/23/2018,1037 OGLETHORPE AVE SW,401,West End,T,33.73589,-84.42183,
LARCENY-FROM VEHICLE,183571396,12/23/2018,2625 PIEDMONT RD NE,211,Lindbergh/Morosgo,B,33.82742,-84.36532,
LARCENY-FROM VEHICLE,183571413,12/23/2018,2115 PIEDMONT RD NE,212,Morningside/Lenox Park,F,33.81235,-84.36578,
LARCENY-FROM VEHICLE,183571430,12/23/2018,2795 PEACHTREE RD NE,206,Garden Hills,B,33.83109,-84.38534,
LARCENY-FROM VEHICLE,183571437,12/23/2018,88 W PACES FERRY RD NW,206,Peachtree Heights West,B,33.83996,-84.3827,
LARCENY-FROM VEHICLE,183571453,12/23/2018,3275 PEACHTREE RD NE,208,Peachtree Park,B,33.84439,-84.36942,
LARCENY-FROM VEHICLE,183571651,12/23/2018,403 PICKFAIR AVE SW,307,Lakewood Heights,Y,33.704,-84.40232,
LARCENY-FROM VEHICLE,183571736,12/23/2018,465 BROYLES ST SE,605,Grant Park,W,33.74193,-84.3781,
LARCENY-NON VEHICLE,183571193,12/23/2018,707 MAYLAND AVE SW,301,Adair Park,V,33.72536,-84.41066,
LARCENY-NON VEHICLE,183571519,12/23/2018,223 SISSON AVE NE,610,Kirkwood,O,33.7591,-84.31457,
LARCENY-NON VEHICLE,183570832,12/23/2018,1668 EASTLAND RD SE,612,East Atlanta,W,33.71898,-84.33038,
LARCENY-NON VEHICLE,183570858,12/23/2018,766 PINEHURST TER SW,402,West End,T,33.73429,-84.43129,
LARCENY-NON VEHICLE,183570831,12/23/2018,1544 PIEDMONT AVE NE @ANSLEY MALL,213,Piedmont Heights,F,33.79789,-84.37101,
LARCENY-NON VEHICLE,183570287,12/23/2018,466 EDGEWOOD AVE NE,604,Sweet Auburn,M,33.75439,-84.37253,
LARCENY-NON VEHICLE,183571588,12/23/2018,3393 PEACHTREE RD NE @LENOX MALL,210,Lenox,B,33.84676,-84.36212,
AUTO THEFT,183570081,12/23/2018,400 W PEACHTREE ST NW,504,Downtown,M,33.76614,-84.3876,
AUTO THEFT,183570219,12/23/2018,64 3RD ST NW,505,Midtown,E,33.77369,-84.38951,
AUTO THEFT,183570867,12/23/2018,3062 GREENDALE DR NW,201,Westminster/Milmar,C,33.83894,-84.4263,
AUTO THEFT,183571470,12/23/2018,225 10TH ST NE,503,Midtown,E,33.78169,-84.37996,
AUTO THEFT,183571365,12/23/2018,1750 ELLSWORTH INDUSTRIAL BLVD NW,204,Underwood Hills,D,33.80323,-84.42711,
AUTO THEFT,183571258,12/23/2018,1544 PIEDMONT AVE NE @ANSLEY MALL,213,Piedmont Heights,F,33.79789,-84.37101,
AUTO THEFT,183571044,12/23/2018,1049 JUNIPER ST NE,503,Midtown,E,33.78328,-84.38196,
AUTO THEFT,183570849,12/23/2018,80 BURBANK DR NW,105,Hunter Hills,K,33.757,-84.42874,
AUTO THEFT,183570617,12/23/2018,1230 REDFORD DR SE,308,Rebel Valley Forest,Z,33.68592,-84.35369,
AUTO THEFT,183570467,12/23/2018,2442 MARTIN L KING JR DR SW,405,Florida Heights,I,33.75095,-84.46728,
AUTO THEFT,183540630,12/23/2018,958 ESTES DR SW,306,Sylvan Hills,X,33.6984,-84.42026,
AUTO THEFT,183560788,12/22/2018,870 MAYSON TURNER RD NW,102,Vine City,L,33.756,-84.41629,
AUTO THEFT,183561708,12/22/2018,329 14TH ST NW,501,Home Park,E,33.78635,-84.39797,
AUTO THEFT,183560584,12/22/2018,1150 ASTOR AVE SW,306,Sylvan Hills,X,33.70137,-84.42678,
AUTO THEFT,183560967,12/22/2018,100 COLONIAL HOMES DR NW,205,,C,33.81358,-84.39348,
AUTO THEFT,183561694,12/22/2018,2261 CASCADE RD SW,406,Cascade Avenue/Road,S,33.72274,-84.46264,
AUTO THEFT,183561633,12/22/2018,850 OAK ST SW @WESTEND MALL,401,West End,T,33.74053,-84.41671,
AUTO THEFT,183561468,12/22/2018,221 DODD AVE SW,303,Mechanicsville,V,33.73357,-84.39524,
AUTO THEFT,183561449,12/22/2018,2685 METROPOLITAN PKWY SW,309,Perkerson,X,33.68274,-84.40902,
AUTO THEFT,183561234,12/22/2018,858 PINEHURST TER SW,402,Oakland City,S,33.73176,-84.43142,
AUTO THEFT,183561735,12/22/2018,2840 GREENBRIAR PKWY SW,411,Greenbriar,R,33.68764,-84.48965,
AUTO THEFT,183560930,12/22/2018,2470 CHESHIRE BRIDGE RD NE,212,Lindridge/Martin Manor,F,33.82205,-84.35239,
AUTO THEFT,183560890,12/22/2018,3440 BROWNS MILL RD SE,313,Blair Villa/Poole Creek,Z,33.66046,-84.38367,
AUTO THEFT,183560821,12/22/2018,1840 CAMPBELLTON ROAD SW,408,,R,33.70979,-84.44865,
AUTO THEFT,183560799,12/22/2018,2997 CAMPBELLTON RD SW,409,Southwest,R,33.6962,-84.48681,
AUTO THEFT,183561993,12/22/2018,199 14TH ST NE,503,Midtown,E,33.78639,-84.38045,
AUTO THEFT,183561739,12/22/2018,452 CAMROSEWAY,113,Fairburn Heights,H,33.76757,-84.50623,
AUTO THEFT,183560644,12/22/2018,585 MCWILLIAMS RD SE,310,Browns Mill Park,Z,33.6887,-84.36924,
LARCENY-NON VEHICLE,183561917,12/22/2018,820 OAK ST SW,401,West End,T,33.74055,-84.41518,
LARCENY-NON VEHICLE,183560742,12/22/2018,253 BURBANK DR NW,105,Hunter Hills,K,33.76209,-84.42892,
LARCENY-NON VEHICLE,183568055,12/22/2018,8700 SPINE RD,706,,,33.64115,-84.4387,
LARCENY-NON VEHICLE,183560333,12/22/2018,1968 JONES AVE NW,110,Grove Park,J,33.78671,-84.45197,
LARCENY-NON VEHICLE,183561565,12/22/2018,1723 LAKEWOOD AVE,307,Lakewood Heights,Y,33.70678,-84.38031,
LARCENY-NON VEHICLE,183560675,12/22/2018,763 LEE ANDREWS AVE SE,308,Norwood Manor,Z,33.69773,-84.36421,
LARCENY-NON VEHICLE,183560902,12/22/2018,563 WINTON TER NE,603,Old Fourth Ward,M,33.7684,-84.36878,
LARCENY-FROM VEHICLE,183560645,12/22/2018,588 FLETCHER ST SW,302,Pittsburgh,V,33.72551,-84.40675,
LARCENY-FROM VEHICLE,183560813,12/22/2018,227 COURTLAND ST NE,509,Downtown,M,33.76067,-84.38354,
LARCENY-FROM VEHICLE,183560076,12/22/2018,224 PEACHTREE CENTER AVE NE,509,Downtown,M,33.76046,-84.38615,
LARCENY-FROM VEHICLE,183560084,12/22/2018,3334 PEACHTREE RD NE @ONE BUCKHEAD LOOP,208,North Buckhead,B,33.84911,-84.37075,
LARCENY-FROM VEHICLE,183560323,12/22/2018,501 EDGEWOOD AVE SE,604,Old Fourth Ward,M,33.75394,-84.371,
LARCENY-FROM VEHICLE,183560416,12/22/2018,1041 W PEACHTREE ST NE @RESIDENCE INN,503,Midtown,E,33.78306,-84.38746,
LARCENY-FROM VEHICLE,183560471,12/22/2018,100 COLONIAL HOMES DR NW,205,,C,33.81368,-84.3927,
LARCENY-FROM VEHICLE,183560776,12/22/2018,2470 CHESHIRE BRIDGE RD NE,212,Lindridge/Martin Manor,F,33.82236,-84.35173,
LARCENY-FROM VEHICLE,183561922,12/22/2018,2625 PIEDMONT RD NE,211,Lindbergh/Morosgo,B,33.82742,-84.36532,
LARCENY-FROM VEHICLE,183560840,12/22/2018,525 FEDERAL TER SE,305,Chosewood Park,Y,33.71489,-84.37065,
LARCENY-FROM VEHICLE,183561010,12/22/2018,17 BAKER ST NW,508,Downtown,M,33.76235,-84.38819,
LARCENY-FROM VEHICLE,183561027,12/22/2018,701 MEMORIAL DR SE,606,Grant Park,W,33.74645,-84.36472,
LARCENY-FROM VEHICLE,183561148,12/22/2018,1098 WASHITA AVE NE ,602,Inman Park,N,33.76311,-84.35218,
LARCENY-FROM VEHICLE,183561157,12/22/2018,602 N HIGHLAND AVE NE @MANUELS,602,Poncey-Highland,N,33.77082,-84.35274,
LARCENY-FROM VEHICLE,183561411,12/22/2018,98 YONAH DR NE,502,Ansley Park,E,33.79016,-84.38283,
LARCENY-FROM VEHICLE,183561647,12/22/2018,3030 HEADLAND DR SW,411,Greenbriar,R,33.68845,-84.49328,
LARCENY-FROM VEHICLE,183570281,12/22/2018,30 IVAN ALLEN JR BLVD NW,509,Downtown,M,33.76444,-84.3884,
LARCENY-NON VEHICLE,183561100,12/22/2018,565 JOSEPH E LOWERY BLVD SW,401,West End,T,33.73969,-84.41828,
LARCENY-NON VEHICLE,183561715,12/22/2018,375 18TH ST NW @TARGET - 18TH,501,Atlantic Station,E,33.79303,-84.39921,
LARCENY-NON VEHICLE,183561544,12/22/2018,1275 CAROLINE ST NE @TARGET - CAROLINE,609,Edgewood,O,33.75674,-84.34619,
LARCENY-NON VEHICLE,183561326,12/22/2018,2625 PIEDMONT RD NE,211,Lindbergh/Morosgo,B,33.82742,-84.36532,
LARCENY-NON VEHICLE,183561664,12/22/2018,1275 CAROLINE ST NE @TARGET - CAROLINE,609,Edgewood,O,33.75674,-84.34619,
LARCENY-NON VEHICLE,183560953,12/22/2018,650 PONCE DE LEON AVE NE @HOME DEPOT ,506,Midtown,E,33.77469,-84.36561,
LARCENY-NON VEHICLE,183560872,12/22/2018,835 MARTIN LUTHER KING JR DR NW ,102,Vine City,L,33.75504,-84.41457,
BURGLARY-NONRES,183561443,12/22/2018,300 PETERS ST SW,507,Castleberry Hill,M,33.74651,-84.40219,
BURGLARY-NONRES,183561037,12/22/2018,464 BISHOP ST NW,207,Loring Heights,E,33.79291,-84.40267,
BURGLARY-RESIDENCE,183561096,12/22/2018,1966 TIGER FLOWERS DR NW,108,Dixie Hills,J,33.75991,-84.45154,
BURGLARY-RESIDENCE,183561479,12/22/2018,820 W MARIETTA ST NW,103,English Avenue,L,33.78045,-84.41554,
BURGLARY-RESIDENCE,183561195,12/22/2018,1341 MONTREAT AVE SW,402,Oakland City,S,33.72949,-84.43152,
BURGLARY-NONRES,183560654,12/22/2018,3355 LENOX RD NE,210,Lenox,B,33.84673,-84.35814,
LARCENY-NON VEHICLE,183561512,12/22/2018,210 PEACHTREE ST,508,Downtown,M,33.75943,-84.38837,
AGG ASSAULT,183560481,12/22/2018,2909 CAMPBELLTON RD SW ,409,Southwest,R,33.69872,-84.48418,
AGG ASSAULT,183561359,12/22/2018,2370 METROPOLITAN PKWY SW @SANTA FE VILLAS,309,Perkerson,X,33.69017,-84.40775,
BURGLARY-RESIDENCE,183560316,12/22/2018,3041 LANDRUM DR SW,409,Southwest,R,33.70649,-84.48782,
BURGLARY-RESIDENCE,183560063,12/22/2018,741 MOROSGO DR NE,211,Lindbergh/Morosgo,B,33.82296,-84.36346,
BURGLARY-RESIDENCE,183560703,12/22/2018,755 HOLMES ST NW,207,Berkeley Park,D,33.79953,-84.41291,
AGG ASSAULT,183561159,12/22/2018,1069 OLLIE CIR NW,105,Washington Park,K,33.7605,-84.42288,
ROBBERY-PEDESTRIAN,183560458,12/22/2018,215 LAKEWOOD WAY SW ,307,Lakewood Heights,Y,33.70026,-84.3942,
ROBBERY-PEDESTRIAN,183550106,12/21/2018,3766 BRANCH DR SW ,407,Fairburn Road/Wisteria Lane,H,33.74946,-84.51165,
ROBBERY-PEDESTRIAN,183551553,12/21/2018,187 MOURY AVE SW,305,The Villages at Carver,Y,33.71449,-84.39138,
ROBBERY-COMMERCIAL,183550864,12/21/2018,1531 CAMPBELLTON RD,408,Venetian Hills,S,33.71334,-84.4387,
ROBBERY-COMMERCIAL,183551622,12/21/2018,2615 DONALD LEE HOLLOWELL PKWY NW,109,Center Hill,J,33.7762,-84.47236,
ROBBERY-PEDESTRIAN,183552086,12/21/2018,1052 DILL AVE SW,301,Capitol View,X,33.71811,-84.42266,
ROBBERY-PEDESTRIAN,183551769,12/21/2018,1634 LAKEWOOD AVE SE,307,Lakewood Heights,Y,33.70965,-84.37962,
ROBBERY-RESIDENCE,183551643,12/21/2018,225 CENTRAL AVE SW,512,Downtown,M,33.74833,-84.39183,
BURGLARY-RESIDENCE,183551364,12/21/2018,139 DAHLIA AVE NW,108,Dixie Hills,J,33.75777,-84.46193,
BURGLARY-RESIDENCE,183551289,12/21/2018,401 10TH ST NW,501,Home Park,E,33.7816,-84.40001,
BURGLARY-RESIDENCE,183551964,12/21/2018,2319 PINE GROVE DR NW,201,,C,33.81879,-84.44745,
BURGLARY-RESIDENCE,183551835,12/21/2018,464 BISHOP ST NW,207,Loring Heights,E,33.79291,-84.40267,
AGG ASSAULT,183551246,12/21/2018,806 NORTHSIDE DR NW,504,Marietta Street Artery,E,33.77633,-84.40708,
AGG ASSAULT,183551391,12/21/2018,1378 PRYOR RD,305,High Point,Y,33.71707,-84.39343,
AGG ASSAULT,183551684,12/21/2018,2053 MARTIN L KING JR DR NW,108,,I,33.75002,-84.45409,
LARCENY-NON VEHICLE,183551245,12/21/2018,3393 PEACHTREE RD NE,210,Lenox,B,33.84676,-84.36212,
LARCENY-NON VEHICLE,183551200,12/21/2018,1801 HOWELL MILL RD NW,204,Berkeley Park,D,33.80388,-84.41278,
BURGLARY-RESIDENCE,183551349,12/21/2018,525 BISMARK RD NE,212,Morningside/Lenox Park,F,33.81082,-84.3652,
BURGLARY-RESIDENCE,183551105,12/21/2018,1888 EMERY ST NW,205,Wildwood (NPU-C),C,33.80701,-84.41444,
BURGLARY-RESIDENCE,183550268,12/21/2018,1194 OAKLAND LN SW,403,Oakland City,S,33.71941,-84.42715,
BURGLARY-RESIDENCE,183550939,12/21/2018,455 14TH ST NW,501,Home Park,E,33.78629,-84.40208,
BURGLARY-NONRES,183550276,12/21/2018,1801 HOWELL MILL RD NW,204,Berkeley Park,D,33.80388,-84.41278,
BURGLARY-NONRES,183550381,12/21/2018,1541 RALPH D ABERNATHY BLVD SW,404,Westview,T,33.74384,-84.43787,
BURGLARY-NONRES,183551401,12/21/2018,507 BISHOP ST NW,207,Loring Heights,E,33.79231,-84.40486,
LARCENY-NON VEHICLE,183550877,12/21/2018,1598 DONALD LEE HOLLOWELL PKWY NW,107,Grove Park,J,33.77167,-84.4406,
LARCENY-NON VEHICLE,183551002,12/21/2018,375 18TH ST NW @TARGET - 18TH,501,Atlantic Station,E,33.79303,-84.39921,
LARCENY-NON VEHICLE,183551142,12/21/2018,1275 CAROLINE ST NE @TARGET - CAROLINE,609,Edgewood,O,33.75674,-84.34619,
LARCENY-NON VEHICLE,183550692,12/21/2018,12 BROAD ST,511,Downtown,M,33.7532,-84.39201,
LARCENY-NON VEHICLE,183551330,12/21/2018,464 MORELAND AVE NE,602,Inman Park,N,33.76686,-84.34915,
LARCENY-NON VEHICLE,183551406,12/21/2018,3393 PEACHTREE RD NE @LENOX MALL,210,Lenox,B,33.84676,-84.36212,
LARCENY-NON VEHICLE,183551584,12/21/2018,1275 CAROLINE ST NE @TARGET - CAROLINE,609,Edgewood,O,33.75674,-84.34619,
LARCENY-NON VEHICLE,183551649,12/21/2018,3393 PEACHTREE RD NE @LENOX MALL,210,Lenox,B,33.84676,-84.36212,
LARCENY-NON VEHICLE,183551685,12/21/2018,1801 HOWELL MILL RD NW,204,Berkeley Park,D,33.80388,-84.41278,
LARCENY-NON VEHICLE,183551548,12/21/2018,1723 LAKEWOOD AVE SE,307,Lakewood Heights,Y,33.70678,-84.38031,
LARCENY-NON VEHICLE,183551167,12/21/2018,1469 CAMPBELLTON RD SW,408,Venetian Hills,S,33.71409,-84.43661,
LARCENY-FROM VEHICLE,183551240,12/21/2018,826 MARIETTA ST NW,504,Marietta Street Artery,E,33.77477,-84.4067,
LARCENY-FROM VEHICLE,183551280,12/21/2018,PONCE DE LEON AVE NE / LINWOOD AVE NE,601,,F,33.77382,-84.35733,
LARCENY-FROM VEHICLE,183551384,12/21/2018,1111 EUCLID AVE NE,602,Inman Park,N,33.764,-84.35057,
LARCENY-FROM VEHICLE,183551700,12/21/2018,3500 PEACHTREE RD NE @PHIPPS PLAZA,208,North Buckhead,B,33.85252,-84.36116,
LARCENY-FROM VEHICLE,183551716,12/21/2018,757 CLEVELAND AVE SW,309,Perkerson,X,33.68232,-84.41417,
LARCENY-FROM VEHICLE,183551777,12/21/2018,LARKIN ST SW / NORTHSIDE DR SW,507,Castleberry Hill,M,33.74801,-84.40514,
LARCENY-FROM VEHICLE,183551807,12/21/2018,1071 HOWELL MILL RD NW,501,Home Park,E,33.78412,-84.41124,
LARCENY-FROM VEHICLE,183551151,12/21/2018,617 SPRING ST NW,505,Midtown,E,33.77145,-84.38874,
LARCENY-FROM VEHICLE,183551926,12/21/2018,422 SEMINOLE AVE NE,602,Inman Park,N,33.76594,-84.34956,
LARCENY-FROM VEHICLE,183550907,12/21/2018,299 MORELAND AVE NE,608,Candler Park,N,33.76247,-84.34883,
LARCENY-FROM VEHICLE,183552008,12/21/2018,1950 HOWELL MILL RD NW ,205,Channing Valley,C,33.80944,-84.41286,
LARCENY-FROM VEHICLE,183552052,12/21/2018,950 W PEACHTREE ST NW @PUBLIX - W PEACHTREE,503,Midtown,E,33.78014,-84.38747,
LARCENY-FROM VEHICLE,183552177,12/21/2018,75 MARTIN L KING JR DR SW,511,Downtown,M,33.75119,-84.38996,
LARCENY-FROM VEHICLE,183551907,12/21/2018,1025 HOWELL MILL RD NW,501,Home Park,E,33.78285,-84.41126,
LARCENY-FROM VEHICLE,183550313,12/21/2018,599 WHITEHALL ST SW,303,Pittsburgh,V,33.74277,-84.40756,
LARCENY-FROM VEHICLE,183552002,12/21/2018,2275 PEACHTREE RD NE,211,,E,33.81592,-84.39055,
LARCENY-FROM VEHICLE,183550379,12/21/2018,4279 ROSWELL RD NE,209,North Buckhead,B,33.87121,-84.37931,
LARCENY-FROM VEHICLE,183550486,12/21/2018,450 16TH ST NW,501,Home Park,E,33.78829,-84.40378,
LARCENY-FROM VEHICLE,183550500,12/21/2018,870 MAYSON TURNER RD NW,102,Vine City,L,33.756,-84.41629,
LARCENY-FROM VEHICLE,183550539,12/21/2018,1420 MCPHERSON AVE SE,612,East Atlanta,W,33.74437,-84.34111,
LARCENY-FROM VEHICLE,183550733,12/21/2018,2715 PEACHTREE RD NE @SECOND PONCE DE LEO,206,Garden Hills,B,33.82924,-84.38579,
LARCENY-FROM VEHICLE,183550783,12/21/2018,2400 PARKLAND DR NE,211,Lindbergh/Morosgo,B,33.81987,-84.36568,
LARCENY-FROM VEHICLE,183550787,12/21/2018,1968 PEACHTREE RD NW @PIEDMONT HOSPITAL,207,,E,33.80881,-84.3951,
LARCENY-FROM VEHICLE,183550794,12/21/2018,2115 PIEDMONT RD NE @SQUIRE INN MOTEL NE,212,Morningside/Lenox Park,F,33.81235,-84.36578,
LARCENY-FROM VEHICLE,183550891,12/21/2018,434 PEEPLES ST SW,104,Harris Chiles,T,33.74299,-84.42039,
LARCENY-FROM VEHICLE,183550025,12/21/2018,311 PEACHTREE HILLS AVE NE,211,Peachtree Hills,B,33.81769,-84.37757,
LARCENY-FROM VEHICLE,183551182,12/21/2018,10 THE PRADO NE,502,Ansley Park,E,33.79148,-84.37508,
LARCENY-FROM VEHICLE,183550290,12/21/2018,11 BAKER ST NW,508,Downtown,M,33.76234,-84.38803,
LARCENY-FROM VEHICLE,183550610,12/21/2018,160 4TH ST NE,505,Midtown,E,33.77484,-84.38209,
LARCENY-FROM VEHICLE,183551568,12/21/2018,1150 ASTOR AVE SW,306,Sylvan Hills,X,33.70137,-84.42678,
LARCENY-FROM VEHICLE,183550397,12/21/2018,2095 MARIETTA BLVD NW,204,Bolton,D,33.81265,-84.43854,
LARCENY-NON VEHICLE,183551761,12/21/2018,597 SAINT CHARLES AVE NE,506,Midtown,E,33.77524,-84.36724,
LARCENY-NON VEHICLE,183551942,12/21/2018,240 N HIGHLAND AVE NE ,602,Inman Park,N,33.76191,-84.36039,
LARCENY-NON VEHICLE,183551156,12/21/2018,3390 FAIRBURN RD SW,414,Ben Hill,P,33.6639,-84.52377,
LARCENY-NON VEHICLE,183550587,12/21/2018,752 JONES AVE NW,103,English Avenue,L,33.76407,-84.41184,
LARCENY-NON VEHICLE,183551452,12/21/2018,825 GASTON ST SW,402,Oakland City,S,33.73268,-84.43651,
LARCENY-NON VEHICLE,183551093,12/21/2018,793 BERNE ST SE,605,Grant Park,W,33.73633,-84.36149,
LARCENY-NON VEHICLE,183550727,12/21/2018,705 PIEDMONT AVE NE,505,Midtown,E,33.77385,-84.38154,
LARCENY-NON VEHICLE,183551323,12/21/2018,3201 CAINS HILL PL NW,206,South Tuxedo Park,B,33.84192,-84.38007,
LARCENY-NON VEHICLE,183551069,12/21/2018,300 PETERS ST SW,507,Castleberry Hill,M,33.74651,-84.40219,
LARCENY-NON VEHICLE,183551567,12/21/2018,1715 HOWELL MILL RD NW @KROGER - HOWELL MILL,204,Berkeley Park,D,33.80089,-84.4157,
LARCENY-NON VEHICLE,183551181,12/21/2018,541 MAIN ST NE,211,Lindbergh/Morosgo,B,33.82229,-84.36873,
AUTO THEFT,183551198,12/21/2018,100 E ANDREWS DR NE ,206,South Tuxedo Park,B,33.84319,-84.38211,
AUTO THEFT,183550933,12/21/2018,1783 WILLIS MILL RD SW,409,Southwest,R,33.70731,-84.47007,
AUTO THEFT,183551315,12/21/2018,1903 DREW DR NW @APS WESTSIDE,110,West Highlands,G,33.79346,-84.45106,
AUTO THEFT,183550618,12/21/2018,300 PETERS ST SW,507,Castleberry Hill,M,33.74651,-84.40219,
AUTO THEFT,183550613,12/21/2018,1017 HUTCHENS RD SE,313,South River Gardens,Z,33.6656,-84.35591,
AUTO THEFT,183550443,12/21/2018,1371 KIMBERLY WAY SW,412,Ashley Courts,P,33.71771,-84.52315,
AUTO THEFT,183550406,12/21/2018,1059 OGLETHORPE AVE SW,401,West End,T,33.73588,-84.42236,
AUTO THEFT,183550339,12/21/2018,912 MARTIN L KING JR DR NW,102,Atlanta University Center,T,33.75427,-84.41723,
AUTO THEFT,183550145,12/21/2018,759 WOODLAND AVE SE,607,Ormewood Park,W,33.73368,-84.35162,
AUTO THEFT,183551984,12/21/2018,60 11TH ST NE,503,Midtown,E,33.78364,-84.38514,
AUTO THEFT,183550338,12/21/2018,125 MILTON AVE SE,305,Chosewood Park,Y,33.72157,-84.38505,
AUTO THEFT,183551524,12/21/2018,1874 PEACHTREE RD NW,207,Ardmore,E,33.80624,-84.3944,
AUTO THEFT,183552081,12/21/2018,635 LINDBERGH DR NE,211,Lindbergh/Morosgo,B,33.8213,-84.36689,
AUTO THEFT,183551509,12/21/2018,850 OAK ST SW,401,West End,T,33.74053,-84.41671,
AUTO THEFT,183541119,12/20/2018,2841 GREENBRIAR PKWY SW @GREENBRIAR MALL,411,Greenbriar,R,33.68677,-84.49773,
AUTO THEFT,183541208,12/20/2018,60 PASCHAL BLVD NW,102,Vine City,L,33.75783,-84.41419,
AUTO THEFT,183540072,12/20/2018,555 WHITEHALL ST SW,303,Mechanicsville,V,33.74297,-84.40628,
AUTO THEFT,183540029,12/20/2018,1001 WESTMOOR DR NW,105,Washington Park,K,33.75976,-84.4205,
AUTO THEFT,183541615,12/20/2018,2131 CAMPBELLTON RD SW,409,Southwest,R,33.69258,-84.49266,
AUTO THEFT,183541398,12/20/2018,2805 CAMPBELLTON RD SW,409,Southwest,R,33.7007,-84.48059,
AUTO THEFT,183541226,12/20/2018,2925 HEADLAND DR,411,Greenbriar,R,33.69094,-84.48457,
AUTO THEFT,183541166,12/20/2018,2625 PIEDMONT RD NE,211,Lindbergh/Morosgo,B,33.82742,-84.36532,
AUTO THEFT,183540616,12/20/2018,1341 METROPOLITAN PKWY SW,301,Capitol View,X,33.71805,-84.40809,
AUTO THEFT,183541060,12/20/2018,1 CENTENNIAL OLYMPIC P DR NW,507,Downtown,M,33.75472,-84.39844,
AUTO THEFT,183541057,12/20/2018,635 LINDBERGH DR NE,211,Lindbergh/Morosgo,B,33.8213,-84.36689,
AUTO THEFT,183540756,12/20/2018,3721 CAMPBELLTON RD SW @BEN HILL PLAZA SC,412,Ben Hill Acres,P,33.69136,-84.51037,
AUTO THEFT,183540698,12/20/2018,21 KELSO AT PEYTON DR SW,405,Florida Heights,I,33.74907,-84.46805,
LARCENY-NON VEHICLE,183540094,12/20/2018,576 LEE ST SW,401,West End,T,33.73921,-84.41367,
LARCENY-NON VEHICLE,183548116,12/20/2018,11700 SPINE RD,703,,,33.63757,-84.42971,
LARCENY-NON VEHICLE,183542020,12/20/2018,1870 CAMPBELLTON RD SW,408,,R,33.70939,-84.44964,
LARCENY-NON VEHICLE,183541590,12/20/2018,89 LUCKIE ST NW @QUALITY HOTEL,508,Downtown,M,33.75738,-84.3893,
LARCENY-NON VEHICLE,183540018,12/20/2018,3755 CARMIA DR SW,414,Princeton Lakes,P,33.65571,-84.50908,
LARCENY-NON VEHICLE,183541881,12/20/2018,3393 PEACHTREE RD NE ,210,Lenox,B,33.84676,-84.36212,
LARCENY-NON VEHICLE,183541781,12/20/2018,641 MORELAND AVE SE,607,Ormewood Park,W,33.73669,-84.34958,
LARCENY-NON VEHICLE,183541782,12/20/2018,265 PEACHTREE CENTER AVE NE @MARIOTT MARQUIS,509,Downtown,M,33.76158,-84.38496,
LARCENY-FROM VEHICLE,183540721,12/20/2018,2111 DEFOORS FERRY RD NW,204,,C,33.81261,-84.42536,
LARCENY-FROM VEHICLE,183541771,12/20/2018,2841 GREENBRIAR PKWY SW @GREENBRIAR MALL,411,Greenbriar,R,33.68845,-84.49328,
LARCENY-FROM VEHICLE,183541777,12/20/2018,98 WILLIAM H BORDERS DR SE @SELENA S BUTLER PARK,604,Sweet Auburn,M,33.75118,-84.37486,
LARCENY-FROM VEHICLE,183541876,12/20/2018,3090 HOGAN RD SW,411,Greenbriar,R,33.67718,-84.48942,
LARCENY-FROM VEHICLE,183541891,12/20/2018,3500 PEACHTREE RD NE ,208,North Buckhead,B,33.85252,-84.36116,
LARCENY-FROM VEHICLE,183541892,12/20/2018,250 10TH ST NE,502,Midtown,E,33.78218,-84.37867,
LARCENY-FROM VEHICLE,183541915,12/20/2018,1812 PEACHTREE ST NW,207,Ardmore,E,33.80426,-84.39375,
LARCENY-FROM VEHICLE,183542049,12/20/2018,300 N HIGHLAND AVE NE,602,Inman Park,N,33.76284,-84.35859,
LARCENY-FROM VEHICLE,183541533,12/20/2018,300 MARIETTA ST NW,507,Downtown,M,33.76141,-84.39621,
LARCENY-FROM VEHICLE,183541380,12/20/2018,3242 PEACHTREE RD NE,208,Buckhead Forest,B,33.84425,-84.37311,
LARCENY-FROM VEHICLE,183540680,12/20/2018,1801 HOWELL MILL RD NW,204,Berkeley Park,D,33.80388,-84.41278,
LARCENY-FROM VEHICLE,183541761,12/20/2018,89 MANGUM ST SW,507,Castleberry Hill,M,33.75191,-84.40002,
LARCENY-FROM VEHICLE,183540713,12/20/2018,3419 NORTHSIDE PKWY NE,202,West Paces Ferry/Northside,A,33.84748,-84.42883,
LARCENY-FROM VEHICLE,183540020,12/20/2018,207 PEACHTREE CENTER AVE NE,509,Downtown,M,33.7602,-84.38554,
LARCENY-FROM VEHICLE,183540084,12/20/2018,2082 COTTAGE LN NW,205,Collier Hills,C,33.81226,-84.40669,
LARCENY-FROM VEHICLE,183540270,12/20/2018,35 OAK DR SW,312,Glenrose Heights,Z,33.66878,-84.39456,
LARCENY-FROM VEHICLE,183540330,12/20/2018,570 SPRING ST NW,509,Downtown,M,33.76984,-84.38898,
LARCENY-FROM VEHICLE,183540492,12/20/2018,935 MARIETTA ST NW,504,Marietta Street Artery,E,33.77795,-84.40849,
LARCENY-FROM VEHICLE,183540769,12/20/2018,295 PETERS ST SW,507,Castleberry Hill,M,33.74667,-84.40285,
LARCENY-FROM VEHICLE,183540883,12/20/2018,417 WOODWARD WAY NW,205,Peachtree Battle Alliance,C,33.81801,-84.40188,
LARCENY-FROM VEHICLE,183540887,12/20/2018,300 TED TURNER DR NW @DAYS INN HOTEL,508,Downtown,M,33.76263,-84.38962,
LARCENY-FROM VEHICLE,183540979,12/20/2018,2277 PEACHTREE RD NE,211,,E,33.81595,-84.39051,
LARCENY-FROM VEHICLE,183541007,12/20/2018,1544 PIEDMONT AVE NE,213,Piedmont Heights,F,33.79789,-84.37101,
LARCENY-FROM VEHICLE,183541063,12/20/2018,3580 CAMPBELLTON RD SW,412,,P,33.6899,-84.50584,
LARCENY-FROM VEHICLE,183541087,12/20/2018,290 LOOMIS AVE SE,605,Grant Park,W,33.74656,-84.37127,
LARCENY-FROM VEHICLE,183541151,12/20/2018,590 W PEACHTREE ST NW,509,Downtown,M,33.7702,-84.38754,
LARCENY-FROM VEHICLE,183541221,12/20/2018,507 BISPHOP,207,Loring Heights,E,33.79257,-84.4046,
LARCENY-FROM VEHICLE,183540579,12/20/2018,144 EDGEWOOD AVE NE,510,Downtown,M,33.75466,-84.38344,
LARCENY-NON VEHICLE,183540996,12/20/2018,343 JOSEPH E LOWERY BLVD SW,104,Ashview Heights,T,33.74569,-84.41786,
LARCENY-NON VEHICLE,183541045,12/20/2018,835 MARTIN LUTHER KING JR DR,102,Vine City,L,33.75504,-84.41457,
LARCENY-NON VEHICLE,183540890,12/20/2018,2001 JAMES JACKSON PKWY NW,203,Riverside,D,33.81063,-84.47569,
LARCENY-NON VEHICLE,183540933,12/20/2018,850 NORTHSIDE DR NW,504,Marietta Street Artery,E,33.77807,-84.40773,
LARCENY-NON VEHICLE,183541262,12/20/2018,1801 HOWELL MILL RD NW,204,Berkeley Park,D,33.80388,-84.41278,
LARCENY-NON VEHICLE,183541528,12/20/2018,590 CASCADE AVE SW @KROGER - CASCADE,402,West End,T,33.73812,-84.43276,
LARCENY-NON VEHICLE,183541303,12/20/2018,2539 PIEDMONT RD NE @TARGET - PIEDMONT,211,Lindbergh/Morosgo,B,33.82403,-84.36328,
LARCENY-NON VEHICLE,183541307,12/20/2018,230 CLEVELAND AVE SW ,311,Glenrose Heights,Z,33.68012,-84.39573,
LARCENY-NON VEHICLE,183541622,12/20/2018,590 CASCADE AVE SW @KROGER - CASCADE,402,West End,T,33.73812,-84.43276,
LARCENY-NON VEHICLE,183540656,12/20/2018,835 MARTIN LUTHER KING JR DR,102,Vine City,L,33.75504,-84.41457,
LARCENY-NON VEHICLE,183540615,12/20/2018,2625 PIEDMONT RD NE,211,Lindbergh/Morosgo,B,33.82742,-84.36532,
BURGLARY-NONRES,183540293,12/20/2018,2900 PEACHTREE RD NW ,206,Peachtree Heights West,B,33.83399,-84.3841,
BURGLARY-NONRES,183541385,12/20/2018,1801 HOWELL MILL RD NW,204,Berkeley Park,D,33.80388,-84.41278,
BURGLARY-NONRES,183540913,12/20/2018,2400 PARKLAND DR NE,211,Lindbergh/Morosgo,B,33.81987,-84.36568,
BURGLARY-NONRES,183540255,12/20/2018,1005 LEE ST SW,402,Oakland City,S,33.72724,-84.41795,
BURGLARY-RESIDENCE,183541429,12/20/2018,187 MOURY AVE SW,305,The Villages at Carver,Y,33.71449,-84.39138,
BURGLARY-RESIDENCE,183541451,12/20/2018,789 DILL AVE SW,301,Capitol View,X,33.71853,-84.41368,
BURGLARY-RESIDENCE,183541486,12/20/2018,2450 CAMELLIA LN NE,211,Lindbergh/Morosgo,B,33.82269,-84.37114,
BURGLARY-RESIDENCE,183541142,12/20/2018,45 LINKWOOD RD NW,111,Westhaven,I,33.7564,-84.48198,
BURGLARY-RESIDENCE,183541642,12/20/2018,600 GARSON DR NE,211,Lindbergh/Morosgo,B,33.81861,-84.37021,
BURGLARY-RESIDENCE,183541037,12/20/2018,600 GARSON DR NE,211,Lindbergh/Morosgo,B,33.81861,-84.37021,
BURGLARY-RESIDENCE,183540267,12/20/2018,1598 JONESBORO RD SE,307,Lakewood Heights,Y,33.70886,-84.38078,
BURGLARY-RESIDENCE,183541073,12/20/2018,505 ROSEMONT DR SE,611,East Lake,O,33.73864,-84.2964,
BURGLARY-RESIDENCE,183541196,12/20/2018,1258 DEKALB AVE NE,608,Candler Park,N,33.76105,-84.34615,
BURGLARY-RESIDENCE,183541932,12/20/2018,390 STOVALL ST SE,606,Ormewood Park,W,33.7436,-84.35429,
LARCENY-NON VEHICLE,183541445,12/20/2018,736 PONCE DE LEON AVE NE,601,Virginia Highland,F,33.77386,-84.3631,
AGG ASSAULT,183540025,12/20/2018,50 MOUNT ZION RD SW,312,Glenrose Heights,Z,33.67273,-84.39067,
BURGLARY-RESIDENCE,183541822,12/20/2018,2453 CORONET WAY NW,201,,C,33.8209,-84.44958,
BURGLARY-RESIDENCE,183541874,12/20/2018,2399 PARKLAND DR NE,211,Lindbergh/Morosgo,B,33.8201,-84.36481,
ROBBERY-PEDESTRIAN,183541729,12/20/2018,270 FORSYTH ST SW,512,Downtown,M,33.74712,-84.39689,
ROBBERY-RESIDENCE,183540751,12/20/2018,3108 MOUNT GILEAD RD SW,409,Southwest,R,33.69539,-84.49328,
ROBBERY-PEDESTRIAN,183541845,12/20/2018,1069 SEABOARD AVE NE,606,Reynoldstown,N,33.75712,-84.35171,
HOMICIDE,183540845,12/20/2018,4403 NORTHSIDE PKWY NW,201,Paces,A,33.86609,-84.45237,
HOMICIDE,183531087,12/19/2018,2281 CAREY DR SE,310,Lakewood,Z,33.69185,-84.37022,
ROBBERY-PEDESTRIAN,183531224,12/19/2018,2453 CORONET WAY NW,201,,C,33.82117,-84.44793,
ROBBERY-PEDESTRIAN,183530751,12/19/2018,1144 BOULDERCREST DR SE,612,East Atlanta,W,33.72307,-84.33178,
ROBBERY-PEDESTRIAN,183531131,12/19/2018,208 CARROLL ST SE,606,Cabbagetown,N,33.74897,-84.36797,
ROBBERY-PEDESTRIAN,183531183,12/19/2018,JONESBORO RD SE/ LAKEWOOD AVENUE SW,307,Lakewood Heights,Y,33.70735,-84.38009,
ROBBERY-PEDESTRIAN,183532052,12/19/2018,675 PONCE DE LEON AVE NE,603,Old Fourth Ward,M,33.77296,-84.36504,
AGG ASSAULT,183530346,12/19/2018,365 CLEVELAND AVE SE,312,Rosedale Heights,Z,33.67953,-84.37899,
AGG ASSAULT,183532092,12/19/2018,576 GRANT ST  SW,306,Sylvan Hills,X,33.70274,-84.40728,
BURGLARY-RESIDENCE,183530446,12/19/2018,903 HUFF RD NW,203,Blandtown,D,33.78862,-84.41725,
AGG ASSAULT,183531577,12/19/2018,211 CLEVELAND AVE SW ,310,Browns Mill Park,Z,33.68141,-84.39595,
AGG ASSAULT,183522192,12/19/2018,705 UNIVERSITY AVE SW,301,Adair Park,V,33.72245,-84.41062,
AGG ASSAULT,183531911,12/19/2018,41 JESSE HILL JR DR NE,510,Downtown,M,33.75578,-84.38013,
AGG ASSAULT,183531592,12/19/2018,1429 OAKLAND DR SW,403,Oakland City,S,33.71608,-84.42787,
LARCENY-NON VEHICLE,183531811,12/19/2018,74 NORTHSIDE DR SW,507,Castleberry Hill,M,33.75267,-84.40252,
LARCENY-NON VEHICLE,183531182,12/19/2018,1120 RALPH D ABERNATHY BLVD SW,402,West End,T,33.73801,-84.42451,
BURGLARY-RESIDENCE,183531463,12/19/2018,549 MELLVIEW AVE,301,Capitol View Manor,X,33.71803,-84.40558,
BURGLARY-RESIDENCE,183530908,12/19/2018,2870 ALSTON DR SE,611,East Lake,O,33.74524,-84.293,
LARCENY-NON VEHICLE,183531189,12/19/2018,3500 PEACHTREE RD NE ,208,North Buckhead,B,33.85302,-84.36278,
LARCENY-NON VEHICLE,183531075,12/19/2018,1275 CAROLINE ST NE @TARGET - CAROLINE,609,Edgewood,O,33.75674,-84.34619,
LARCENY-NON VEHICLE,183531392,12/19/2018,835 MARTIN LUTHER KING JR DR NW,102,Vine City,L,33.75504,-84.41457,
LARCENY-NON VEHICLE,183531006,12/19/2018,3393 PEACHTREE RD,210,Atlantic Station,E,33.79151,-84.39188,
LARCENY-NON VEHICLE,183530965,12/19/2018,3050 MARTIN LUTHER KING JR DR SW,405,Harland Terrace,I,33.75177,-84.4857,
LARCENY-NON VEHICLE,183530338,12/19/2018,387 HILL ST SE,605,Grant Park,W,33.74436,-84.37974,
LARCENY-NON VEHICLE,183531416,12/19/2018,2841 GREENBRIAR PKWY SW @Multiple,411,Greenbriar,R,33.68677,-84.49773,
LARCENY-NON VEHICLE,183531160,12/19/2018,2561 PIEDMONT RD NE,211,Lindbergh/Morosgo,B,33.82561,-84.36464,
LARCENY-NON VEHICLE,183531933,12/19/2018,25 SW PEACHTREE ST SW,510,Downtown,M,33.75366,-84.39047,
LARCENY-NON VEHICLE,183531909,12/19/2018,2525 PIEDMONT RD NE @HOME DEPOT,211,Lindbergh/Morosgo,B,33.824,-84.36521,
LARCENY-NON VEHICLE,183531836,12/19/2018,2841 GREENBRIAR PKWY SW @GREENBRIAR MALL,411,Greenbriar,R,33.68677,-84.49773,
LARCENY-NON VEHICLE,183531549,12/19/2018,835 MARTIN LUTHER KING JR DR NW,102,Vine City,L,33.75504,-84.41457,
LARCENY-NON VEHICLE,183531754,12/19/2018,3500 PEACHTREE RD NE,208,North Buckhead,B,33.85302,-84.36278,
LARCENY-NON VEHICLE,183531746,12/19/2018,1275 CAROLINE ST NE @TARGET - CAROLINE,609,Edgewood,O,33.75674,-84.34619,
LARCENY-NON VEHICLE,183531252,12/19/2018,3260 DONALD LEE HOLLOWELL PKWY NW,114,Bankhead/Bolton,H,33.78735,-84.49452,
LARCENY-FROM VEHICLE,183530951,12/19/2018,165 KEVIN CT NW,111,,I,33.75972,-84.48665,
LARCENY-FROM VEHICLE,183532064,12/19/2018,3167 PEACHTREE  ROAD,206,Buckhead Village,B,33.84031,-84.37588,
LARCENY-FROM VEHICLE,183530277,12/19/2018,490 GLENN ST SW,303,Mechanicsville,V,33.73805,-84.40262,
LARCENY-FROM VEHICLE,183532139,12/19/2018,1824 CHESHIRE BRIDGE RD NE,212,Morningside/Lenox Park,F,33.80931,-84.36303,
LARCENY-FROM VEHICLE,183532181,12/19/2018,931 MONROE DR NE @BELTLINE BUSINESS,506,Midtown,E,33.77909,-84.36717,
LARCENY-FROM VEHICLE,183530548,12/19/2018,3807 BENJAMIN CT SW,407,Fairburn Mays,H,33.73315,-84.51299,
LARCENY-FROM VEHICLE,183530554,12/19/2018,935 MARIETTA ST NW,504,Marietta Street Artery,E,33.77795,-84.40849,
LARCENY-FROM VEHICLE,183530575,12/19/2018,502 PRYOR ST SW,303,Mechanicsville,V,33.74114,-84.39442,
LARCENY-FROM VEHICLE,183530718,12/19/2018,900 BERKSHIRE RD NE,213,Morningside/Lenox Park,F,33.80114,-84.35794,
LARCENY-FROM VEHICLE,183530745,12/19/2018,820 W MARIETTA ST NW,103,English Avenue,L,33.78089,-84.41622,
LARCENY-FROM VEHICLE,183530840,12/19/2018,824 YORKSHIRE RD NE,213,Morningside/Lenox Park,F,33.79548,-84.36008,
LARCENY-FROM VEHICLE,183530893,12/19/2018,1332 METROPOLITAN PKWY SW,301,Capitol View Manor,X,33.71854,-84.40774,
LARCENY-FROM VEHICLE,183532107,12/19/2018,1193 COLLIER RD NW,204,,C,33.81172,-84.4245,
LARCENY-FROM VEHICLE,183530932,12/19/2018,1425 PIEDMONT AVE NE,502,Midtown,E,33.79328,-84.37235,
LARCENY-FROM VEHICLE,183530404,12/19/2018,3747 MILFORD PL SW,412,Cascade Green,P,33.71389,-84.50481,
LARCENY-FROM VEHICLE,183531058,12/19/2018,1040 HUFF RD NW,203,Blandtown,D,33.78949,-84.42125,
LARCENY-FROM VEHICLE,183531134,12/19/2018,710 ARGONNE AVE NE,505,Midtown,E,33.774,-84.37779,
LARCENY-FROM VEHICLE,183531139,12/19/2018,1587 HOWELL MILL RD NW,207,Berkeley Park,D,33.79835,-84.41575,
LARCENY-FROM VEHICLE,183531237,12/19/2018,2841 GREENBRIAR PKWY SW @GREENBRIAR MALL,411,Greenbriar,R,33.68845,-84.49328,
LARCENY-FROM VEHICLE,183531242,12/19/2018,GARTRELL ST SE / DANIEL ST SE,604,Old Fourth Ward,M,33.75197,-84.37016,
LARCENY-FROM VEHICLE,183531776,12/19/2018,976 BRADY AVE NW,501,Home Park,E,33.78127,-84.41331,
LARCENY-FROM VEHICLE,183531819,12/19/2018,602 N HIGHLAND AVE NE ,602,Poncey-Highland,N,33.77082,-84.35274,
LARCENY-FROM VEHICLE,183531949,12/19/2018,2770 LENOX RD NE,210,Pine Hills,B,33.83092,-84.35683,
LARCENY-FROM VEHICLE,183522131,12/19/2018,2999 CONTINENTAL COLONY PKWY SW,411,Greenbriar,R,33.68078,-84.49392,
LARCENY-FROM VEHICLE,183530003,12/19/2018,3660 N CAMP CREEK PKWY SW,414,,P,33.67022,-84.50443,
LARCENY-FROM VEHICLE,183530039,12/19/2018,146 PEACHTREE CENTER AVE NE,510,Downtown,M,33.7586,-84.38618,
LARCENY-FROM VEHICLE,183530180,12/19/2018,3242 PEACHTREE RD NE,208,Buckhead Forest,B,33.84425,-84.37311,
LARCENY-FROM VEHICLE,183532046,12/19/2018,21 ELLIS ST NW,508,Downtown,M,33.75833,-84.38681,
LARCENY-FROM VEHICLE,183530424,12/19/2018,165 COURTLAND ST NE @SHERATON ATLANTA,510,Downtown,M,33.75895,-84.3834,
LARCENY-FROM VEHICLE,183530909,12/19/2018,1861 PEACHTREE RD NE,207,Brookwood Hills,E,33.80592,-84.39347,
LARCENY-NON VEHICLE,183531397,12/19/2018,550 SOMERSET TER NE,602,Poncey-Highland,N,33.76929,-84.36187,
LARCENY-NON VEHICLE,183531203,12/19/2018,1020 EDIE AVE SE,607,Boulevard Heights,W,33.72656,-84.36334,
LARCENY-NON VEHICLE,183530652,12/19/2018,3355 LENOX RD NE,210,Lenox,B,33.84653,-84.35912,
LARCENY-NON VEHICLE,183530747,12/19/2018,232 FORSYTH ST SW,512,Downtown,M,33.74852,-84.39636,
LARCENY-NON VEHICLE,183531617,12/19/2018,265 PEACHTREE ST NE,509,Downtown,M,33.7617,-84.38744,
LARCENY-NON VEHICLE,183531571,12/19/2018,98 ANDERSON AVE NW @APS KIPP COLLEGIATE,108,Dixie Hills,J,33.75633,-84.45114,
LARCENY-NON VEHICLE,183531534,12/19/2018,2400 PARKLAND DR NE,211,Lindbergh/Morosgo,B,33.82006,-84.36502,
LARCENY-NON VEHICLE,183531460,12/19/2018,30 ALABAMA ST SW @FIVE POINTS MARTA ST,511,Downtown,M,33.7521,-84.38955,
LARCENY-NON VEHICLE,183531207,12/19/2018,265 PEACHTREE ST SW,512,Downtown,M,33.74737,-84.39637,
LARCENY-NON VEHICLE,183531304,12/19/2018,887 HOWELL MILL RD NW,504,Marietta Street Artery,E,33.77941,-84.40971,
LARCENY-NON VEHICLE,183530907,12/19/2018,541 MAIN ST NE,211,Lindbergh/Morosgo,B,33.82229,-84.36873,
AUTO THEFT,183531738,12/19/2018,448 BOULEVARD BLVD,607,Grant Park,W,33.74203,-84.36756,
AUTO THEFT,183532047,12/19/2018,2012 COLLIER COMMONS WAY NW,205,Channing Valley,C,33.8094,-84.40931,
AUTO THEFT,183532035,12/19/2018,2000 SYLVAN RD SW,306,Sylvan Hills,X,33.70003,-84.41818,
AUTO THEFT,183531990,12/19/2018,1683 THORNTON PL SW,307,Joyland,Y,33.71073,-84.39961,
AUTO THEFT,183531809,12/19/2018,1232 WYLIE ST SE,609,Edgewood,O,33.75225,-84.34726,
AUTO THEFT,183531050,12/19/2018,860 GLENWOOD AVE SE,605,Grant Park,W,33.74032,-84.35965,
AUTO THEFT,183530967,12/19/2018,2391 PEACHTREE RD NE,211,Peachtree Hills,B,33.8206,-84.3881,
AUTO THEFT,183530936,12/19/2018,415 ARMOUR DR NE,212,,F,33.81267,-84.37412,
AUTO THEFT,183530935,12/19/2018,3120 CAMPBELLTON RD SW,409,Southwest,R,33.69204,-84.49085,
AUTO THEFT,183530599,12/19/2018,3332 PEACHTREE RD NE,208,North Buckhead,B,33.84692,-84.37018,
AUTO THEFT,183530393,12/19/2018,3200 STONE RD SW,411,Greenbriar,R,33.6697,-84.49403,
AUTO THEFT,183520489,12/18/2018,1665 WESTWOOD AVE SW,404,Westview,T,33.73866,-84.4423,
AUTO THEFT,183520517,12/18/2018,674 FAIRBURN RD NW,114,Fairburn Heights,H,33.77369,-84.50043,
AUTO THEFT,183521607,12/18/2018,902 DILL AVE SW,301,Capitol View,X,33.71803,-84.41768,
AUTO THEFT,183520613,12/18/2018,605 BROADVIEW PL NE,211,Lindbergh/Morosgo,B,33.82178,-84.36344,
AUTO THEFT,183520506,12/18/2018,1351 EASON ST NW,105,Hunter Hills,K,33.75755,-84.43212,
AUTO THEFT,183520951,12/18/2018,171 CARNEGIE WAY NW,508,Downtown,M,33.75903,-84.38906,
AUTO THEFT,183521719,12/18/2018,1093 PEACHTREE ST NE,503,Midtown,E,33.78431,-84.38307,
AUTO THEFT,183521103,12/18/2018,101 VERANDA CIR SE,604,Sweet Auburn,M,33.75144,-84.37806,
AUTO THEFT,183521752,12/18/2018,411 PARKWAY DR NE,603,Old Fourth Ward,M,33.76559,-84.37304,
LARCENY-NON VEHICLE,183520722,12/18/2018,860 BRIARCLIFF RD NE,601,Virginia Highland,F,33.77822,-84.34708,
LARCENY-NON VEHICLE,183522235,12/18/2018,300 TED TURNER DR NW @DAYS INN HOTEL,508,Downtown,M,33.76263,-84.38962,
LARCENY-NON VEHICLE,183522229,12/18/2018,590 CASCADE AVE SW,402,West End,T,33.73812,-84.43276,
LARCENY-NON VEHICLE,183520748,12/18/2018,550 PHARR RD NE,206,Buckhead Village,B,33.83707,-84.36988,
LARCENY-NON VEHICLE,183521058,12/18/2018,144 MORELAND AVE NE,606,Reynoldstown,N,33.75698,-84.34929,
LARCENY-NON VEHICLE,183521414,12/18/2018,1970 NORTHSIDE DR NW,205,Channing Valley,C,33.80898,-84.40789,
LARCENY-NON VEHICLE,183520201,12/18/2018,265 PEACHTREE ST NE @HYATT REGENCY HOTEL,509,Downtown,M,33.76152,-84.38672,
LARCENY-NON VEHICLE,183522216,12/18/2018,111 CONE ST NW,508,Downtown,M,33.75798,-84.38969,
LARCENY-NON VEHICLE,183511921,12/18/2018,2275 COUNTRY CLUB LN SW,409,Southwest,R,33.69367,-84.49633,
LARCENY-NON VEHICLE,183521067,12/18/2018,265 PEACHTREE ST,511,Downtown,M,33.76152,-84.38672,
LARCENY-FROM VEHICLE,183520746,12/18/2018,857 COLLIER RD NW,205,Wildwood (NPU-C),C,33.81036,-84.41606,
LARCENY-FROM VEHICLE,183521987,12/18/2018,1372 COLLIER RD NW,204,Underwood Hills,D,33.81016,-84.43258,
LARCENY-FROM VEHICLE,183520964,12/18/2018,767 TRABERT AVE NW,207,Berkeley Park,D,33.79539,-84.41347,
LARCENY-FROM VEHICLE,183522137,12/18/2018,55 FORSYTH ST NW,508,Downtown,M,33.75604,-84.39001,
LARCENY-FROM VEHICLE,183522213,12/18/2018,3030 HEADLAND DR SW,411,Greenbriar,R,33.68841,-84.48742,
LARCENY-FROM VEHICLE,183522029,12/18/2018,857 COLLIER RD NW @HAVE A NICE DAY CAFE,205,Wildwood (NPU-C),C,33.81036,-84.41606,
LARCENY-FROM VEHICLE,183521548,12/18/2018,2521 PIEDMONT RD NE,211,Lindbergh/Morosgo,B,33.82412,-84.36713,
LARCENY-FROM VEHICLE,183522040,12/18/2018,227 10TH ST NE,503,Midtown,E,33.78169,-84.37991,
LARCENY-FROM VEHICLE,183522091,12/18/2018,1447 PIEDMONT AV NE,502,Midtown,E,33.79396,-84.37186,
LARCENY-FROM VEHICLE,183520095,12/18/2018,309 PETERS ST SW,507,Castleberry Hill,M,33.74634,-84.40326,
LARCENY-FROM VEHICLE,183520231,12/18/2018,134 BAKER ST NE @GOOSEBUMPS,509,Downtown,M,33.76241,-84.38307,
