UC2_Literal,Report Number,Report Date,Location,Beat,Neigborhood,NPU,Lat,Long,
ROBBERY-PEDESTRIAN,181208079,04/30/2018,N ECON @6011 N TERMINAL BYWY,705,,,33.64216,-84.44756,
ROBBERY-PEDESTRIAN,181202095,04/30/2018,674 LEXINGTON AVE SW,301,Adair Park,V,33.7232,-84.40962,
ROBBERY-PEDESTRIAN,181201764,04/30/2018,2611 SPRINGDALE RD SW ,309,Perkerson,X,33.68326,-84.41554,
ROBBERY-PEDESTRIAN,181201658,04/30/2018,897 PARSONS ST SW,101,Atlanta University Center,T,33.75095,-84.41694,
ROBBERY-RESIDENCE,181200317,04/30/2018,385 CORVAIR DR SE,312,Orchard Knob,Z,33.66526,-84.37732,
AGG ASSAULT,181201652,04/30/2018,1720 MARTIN LUTHER KING JR DR,104,Mozley Park,K,33.75103,-84.44412,
AGG ASSAULT,181201080,04/30/2018,2019 NORTH AVE NW,107,Grove Park,J,33.76883,-84.45408,
AGG ASSAULT,181201980,04/30/2018,232 FORSYTH ST SW,512,Downtown,M,33.74852,-84.39636,
BURGLARY-RESIDENCE,181201267,04/30/2018,412 SAWTELL AVE SE,307,Lakewood Heights,Y,33.70821,-84.37477,
BURGLARY-RESIDENCE,181201067,04/30/2018,544 LYNHURST DR SW,406,,I,33.74091,-84.49017,
BURGLARY-RESIDENCE,181201717,04/30/2018,349 DECATUR ST SE,604,Sweet Auburn,M,33.74988,-84.37788,
BURGLARY-RESIDENCE,181201663,04/30/2018,816 MAGNOLIA WAY SW,102,Vine City,L,33.75805,-84.41421,
BURGLARY-RESIDENCE,181202121,04/30/2018,275 HUNNICUTT ST NW,504,Downtown,M,33.76673,-84.39587,
BURGLARY-RESIDENCE,181202108,04/30/2018,201 MOURY AVE SW,305,The Villages at Carver,Y,33.71691,-84.39276,
BURGLARY-RESIDENCE,181202428,04/30/2018,445 DEERING RD NW,207,Loring Heights,E,33.79638,-84.40259,
BURGLARY-NONRES,181201439,04/30/2018,510 PIEDMONT AVE NE,509,Downtown,M,33.76851,-84.38219,
BURGLARY-NONRES,181200442,04/30/2018,3500 ATLANTA INDUSTRIAL PKWY NW,114,Atlanta Industrial Park,G,33.79664,-84.49672,
BURGLARY-NONRES,181200522,04/30/2018,3349 MARTIN L KING JR DR NW,111,Adamsville,H,33.75474,-84.49736,
BURGLARY-NONRES,181200376,04/30/2018,17 FAIRBURN RD SW,407,Adamsville,H,33.75837,-84.50593,
LARCENY-NON VEHICLE,181200889,04/30/2018,2429 MARTIN L KING JR DR NW,108,Florida Heights,I,33.75246,-84.46669,
LARCENY-NON VEHICLE,181201345,04/30/2018,2841 GREENBRIAR PKWY SW @GREENBRIAR MALL,411,Greenbriar,R,33.68845,-84.49328,
LARCENY-NON VEHICLE,181200446,04/30/2018,74 NORTHSIDE DR SW,507,Castleberry Hill,M,33.75267,-84.40252,
LARCENY-NON VEHICLE,181201871,04/30/2018,3393 PEACHTREE  RD,210,Lenox,B,33.84676,-84.36212,
LARCENY-FROM VEHICLE,181202369,04/30/2018,3060 PEACHTREE RD NW @CALL BOX 3,206,Peachtree Heights West,B,33.83953,-84.38123,
LARCENY-FROM VEHICLE,181202290,04/30/2018,299 N HIGHLAND AVE NE,602,Inman Park,N,33.76198,-84.35846,
LARCENY-FROM VEHICLE,181202285,04/30/2018,1700 NORTHSIDE DR NW,207,Berkeley Park,D,33.80077,-84.40869,
LARCENY-FROM VEHICLE,181202235,04/30/2018,214 COLONIAL HOMES DR NW,205,Colonial Homes,C,33.81392,-84.39459,
LARCENY-FROM VEHICLE,181200404,04/30/2018,207 PEACHTREE CENTER AVE,509,Downtown,M,33.7602,-84.38554,
LARCENY-FROM VEHICLE,181200368,04/30/2018,1270 DRUID PL NE,608,Candler Park,N,33.76919,-84.34581,
LARCENY-FROM VEHICLE,181200307,04/30/2018,582 LARCHMONT DR NW,112,Collier Heights,I,33.7675,-84.49002,
LARCENY-FROM VEHICLE,181200114,04/30/2018,3086 DONALD LEE HOLLOWELL PKWY NW,112,Collier Heights,I,33.78474,-84.48883,
LARCENY-FROM VEHICLE,181200106,04/30/2018,655 CLEVELAND AVE SW,309,Perkerson,X,33.6824,-84.41029,
LARCENY-FROM VEHICLE,181200079,04/30/2018,2834 GLENLOCKE CIR NW,113,Monroe Heights,G,33.79639,-84.48382,
LARCENY-FROM VEHICLE,181202153,04/30/2018,1784 PEACHTREE ST NW,207,Ardmore,E,33.80334,-84.39351,
LARCENY-FROM VEHICLE,181200575,04/30/2018,2020 BOLTON RD NW,203,Riverside,D,33.81125,-84.47594,
LARCENY-FROM VEHICLE,181201870,04/30/2018,1545 NORTHSIDE DR NW,207,Loring Heights,E,33.79746,-84.40773,
LARCENY-FROM VEHICLE,181201563,04/30/2018,2559 JONESBORO RD SE,310,Browns Mill Park,Z,33.68396,-84.36623,
LARCENY-FROM VEHICLE,181201437,04/30/2018,1073 PIEDMONT AVE NE,502,Midtown,E,33.78384,-84.37897,
LARCENY-FROM VEHICLE,181200464,04/30/2018,1164 EDIE AVE SE,607,Boulevard Heights,W,33.7231,-84.36396,
LARCENY-FROM VEHICLE,181201203,04/30/2018,600 W PEACHTREE ST NE,509,Downtown,M,33.77081,-84.3879,
LARCENY-FROM VEHICLE,181201057,04/30/2018,170 CLEVELAND AVE SW,311,Glenrose Heights,Z,33.68072,-84.39451,
LARCENY-FROM VEHICLE,181201049,04/30/2018,1345 DONNELLY AVE SW,402,West End,T,33.73601,-84.4316,
LARCENY-FROM VEHICLE,181201033,04/30/2018,250 10TH ST NE,502,Midtown,E,33.78218,-84.37867,
LARCENY-FROM VEHICLE,181200950,04/30/2018,1444 LUCILE AVE SW @APS KIPP STRIVE CHR,404,Westview,T,33.74253,-84.43524,
LARCENY-FROM VEHICLE,181200791,04/30/2018,1578 MAY AVE SE,612,East Atlanta,W,33.73915,-84.33605,
LARCENY-FROM VEHICLE,181200670,04/30/2018,959 GLEN ARDEN WAY NE,601,Virginia Highland,F,33.78472,-84.3559,
LARCENY-FROM VEHICLE,181200587,04/30/2018,3380 PEACHTREE RD NE,208,North Buckhead,B,33.84892,-84.36597,
LARCENY-FROM VEHICLE,181201300,04/30/2018,265 PONCE DE LEON AVE NE,505,Midtown,E,33.77206,-84.37869,
LARCENY-FROM VEHICLE,181201262,04/30/2018,2415 CAMELLIA LN NE,211,Lindbergh/Morosgo,B,33.82171,-84.37117,
LARCENY-FROM VEHICLE,181202039,04/30/2018,77 12TH ST NE,503,Midtown,E,33.78424,-84.38496,
LARCENY-FROM VEHICLE,181200690,04/30/2018,638 GLENWOOD AVE SE,605,Grant Park,W,33.74261,-84.36634,
LARCENY-FROM VEHICLE,181201008,04/30/2018,650 PONCE DE LEON AVE NE @HOME DEPOT - PONCE,506,Midtown,E,33.77469,-84.36561,
LARCENY-NON VEHICLE,181201368,04/30/2018,2619 DONALD LEE HOLLOWELL PKWY NW,109,Center Hill,J,33.77579,-84.47254,
LARCENY-NON VEHICLE,181202272,04/30/2018,62 HARWELL RD NW,111,,I,33.7538,-84.493,
LARCENY-NON VEHICLE,181201572,04/30/2018,215 NORTH AVE NE,603,Old Fourth Ward,M,33.77117,-84.38025,
LARCENY-NON VEHICLE,181201039,04/30/2018,800 W MARIETTA ST NW,103,English Avenue,L,33.78022,-84.41514,
LARCENY-NON VEHICLE,181200306,04/30/2018,120 OZONE ST SW,101,Atlanta University Center,T,33.75145,-84.41635,
LARCENY-NON VEHICLE,181200658,04/30/2018,523 COBBLESTONE DR NE,209,North Buckhead,B,33.85508,-84.3714,
LARCENY-NON VEHICLE,181200732,04/30/2018,765 HUMPHRIES ST SW,302,Pittsburgh,V,33.73408,-84.4056,
LARCENY-NON VEHICLE,181201991,04/30/2018,1238 CAHABA DR SW,408,Venetian Hills,S,33.72145,-84.44806,
LARCENY-NON VEHICLE,181201175,04/30/2018,744 GARIBALDI ST SW,303,Mechanicsville,V,33.73459,-84.3989,
AUTO THEFT,181201993,04/30/2018,757 CLEVELAND AVE SW,309,Perkerson,X,33.68232,-84.41417,
AUTO THEFT,181200409,04/30/2018,2159 RIDGEDALE RD NE,610,Kirkwood,O,33.75298,-84.31696,
AUTO THEFT,181201970,04/30/2018,3050 MARTIN L KING JR DR SW,405,Harland Terrace,I,33.75177,-84.4857,
AUTO THEFT,181201026,04/30/2018,308 PEACHTREE HILLS AVE NE @PEACHTREE HILLS PARK,211,Peachtree Hills,B,33.81826,-84.3777,
AUTO THEFT,181190046,04/29/2018,2800 CAMPBELLTON RD SW,410,Campbellton Road,R,33.69967,-84.47996,
AUTO THEFT,181191559,04/29/2018,394 HOLDERNESS ST SW,401,West End,T,33.7443,-84.4268,
AUTO THEFT,181191864,04/29/2018,2110 PEACHTREE RD NW @MICK'S - BENNETT ST,207,,C,33.81203,-84.39274,
AUTO THEFT,181190834,04/29/2018,586 WOODWARD AVE SE,605,Grant Park,W,33.74573,-84.36838,
AUTO THEFT,181190902,04/29/2018,4425 CLEMENT DR SW,407,Bakers Ferry,H,33.75417,-84.53239,
AUTO THEFT,181190738,04/29/2018,1721 BROWNING ST NW,104,Mozley Park,K,33.75265,-84.44342,
AUTO THEFT,181190664,04/29/2018,3200 STONE RD SW,411,Greenbriar,R,33.6697,-84.49403,
AUTO THEFT,181190600,04/29/2018,3901 CAMPBELLTON RD SW,412,Kings Forest,P,33.69231,-84.51621,
AUTO THEFT,181191167,04/29/2018,3580 CAMPBELLTON RD SW,413,,P,33.6899,-84.50584,
AUTO THEFT,181190533,04/29/2018,3300 PEACHTREE RD NE,208,North Buckhead,B,33.84514,-84.37031,
LARCENY-NON VEHICLE,181191420,04/29/2018,2035 BROOKWOOD VALLEY CIR NE,207,,E,33.80976,-84.38927,
LARCENY-NON VEHICLE,181191852,04/29/2018,2171 PEACHTREE RD NE,207,,E,33.81347,-84.39228,
LARCENY-NON VEHICLE,181198028,04/29/2018,8700 SPINE ROAD,703,,,33.64085,-84.43915,
LARCENY-NON VEHICLE,181191672,04/29/2018,349 CLEVELAND AVE SW,309,Perkerson,X,33.68123,-84.40109,
LARCENY-NON VEHICLE,181190674,04/29/2018,71 13TH ST NE,503,Midtown,E,33.78535,-84.38516,
LARCENY-NON VEHICLE,181191031,04/29/2018,490 GLENN ST SW,303,Mechanicsville,V,33.73805,-84.40262,
LARCENY-FROM VEHICLE,181191631,04/29/2018,728 BERNICE ST SW,402,West End,T,33.73545,-84.43285,
LARCENY-FROM VEHICLE,181191596,04/29/2018,1015 STOVALL BLVD NE,209,Brookhaven,B,33.8598,-84.35394,
LARCENY-FROM VEHICLE,181191438,04/29/2018,1678 HOWELL MILL RD NW,204,Underwood Hills,D,33.79991,-84.41625,
LARCENY-FROM VEHICLE,181191330,04/29/2018,177 GRAVES ST NW,102,Vine City,L,33.75946,-84.40713,
LARCENY-FROM VEHICLE,181191272,04/29/2018,3450 FORREST PARK RD SE,313,South River Gardens,Z,33.66061,-84.35549,
LARCENY-FROM VEHICLE,181191221,04/29/2018,1045 N HIGHLAND AVE NE,601,Virginia Highland,F,33.78297,-84.35435,
LARCENY-FROM VEHICLE,181191691,04/29/2018,330 W PEACHTREE ST NW,508,Downtown,M,33.76399,-84.38753,
LARCENY-FROM VEHICLE,181191758,04/29/2018,1069 WASHITA AVE NE,602,Inman Park,N,33.76341,-84.35289,
LARCENY-FROM VEHICLE,181191929,04/29/2018,3450 FORREST PARK RD SE,313,South River Gardens,Z,33.66061,-84.35549,
LARCENY-FROM VEHICLE,181191893,04/29/2018,535 LEE ST SW,401,West End,T,33.74042,-84.41435,
LARCENY-FROM VEHICLE,181191071,04/29/2018,2521 PIEDMONT RD NE,211,Lindbergh/Morosgo,B,33.82397,-84.36684,
LARCENY-NON VEHICLE,181191634,04/29/2018,1723 LAKEWOOD AVE SE,307,Lakewood Heights,Y,33.70678,-84.38031,
LARCENY-NON VEHICLE,181191649,04/29/2018,835 MARTIN L KING JR DR NW,102,Vine City,L,33.75504,-84.41457,
LARCENY-NON VEHICLE,181191704,04/29/2018,1801 HOWELL MILL RD NW,204,Berkeley Park,D,33.80388,-84.41278,
LARCENY-NON VEHICLE,181190752,04/29/2018,835 MARTIN L KING JR DR NW,102,Vine City,L,33.75504,-84.41457,
LARCENY-NON VEHICLE,181191863,04/29/2018,980 HOLLYWOOD RD NW,109,Grove Park,J,33.78164,-84.45638,
BURGLARY-NONRES,181190824,04/29/2018,1387 NORTHSIDE DR NW,207,Loring Heights,E,33.79266,-84.40727,
BURGLARY-NONRES,181190798,04/29/2018,1387 NORTHSIDE DR NW,207,Loring Heights,E,33.79266,-84.40727,
BURGLARY-NONRES,181190719,04/29/2018,17 FAIRBURN RD SW,407,Adamsville,H,33.75837,-84.50593,
BURGLARY-NONRES,181190522,04/29/2018,2395 CAMPBELLTON RD SW,409,Southwest,R,33.70435,-84.46647,
BURGLARY-RESIDENCE,181191064,04/29/2018,3378 GREENBRIAR PKWY SW,413,,P,33.68387,-84.50204,
BURGLARY-RESIDENCE,181191008,04/29/2018,930 HOWELL MILL RD NW,501,Home Park,E,33.78008,-84.41055,
AGG ASSAULT,181190863,04/29/2018,670 CAMERON ALEXANDER NW,103,English Avenue,L,33.77004,-84.40936,
AGG ASSAULT,181191441,04/29/2018,480 CLEVELAND AVE SE,310,Browns Mill Park,Z,33.68478,-84.37987,
AGG ASSAULT,181191214,04/29/2018,633 EVANS ST SW ,401,West End,T,33.7376,-84.41593,
ROBBERY-PEDESTRIAN,181190407,04/29/2018,1722 CAMPBELLTON RD SW,408,,R,33.71107,-84.44411,
ROBBERY-PEDESTRIAN,181191440,04/29/2018,754 PEACHTREE ST NW,505,Midtown,E,33.77524,-84.38742,
ROBBERY-PEDESTRIAN,181190555,04/29/2018,3090 CAMPBELLTON RD SW,409,Southwest,R,33.69338,-84.48903,
HOMICIDE,181182196,04/29/2018,247 MORRIS BROWN AVE NW,108,Dixie Hills,J,33.76214,-84.45308,
LARCENY-FROM VEHICLE,181190845,04/29/2018,44 PRYOR ST SE,511,Downtown,M,33.75332,-84.38931,
LARCENY-FROM VEHICLE,181190838,04/29/2018,2959 CAMPBELLTON RD SW,409,Southwest,R,33.69731,-84.48504,
LARCENY-FROM VEHICLE,181190786,04/29/2018,1080 W PEACHTREE ST NW,503,Midtown,E,33.7847,-84.38817,
LARCENY-FROM VEHICLE,181190785,04/29/2018,801 10TH ST NW,501,Home Park,E,33.78167,-84.41382,
LARCENY-FROM VEHICLE,181190769,04/29/2018,754 JUNIPER ST,504,Midtown,E,33.77482,-84.38308,
LARCENY-FROM VEHICLE,181190748,04/29/2018,2323 PIEDMONT RD NE,211,Lindbergh/Morosgo,B,33.81828,-84.36696,
LARCENY-FROM VEHICLE,181191122,04/29/2018,192 PEACHTREE CENTER AVE NE,510,Downtown,M,33.75942,-84.3865,
LARCENY-FROM VEHICLE,181190921,04/29/2018,1155 LAVISTA RD NE,212,Lindridge/Martin Manor,F,33.81806,-84.35082,
LARCENY-FROM VEHICLE,181190733,04/29/2018,744 HAMILTON AVE SE,607,Boulevard Heights,W,33.7259,-84.36304,
LARCENY-FROM VEHICLE,181190679,04/29/2018,25 DELMOOR CT NW,111,,I,33.75633,-84.4906,
LARCENY-FROM VEHICLE,181190534,04/29/2018,63 AUBURN AVE NE @WESLEY MEMORIAL BUI,510,Downtown,M,33.75549,-84.38577,
LARCENY-FROM VEHICLE,181190380,04/29/2018,180 TED TURNER DR NW,508,Downtown,M,33.75944,-84.38935,
LARCENY-FROM VEHICLE,181190277,04/29/2018,3460 KINGSBORO RD NE,210,Buckhead Heights,B,33.8512,-84.35751,
LARCENY-FROM VEHICLE,181190089,04/29/2018,949 IMAGE AVE NW,501,Home Park,E,33.78072,-84.40949,
LARCENY-FROM VEHICLE,181182081,04/28/2018,70 W PACES FERRY RD NW,206,Peachtree Heights West,B,33.83991,-84.38182,
LARCENY-FROM VEHICLE,181180746,04/28/2018,1720 MARIETTA BLVD NW,203,Hills Park,D,33.80169,-84.43644,
LARCENY-FROM VEHICLE,181180145,04/28/2018,172 HAYNES ST SW,507,Castleberry Hill,M,33.74944,-84.40009,
LARCENY-FROM VEHICLE,181180667,04/28/2018,3040 HEADLAND DR SW,411,Greenbriar,R,33.68948,-84.48818,
LARCENY-FROM VEHICLE,181181814,04/28/2018,1000 MARIETTA ST NW,504,Marietta Street Artery,E,33.77914,-84.41116,
LARCENY-FROM VEHICLE,181181779,04/28/2018,2591 PIEDMONT RD NE,211,Lindbergh/Morosgo,B,33.82494,-84.36684,
LARCENY-FROM VEHICLE,181181762,04/28/2018,1821 AVON AVE SW,403,Cascade Avenue/Road,S,33.72276,-84.44734,
LARCENY-FROM VEHICLE,181180735,04/28/2018,1678 HOWELL MILL RD NW,204,Underwood Hills,D,33.79991,-84.41625,
LARCENY-FROM VEHICLE,181181473,04/28/2018,3550 CAMPBELLTON RD SW,413,,P,33.68984,-84.50491,
LARCENY-FROM VEHICLE,181182149,04/28/2018,375 18TH ST NW @TARGET - 18TH,501,Atlantic Station,E,33.79303,-84.39921,
LARCENY-FROM VEHICLE,181181294,04/28/2018,755 HANK AARON DR SE,304,Summerhill,V,33.73684,-84.38634,
LARCENY-FROM VEHICLE,181181260,04/28/2018,3250 WELLINGTON WALK SW,414,Princeton Lakes,P,33.66167,-84.51447,
LARCENY-FROM VEHICLE,181181469,04/28/2018,526 MAGNOLIA ST NW,102,Vine City,L,33.75731,-84.40493,
LARCENY-FROM VEHICLE,181180967,04/28/2018,898 OAK ST SW,401,West End,T,33.74057,-84.41738,
LARCENY-FROM VEHICLE,181180749,04/28/2018,11 BELMONTE CT SW,403,Cascade Avenue/Road,S,33.72518,-84.44495,
LARCENY-NON VEHICLE,181181045,04/28/2018,2621 DONALD LEE HOLLOWELL PKWY NW,109,Center Hill,J,33.77617,-84.47272,
LARCENY-NON VEHICLE,181181217,04/28/2018,3535 PEACHTREE RD NE @TARGET - PEACHTREE,210,Lenox,B,33.85182,-84.3595,
ROBBERY-PEDESTRIAN,181182131,04/28/2018,658 LAWTON ST SW,401,West End,T,33.73716,-84.42327,
ROBBERY-RESIDENCE,181180216,04/28/2018,707 MAYLAND AVE SW,301,Adair Park,V,33.72536,-84.41066,
ROBBERY-RESIDENCE,181181319,04/28/2018,324 5TH ST NE,506,Midtown,E,33.77541,-84.37668,
ROBBERY-PEDESTRIAN,181181868,04/28/2018,555 WHITEHALL ST SW,303,Mechanicsville,V,33.74297,-84.40628,
ROBBERY-PEDESTRIAN,181181325,04/28/2018,2798 PEEK RD NW,112,Collier Heights,I,33.77743,-84.47815,
ROBBERY-PEDESTRIAN,181180985,04/28/2018,684 JOSEPH E BOONE BLVD NW,102,Vine City,L,33.76334,-84.41018,
AGG ASSAULT,181182262,04/28/2018,500 PLASAMOUR DR NE,212,,F,33.8134,-84.37154,
AGG ASSAULT,181182184,04/28/2018,1657 LAKEWOOD AVE SE,307,Lakewood Heights,Y,33.70898,-84.38036,
AGG ASSAULT,181181410,04/28/2018,3200 STONE ROAD SW ,411,Greenbriar,R,33.66951,-84.49537,
AGG ASSAULT,181180128,04/28/2018,3125 PIEDMONT RD NE,211,Peachtree Park,B,33.84169,-84.37027,
AGG ASSAULT,181180503,04/28/2018,2485 SWALLOW CIR SE,310,Swallow Circle/Baywood,Z,33.69453,-84.38547,
AGG ASSAULT,181180036,04/28/2018,2159 MARTIN L KING JR DR NW,108,Florida Heights,I,33.75141,-84.46037,
BURGLARY-RESIDENCE,181181094,04/28/2018,357 ORMOND ST SE,605,Grant Park,W,33.73121,-84.37585,
BURGLARY-RESIDENCE,181181805,04/28/2018,324 5TH ST NE,506,Midtown,E,33.77541,-84.37668,
BURGLARY-RESIDENCE,181181237,04/28/2018,3200 STONE RD SW,411,Greenbriar,R,33.6697,-84.49403,
BURGLARY-RESIDENCE,181181545,04/28/2018,2637 OLD HAPEVILLE RD SW,310,Browns Mill Park,Z,33.68294,-84.39417,
BURGLARY-NONRES,181181078,04/28/2018,1387 NORTHSIDE DR NW,207,Loring Heights,E,33.79262,-84.40774,
BURGLARY-NONRES,181180627,04/28/2018,3462 DELMAR LN NW,111,Adamsville,H,33.75701,-84.50119,
BURGLARY-NONRES,181180378,04/28/2018,404 W ONTARIO AVE SW,404,Westview,T,33.74424,-84.43942,
BURGLARY-RESIDENCE,181180037,04/28/2018,610 PROVIDENCE PL SW,407,Mays,H,33.74352,-84.50537,
BURGLARY-RESIDENCE,181130183,04/28/2018,345 BLAIR VILLA DR SE,313,Blair Villa/Poole Creek,Z,33.65778,-84.3801,
LARCENY-NON VEHICLE,181181537,04/28/2018,3500 PEACHTREE RD NE @PHIPPS PLAZA,208,North Buckhead,B,33.85252,-84.36116,
LARCENY-NON VEHICLE,181181748,04/28/2018,3393 PEACHTREE RD NE @Multiple,210,Lenox,B,33.84676,-84.36212,
LARCENY-NON VEHICLE,181181484,04/28/2018,2539 PIEDMONT RD NE,211,Lindbergh/Morosgo,B,33.82403,-84.36328,
BURGLARY-RESIDENCE,181181869,04/28/2018,1035 MORELAND AVE SE,607,Ormewood Park,W,33.72626,-84.34969,
LARCENY-NON VEHICLE,181180027,04/28/2018,507 JOSEPH E LOWERY BLVD NW,103,English Avenue,L,33.76858,-84.4171,
LARCENY-NON VEHICLE,181181597,04/28/2018,3561 MARTIN L KING JR DR NW,111,Adamsville,H,33.75893,-84.50409,
LARCENY-FROM VEHICLE,181180658,04/28/2018,478 HOOPER ST SE,611,East Lake,O,33.73944,-84.29087,
LARCENY-FROM VEHICLE,181180618,04/28/2018,585 PARKWAY DR NE,603,Old Fourth Ward,M,33.77024,-84.37223,
LARCENY-FROM VEHICLE,181180602,04/28/2018,101 HAMILTON E HOLMES DR NW,108,Westhaven,I,33.75558,-84.46807,
LARCENY-FROM VEHICLE,181180579,04/28/2018,2399 PARKLAND DR NE,211,Lindbergh/Morosgo,B,33.8201,-84.36481,
LARCENY-FROM VEHICLE,181180564,04/28/2018,3708 RAMSEY CIR SW,414,Princeton Lakes,P,33.66243,-84.51116,
LARCENY-FROM VEHICLE,181180513,04/28/2018,489 PEACHTREE ST NE,509,Downtown,M,33.76929,-84.38554,
LARCENY-FROM VEHICLE,181180505,04/28/2018,524 JEFFERSON CHASE ST SE,312,Glenrose Heights,Z,33.66552,-84.38187,
LARCENY-FROM VEHICLE,181180104,04/28/2018,1020 PIEDMONT AVE NE,503,Midtown,E,33.78251,-84.38034,
LARCENY-FROM VEHICLE,181180275,04/28/2018,(33781085 84481367),113,Brookview Heights,G,33.78092,-84.48168,
LARCENY-NON VEHICLE,181181705,04/28/2018,945 DESOTO ST NW,105,Washington Park,K,33.75754,-84.41898,
LARCENY-FROM VEHICLE,181180799,04/28/2018,77 FINCH DR SE,310,Swallow Circle/Baywood,Z,33.69484,-84.38594,
LARCENY-FROM VEHICLE,181181754,04/28/2018,2975 HEADLAND DR SW @BIG LOTS - HEADLAND,411,Greenbriar,R,33.69168,-84.4872,
LARCENY-FROM VEHICLE,181181627,04/28/2018,3012 JONESBORO RD SE,313,South River Gardens,Z,33.67225,-84.37156,
LARCENY-NON VEHICLE,181181499,04/28/2018,2431 HARVEL DR NW,108,Harvel Homes Community,J,33.75994,-84.46669,
LARCENY-NON VEHICLE,181181645,04/28/2018,22 14TH ST NW ,503,Midtown,E,33.78675,-84.38677,
AUTO THEFT,181181888,04/28/2018,352 DARGAN PL,104,West End,T,33.74554,-84.42411,
AUTO THEFT,181182150,04/28/2018,51 LAFAYETTE DR NE,502,Ansley Park,E,33.78935,-84.38021,
AUTO THEFT,181182213,04/28/2018,105 OLLIE ST NW ,105,Washington Park,K,33.75729,-84.42081,
AUTO THEFT,181180664,04/28/2018,1065 PEACHTREE ST NE,503,Midtown,E,33.78312,-84.38365,
AUTO THEFT,181180692,04/28/2018,1870 CAMPBELLTON RD SW,408,,R,33.70939,-84.44964,
AUTO THEFT,181180528,04/28/2018,44 KROG ST NE,602,Inman Park,N,33.75503,-84.3643,
AUTO THEFT,181180710,04/28/2018,1157 SELLS AVE SW,104,West End,T,33.74572,-84.42569,
AUTO THEFT,181180014,04/28/2018,635 N HIGHLAND AVE NE,602,Poncey-Highland,N,33.77173,-84.3524,
AUTO THEFT,181181087,04/28/2018,2318 SWALLOW CIR SE,310,Swallow Circle/Baywood,Z,33.69496,-84.38822,
AUTO THEFT,181181033,04/28/2018,417 INMAN STREET SW,404,Westview,T,33.74362,-84.43751,
AUTO THEFT,181181016,04/28/2018,441 16TH ST NW @IKEA,501,Atlantic Station,E,33.78874,-84.40468,
AUTO THEFT,181180956,04/28/2018,287 14TH ST NW,501,Home Park,E,33.78637,-84.3964,
AUTO THEFT,181180305,04/28/2018,1796 DELOWE DR SW,410,Campbellton Road,R,33.70583,-84.45716,
AUTO THEFT,181180551,04/28/2018,44 KROG ST NE,602,Inman Park,N,33.75503,-84.3643,
AUTO THEFT,181172524,04/27/2018,1376 METROPOLITAN AVE SE,612,East Atlanta,W,33.74273,-84.3425,
AUTO THEFT,181171107,04/27/2018,757 CLEVELAND AVE SE,309,South River Gardens,Z,33.67934,-84.36558,
AUTO THEFT,181172529,04/27/2018,4 BLANCHE ST NW,107,Grove Park,J,33.77144,-84.44472,
AUTO THEFT,181171869,04/27/2018,478 FAIRLOCK LN NW,114,Fairburn Heights,H,33.76831,-84.50815,
AUTO THEFT,181171610,04/27/2018,2635 HABERSHAM RD NW,206,Peachtree Heights West,B,33.82704,-84.39359,
AUTO THEFT,181171055,04/27/2018,3160 MT GILEAD RD,409,Browns Mill Park,Z,33.68396,-84.36623,
AUTO THEFT,181170636,04/27/2018,519 OVERBROOK DR NW,205,Collier Hills,C,33.81267,-84.40492,
AUTO THEFT,181170184,04/27/2018,3335 MARTIN L KING JR DR NW,111,Adamsville,H,33.7551,-84.49652,
LARCENY-NON VEHICLE,181171310,04/27/2018,786 MAGNOLIA WAY NW,102,Vine City,L,33.75805,-84.41381,
LARCENY-NON VEHICLE,181171797,04/27/2018,770 LOVETTE LN NE,209,North Buckhead,B,33.85824,-84.36117,
LARCENY-NON VEHICLE,181170692,04/27/2018,1384 MIDDLESEX AVE NE,213,Morningside/Lenox Park,F,33.79242,-84.36322,
LARCENY-NON VEHICLE,181172451,04/27/2018,872 SPENCER ST NW,102,Vine City,L,33.75961,-84.41605,
LARCENY-NON VEHICLE,181170691,04/27/2018,75 5TH ST NW,505,Midtown,E,33.77694,-84.38963,
LARCENY-NON VEHICLE,181171149,04/27/2018,384 NORTHYARD BLVD NW,507,Downtown,M,33.76869,-84.39929,
LARCENY-NON VEHICLE,181170056,04/27/2018,427 EDGEWOOD AVE SE,604,Sweet Auburn,M,33.75413,-84.37361,
LARCENY-FROM VEHICLE,181170784,04/27/2018,815 BELLEMEADE AVE NW,204,Berkeley Park,D,33.80073,-84.41505,
LARCENY-FROM VEHICLE,181172234,04/27/2018,2477 METROPOLITAN PKWY SW,309,Perkerson,X,33.68711,-84.40862,
LARCENY-FROM VEHICLE,181170464,04/27/2018,1572 HARDEE ST NE @EDGEWOOD COURT APT,609,Edgewood,O,33.75565,-84.33665,
LARCENY-FROM VEHICLE,181170368,04/27/2018,2461 METROPOLITAN PKWY SW,309,Perkerson,X,33.68783,-84.40888,
LARCENY-FROM VEHICLE,181170547,04/27/2018,2558 SANTA BARBARA DR NW,112,Collier Heights,I,33.76513,-84.47148,
LARCENY-FROM VEHICLE,181170023,04/27/2018,3755 CARMIA DR SW,414,Princeton Lakes,P,33.65571,-84.50908,
LARCENY-FROM VEHICLE,181170862,04/27/2018,55 EDWIN PL NW,110,Grove Park,J,33.77776,-84.4458,
LARCENY-NON VEHICLE,181171662,04/27/2018,445 MARKHAM ST SW,507,Castleberry Hill,M,33.75274,-84.40069,
LARCENY-NON VEHICLE,181171367,04/27/2018,1375 SEABOARD INDUSTRIAL BLVD NW,204,Underwood Hills,D,33.80789,-84.43301,
LARCENY-NON VEHICLE,181161529,04/27/2018,790 HUFF ROAD,203,Blandtown,D,33.78768,-84.41319,
LARCENY-FROM VEHICLE,181178005,04/27/2018,6023 N TERMINAL BI-WAY,705,,,33.64322,-84.44566,
LARCENY-FROM VEHICLE,181172550,04/27/2018,1025 HOWELL MILL RD NW,501,Home Park,E,33.78285,-84.41126,
LARCENY-FROM VEHICLE,181172521,04/27/2018,TRENHOLM ST / LARKIN PL SW,507,Castleberry Hill,M,33.74796,-84.4028,
LARCENY-FROM VEHICLE,181172405,04/27/2018,240 N HIGHLAND AVE NE @BELTLINE BUSINESS,602,Inman Park,N,33.76191,-84.36039,
LARCENY-FROM VEHICLE,181172374,04/27/2018,400 TRABERT AVE NW,207,Loring Heights,E,33.79429,-84.40109,
LARCENY-FROM VEHICLE,181170120,04/27/2018,360 MARIETTA ST NW,507,Downtown,M,33.76269,-84.39702,
LARCENY-FROM VEHICLE,181170076,04/27/2018,925 BOWEN ST NW,207,Berkeley Park,D,33.79722,-84.41797,
BURGLARY-RESIDENCE,181171361,04/27/2018,651 TARRAGON WAY SW,407,Wilson Mill Meadows,H,33.7503,-84.52373,
BURGLARY-RESIDENCE,181171912,04/27/2018,1743 THOMASVILLE DR SE,308,Thomasville Heights,Z,33.7034,-84.35611,
BURGLARY-RESIDENCE,181172302,04/27/2018,2214 SPRINGDALE RD SW,309,Perkerson,X,33.6941,-84.41376,
BURGLARY-RESIDENCE,181171950,04/27/2018,1116 WESTMONT RD SW,403,Oakland City,S,33.72482,-84.43732,
AGG ASSAULT,181170638,04/27/2018,370 THOMASVILLE BLVD SE,308,Thomasville Heights,Z,33.70615,-84.35721,
AGG ASSAULT,181172354,04/27/2018,278 CHILDS DR NW,105,Hunter Hills,K,33.76287,-84.43675,
AGG ASSAULT,181172256,04/27/2018,2595 MARTIN LUTHER KING JR DR NW,111,Harland Terrace,I,33.75383,-84.4725,
AGG ASSAULT,181172218,04/27/2018,320 THOMASVILLE BLVD SE  ,308,Thomasville Heights,Z,33.70559,-84.35628,
AGG ASSAULT,181172365,04/27/2018,1212 JAMES JACKSON PKWY NW,113,Monroe Heights,G,33.79333,-84.47416,
AGG ASSAULT,181172456,04/27/2018,1167 JOSEPH E BOONE BLVD NW,106,Downtown,M,33.75356,-84.38129,
AGG ASSAULT,181172102,04/27/2018,2551 ETHERIDGE DR NW,113,Carey Park,G,33.78816,-84.47154,
ROBBERY-PEDESTRIAN,181170363,04/27/2018,2914 MEMORIAL DR SE,611,East Lake,O,33.74753,-84.29124,
ROBBERY-RESIDENCE,181170255,04/27/2018,3000 STONE HOGAN CONN SW,411,Greenbriar,R,33.67424,-84.49697,
ROBBERY-PEDESTRIAN,181172271,04/27/2018,762 CATHERINE ST SW ,301,Adair Park,V,33.72578,-84.41247,
LARCENY-NON VEHICLE,181170893,04/27/2018,2615 DONALD LEE HOLLOWELL PKWY NW,109,Center Hill,J,33.7762,-84.47236,
LARCENY-NON VEHICLE,181171313,04/27/2018,464 WINDSOR ST SW,303,Mechanicsville,V,33.74215,-84.3981,
LARCENY-NON VEHICLE,181170139,04/27/2018,850 NORTHSIDE DR NW,504,Marietta Street Artery,E,33.77807,-84.40773,
LARCENY-FROM VEHICLE,181170471,04/27/2018,3147 CAMBRIA RD SW,414,Princeton Lakes,P,33.66811,-84.5099,
LARCENY-FROM VEHICLE,181171454,04/27/2018,424 LINCOLN ST SW,307,Joyland,Y,33.71057,-84.40072,
LARCENY-FROM VEHICLE,181171304,04/27/2018,1991 HOWELL MILL RD NW,205,Channing Valley,C,33.80902,-84.41277,
LARCENY-FROM VEHICLE,181171287,04/27/2018,685 11TH ST NW,501,Home Park,E,33.78332,-84.40974,
LARCENY-FROM VEHICLE,181171255,04/27/2018,3670 CAMP CREEK PKWY,409,Princeton Lakes,P,33.655,-84.50859,
LARCENY-FROM VEHICLE,181171205,04/27/2018,907 MARIETTA ST NW,504,Marietta Street Artery,E,33.77714,-84.40791,
LARCENY-FROM VEHICLE,181170870,04/27/2018,25 28TH ST NW,207,Ardmore,E,33.80565,-84.39545,
LARCENY-FROM VEHICLE,181171385,04/27/2018,1735 DEFOOR PL NW,204,Underwood Hills,D,33.80224,-84.42161,
LARCENY-FROM VEHICLE,181172371,04/27/2018,817 W PEACHTREE ST NE @BILTMORE HOTEL,505,Midtown,E,33.77696,-84.38697,
LARCENY-FROM VEHICLE,181172276,04/27/2018,976 BRADY AVE NW,501,Home Park,E,33.78127,-84.41331,
LARCENY-FROM VEHICLE,181172073,04/27/2018,390 W LAKE AVE NW,107,Grove Park,J,33.76561,-84.44109,
LARCENY-FROM VEHICLE,181171881,04/27/2018,2348 CASCADE RD SW,409,Adams Park,R,33.72146,-84.46522,
LARCENY-FROM VEHICLE,181171715,04/27/2018,1800 HOWELL MILL RD NW,204,Underwood Hills,D,33.80454,-84.41368,
LARCENY-FROM VEHICLE,181171620,04/27/2018,1833 DELOWE DRIVE SW,409,Campbellton Road,R,33.7048,-84.4578,
LARCENY-FROM VEHICLE,181171455,04/27/2018,1955 MORELAND AVE SE,308,,,33.70062,-84.34949,
LARCENY-NON VEHICLE,181160438,04/26/2018,30 MARIETTA ST NW,511,Downtown,M,33.75478,-84.39134,
LARCENY-NON VEHICLE,181162215,04/26/2018,3500 PEACHTREE RD NE @PHIPPS PLAZA,208,North Buckhead,B,33.85252,-84.36116,
LARCENY-NON VEHICLE,181162093,04/26/2018,3393 PEACHTREE RD NE @Multiple,210,Lenox,B,33.84676,-84.36212,
LARCENY-NON VEHICLE,181161645,04/26/2018,1371 MARKET ST NW,501,Atlantic Station,E,33.7921,-84.39466,
LARCENY-NON VEHICLE,181161489,04/26/2018,1190 MEMORIAL DR SE,609,Edgewood,O,33.74788,-84.34859,
LARCENY-NON VEHICLE,181161149,04/26/2018,2525 PIEDMONT RD,211,Lindbergh/Morosgo,B,33.824,-84.36521,
LARCENY-NON VEHICLE,181160860,04/26/2018,835 MARTIN L KING JR DR NW,102,Vine City,L,33.75504,-84.41457,
ROBBERY-PEDESTRIAN,181161624,04/26/2018,1075 OGLETHORPE AVE SW,401,West End,T,33.73584,-84.4141,
AGG ASSAULT,181162146,04/26/2018,1380 MARTIN L KING JR DR SW,104,Mozley Park,K,33.75351,-84.43261,
AGG ASSAULT,181161797,04/26/2018,3673 CROFT PL NW,114,Carroll Heights,H,33.77547,-84.50792,
AGG ASSAULT,181160343,04/26/2018,1184 SPRING ST NW,502,Midtown,E,33.78697,-84.38959,
AGG ASSAULT,181160083,04/26/2018,1829 CAMPBELLTON RD SW,408,Venetian Hills,S,33.71,-84.44863,
AGG ASSAULT,181160311,04/26/2018,587 COLLIER RIDGE DR NW,112,Collier Heights,I,33.77097,-84.47607,
BURGLARY-RESIDENCE,181161055,04/26/2018,1366 ELIZABETH AVE SW,403,Venetian Hills,S,33.71705,-84.43532,
BURGLARY-RESIDENCE,181161023,04/26/2018,2860 ALSTON DR SE,611,East Lake,O,33.74524,-84.29331,
BURGLARY-RESIDENCE,181161548,04/26/2018,1276 MONROE DR NE,213,Morningside/Lenox Park,F,33.7896,-84.36756,
BURGLARY-RESIDENCE,181161525,04/26/2018,80 E LAKE DR SE,611,East Lake,O,33.74974,-84.30102,
BURGLARY-RESIDENCE,181161990,04/26/2018,3120 HOGAN RD SW,411,Greenbriar,R,33.67736,-84.49049,
BURGLARY-RESIDENCE,181161009,04/26/2018,2768 TUPELO ST SE,611,East Lake,O,33.74914,-84.29633,
BURGLARY-RESIDENCE,181160566,04/26/2018,2762 TUPELO ST SE,611,East Lake,O,33.74917,-84.29651,
BURGLARY-RESIDENCE,181161063,04/26/2018,1979 EAST AVE NW,110,Grove Park,J,33.78657,-84.45282,
BURGLARY-RESIDENCE,181160628,04/26/2018,3525 COLLIER DR NW,114,Fairburn Heights,H,33.7687,-84.50287,
BURGLARY-RESIDENCE,181161365,04/26/2018,1371 KIMBERLY WAY SW,412,Ashley Courts,P,33.71771,-84.52315,
BURGLARY-RESIDENCE,181161513,04/26/2018,1371 KIMBERLY WAY SW,412,Ashley Courts,P,33.71771,-84.52315,
LARCENY-FROM VEHICLE,181161813,04/26/2018,55 ALABAMA ST SW,511,Downtown,M,33.75387,-84.39261,
LARCENY-FROM VEHICLE,181161340,04/26/2018,1919 METROPOLITAN PKWY SW,306,Sylvan Hills,X,33.70278,-84.41017,
LARCENY-FROM VEHICLE,181161195,04/26/2018,396 PIEDMONT AVE NE,509,Downtown,M,33.76491,-84.3826,
LARCENY-FROM VEHICLE,181162301,04/26/2018,4475 ROSWELL RD NE,209,North Buckhead,B,33.87728,-84.37949,
LARCENY-FROM VEHICLE,181152476,04/26/2018,75 MARTIN LUTHER KING JR DR,511,Downtown,M,33.75119,-84.38996,
LARCENY-FROM VEHICLE,181160928,04/26/2018,4045 BLANTON AVE SW,413,Fairburn,P,33.69111,-84.52094,
LARCENY-FROM VEHICLE,181160914,04/26/2018,2399 PARKLAND DR NE,211,Lindbergh/Morosgo,B,33.8201,-84.36481,
LARCENY-FROM VEHICLE,181160720,04/26/2018,106 BAKER ST NE,509,Downtown,M,33.76246,-84.38386,
LARCENY-FROM VEHICLE,181160534,04/26/2018,2646 HOSEA L WILLIAMS DR NE,611,East Lake,O,33.75158,-84.30033,
LARCENY-FROM VEHICLE,181160213,04/26/2018,1181 FAIRVIEW RD NE,608,Druid Hills,N,33.77202,-84.34869,
LARCENY-FROM VEHICLE,181160010,04/26/2018,895 RALPH D ABERNATHY BLVD SW,401,West End,T,33.7398,-84.41751,
LARCENY-NON VEHICLE,181160334,04/26/2018,2980 JONESBORO RD SE,313,South River Gardens,Z,33.67339,-84.37144,
LARCENY-NON VEHICLE,181161218,04/26/2018,2797 ALPINE RD ,206,Garden Hills,B,33.83126,-84.3695,
LARCENY-NON VEHICLE,181161940,04/26/2018,486 BOULEVARD NE,603,Old Fourth Ward,M,33.76762,-84.372,
LARCENY-NON VEHICLE,181161040,04/26/2018,68 PRYOR ST SW,511,Downtown,M,33.75261,-84.38983,
LARCENY-FROM VEHICLE,181161652,04/26/2018,850 OAK ST SW @WEST END MALL,401,West End,T,33.74057,-84.4168,
LARCENY-FROM VEHICLE,181162279,04/26/2018,128 EAST ANDREWS DR NE,206,South Tuxedo Park,B,33.84251,-84.38311,
LARCENY-FROM VEHICLE,181162323,04/26/2018,850 PIEDMONT AVE NE,505,Midtown,E,33.77803,-84.38159,
LARCENY-FROM VEHICLE,181161117,04/26/2018,1615 FERNLEAF CIR NW,204,Fernleaf,C,33.82144,-84.44038,
LARCENY-FROM VEHICLE,181160863,04/26/2018,278 GLENN ST SW,303,Mechanicsville,V,33.738,-84.39672,
LARCENY-NON VEHICLE,181168077,04/26/2018,PRECINCT @6000 N TERMINAL PKWY,705,,,33.64184,-84.4477,
LARCENY-NON VEHICLE,181162367,04/26/2018,1400 LEE ST SW @OAKLAND CITY MARTA S,403,Oakland City,S,33.71566,-84.42564,
LARCENY-NON VEHICLE,181161134,04/26/2018,1230 PEACHTREE ST NE,502,Midtown,E,33.788,-84.38637,
LARCENY-NON VEHICLE,181168053,04/26/2018,2150 CENTRAL CARGO CIR,709,,,33.63901,-84.40711,
LARCENY-NON VEHICLE,181161913,04/26/2018,604 THOMASVILLE BLVD SE,308,Thomasville Heights,Z,33.70489,-84.36413,
LARCENY-NON VEHICLE,181161496,04/26/2018,2870 METROPOLITAN PKWY SW,311,Hammond Park,X,33.67627,-84.40811,
LARCENY-NON VEHICLE,181161287,04/26/2018,188 14TH ST NE @COLONY SQUARE,502,Midtown,E,33.78663,-84.38139,
LARCENY-NON VEHICLE,181160906,04/26/2018,545 LEE ST SW,401,West End,T,33.74003,-84.41438,
LARCENY-NON VEHICLE,181160811,04/26/2018,1084 HOWELL MILL RD NW,501,Home Park,E,33.78477,-84.41324,
AUTO THEFT,181162080,04/26/2018,1678 HOWELL MILL RD NW,204,Underwood Hills,D,33.79991,-84.41625,
AUTO THEFT,181160005,04/26/2018,1093 WEST AVE SW,302,Pittsburgh,V,33.72494,-84.39593,
AUTO THEFT,181160054,04/26/2018,260 18TH ST NW,501,Atlantic Station,E,33.79233,-84.39726,
AUTO THEFT,181160374,04/26/2018,846 WINDSOR ST SW,303,Mechanicsville,V,33.73172,-84.39726,
AUTO THEFT,181160766,04/26/2018,2783 GRAND AVE SW,311,Hammond Park,X,33.67888,-84.40042,
AUTO THEFT,181161302,04/26/2018,1525 GLENWOOD AVE SE ,605,East Atlanta,W,33.73978,-84.33768,
AUTO THEFT,181162019,04/26/2018,560 DUTCH VALLEY RD NE,213,Morningside/Lenox Park,F,33.79216,-84.36886,
AUTO THEFT,181150655,04/25/2018,935 WASHINGTON PL SW,104,Ashview Heights,T,33.75382,-84.41824,
AUTO THEFT,181150892,04/25/2018,3378 GREENBRIAR PKWY SW,413,,P,33.68387,-84.50204,
AUTO THEFT,181150972,04/25/2018,555 WHITEHALL ST SW,303,Mechanicsville,V,33.74297,-84.40628,
AUTO THEFT,181151520,04/25/2018,600 MARTIN ST,304,Summerhill,V,33.73831,-84.38396,
AUTO THEFT,181150353,04/25/2018,400 EDGEWOOD AVE NE,604,Sweet Auburn,M,33.75464,-84.37465,
AUTO THEFT,181152540,04/25/2018,490 FAIRBURN RD SW,407,Fairburn Mays,H,33.74107,-84.50997,
AUTO THEFT,181150138,04/25/2018,581 MARTIN ST SE,304,Summerhill,V,33.73872,-84.38417,
LARCENY-NON VEHICLE,181152128,04/25/2018,660 ORMEWOOD AVE SE,605,Grant Park,W,33.73407,-84.36576,
LARCENY-NON VEHICLE,181150468,04/25/2018,1445 MONROE DR NE,213,Morningside/Lenox Park,F,33.79407,-84.36714,
LARCENY-NON VEHICLE,181151760,04/25/2018,946 MODA DR SE,606,Reynoldstown,N,33.75345,-84.35434,
LARCENY-NON VEHICLE,181151608,04/25/2018,3755 CARMIA DR SW,414,Princeton Lakes,P,33.65571,-84.50908,
LARCENY-NON VEHICLE,181150832,04/25/2018,3005 1ST AVE SW,311,Hammond Park,X,33.67424,-84.40294,
LARCENY-NON VEHICLE,181151302,04/25/2018,505 PHARR RD NE,206,Garden Hills,B,33.83691,-84.37182,
LARCENY-NON VEHICLE,181150294,04/25/2018,180 JACKSON ST NE,604,Sweet Auburn,M,33.75932,-84.37442,
LARCENY-NON VEHICLE,181152475,04/25/2018,1382 DUPONT PARK NW,203,Hills Park,D,33.80971,-84.45065,
LARCENY-NON VEHICLE,181152191,04/25/2018,116 FORSYTH ST NW,508,Downtown,M,33.7577,-84.388,
LARCENY-NON VEHICLE,181132095,04/25/2018,199 14TH ST NE,502,Midtown,E,33.78639,-84.38045,
LARCENY-FROM VEHICLE,181150417,04/25/2018,1359 ALLEGHENY ST SW,402,West End,T,33.73526,-84.43201,
LARCENY-FROM VEHICLE,181150392,04/25/2018,1050 DECKNER AVE SW,306,Sylvan Hills,X,33.71371,-84.42253,
LARCENY-FROM VEHICLE,181150711,04/25/2018,135 W WIEUCA RD NW ,202,Chastain Park,A,33.87589,-84.39202,
LARCENY-FROM VEHICLE,181150124,04/25/2018,3311 EMPIRE BLVD SW,312,Glenrose Heights,Z,33.66445,-84.39186,
LARCENY-FROM VEHICLE,181150110,04/25/2018,333 EDGEWOOD AVE SE,604,Sweet Auburn,M,33.75415,-84.37675,
LARCENY-FROM VEHICLE,181152189,04/25/2018,2240 CASCADE RD SW,409,Adams Park,R,33.72226,-84.46181,
LARCENY-FROM VEHICLE,181152517,04/25/2018,1860 BOND DR SW @VILLAGE BAPTIST,307,Betmar LaVilla,Y,33.70564,-84.40112,
LARCENY-FROM VEHICLE,181151870,04/25/2018,1892 HOWELL MILL RD NW,205,Wildwood (NPU-C),C,33.80673,-84.41316,
LARCENY-FROM VEHICLE,181151544,04/25/2018,2920 JONESBORO RD SE,313,South River Gardens,Z,33.67478,-84.37004,
LARCENY-FROM VEHICLE,181150856,04/25/2018,250 SUNSET AVE NW,102,Vine City,L,33.76146,-84.41031,
LARCENY-FROM VEHICLE,181150820,04/25/2018,3393 PEACHTREE RD NE @LENOX MALL,210,Lenox,B,33.84676,-84.36212,
LARCENY-FROM VEHICLE,181151277,04/25/2018,250 10TH ST NE,502,Midtown,E,33.78218,-84.37867,
LARCENY-FROM VEHICLE,181150015,04/25/2018,3755 CARMIA DR SW       ,414,Princeton Lakes,P,33.65571,-84.50908,
LARCENY-FROM VEHICLE,181150075,04/25/2018,763 PENN AVE NE,505,Midtown,E,33.77549,-84.37847,
LARCENY-FROM VEHICLE,181150053,04/25/2018,249 TRINITY AVE SW,512,Downtown,M,33.75066,-84.39598,
LARCENY-FROM VEHICLE,181150039,04/25/2018,830 MAIDEN LN NE,601,Virginia Highland,F,33.77471,-84.36007,
LARCENY-FROM VEHICLE,181151424,04/25/2018,507 HUMPHRIES ST SW,303,Mechanicsville,V,33.73884,-84.40496,
LARCENY-FROM VEHICLE,181151378,04/25/2018,691 14TH ST NW,501,Home Park,E,33.7864,-84.41102,
LARCENY-FROM VEHICLE,181151243,04/25/2018,299 N HIGHLAND AVE NE,602,Inman Park,N,33.76198,-84.35846,
LARCENY-FROM VEHICLE,181152412,04/25/2018,265 PONCE DE LEON AVE NE,505,Midtown,E,33.77206,-84.37869,
AUTO THEFT,181142608,04/25/2018,270 LAMON AVE SE,610,Kirkwood,O,33.74602,-84.33842,
AUTO THEFT,181151441,04/25/2018,1907 METROPOLITAN PKWY SW,306,Sylvan Hills,X,33.70218,-84.40817,
BURGLARY-RESIDENCE,181151163,04/25/2018,4172 RENFREW CT SW,407,Baker Hills,H,33.75523,-84.52086,
BURGLARY-NONRES,181150650,04/25/2018,1935 ALISON CT SW @FRANCISCAN CLUB APT,410,Fort Valley,R,33.70045,-84.45071,
BURGLARY-RESIDENCE,181152439,04/25/2018,1186 TUCKAWANNA DR SW,406,Audobon Forest West,I,33.72353,-84.48424,
BURGLARY-NONRES,181150313,04/25/2018,2395 CAMPBELLTON RD SW,409,Southwest,R,33.70435,-84.46647,
AGG ASSAULT,181152426,04/25/2018,25 PEACHTREE ST NE,509,Downtown,M,33.75445,-84.38954,
AGG ASSAULT,181151204,04/25/2018,1480 BELMONT AVE SW,301,Capitol View,X,33.71446,-84.4097,
AGG ASSAULT,181152402,04/25/2018,86 MATHEWSON PL SW,104,Mozley Park,K,33.75276,-84.43585,
BURGLARY-RESIDENCE,181150322,04/25/2018,1044 DILL AVENUE,301,Capitol View,X,33.71826,-84.42262,
BURGLARY-RESIDENCE,181150790,04/25/2018,1100 WHITE OAK AVE SW,402,Oakland City,S,33.72593,-84.42386,
BURGLARY-RESIDENCE,181151106,04/25/2018,1980 WINDHAM PARK NE,213,Morningside/Lenox Park,F,33.80758,-84.36117,
AGG ASSAULT,181151043,04/25/2018,1154 JAMES JACKSON PKWY NW,113,Brookview Heights,G,33.7876,-84.47783,
AGG ASSAULT,181150243,04/25/2018,3115 PIEDMONT RD NE,211,Peachtree Park,B,33.84205,-84.36995,
AGG ASSAULT,181150022,04/25/2018,2264 CHESHIRE BRIDGE RD NE,212,Lindridge/Martin Manor,F,33.81699,-84.35265,
AGG ASSAULT,181151388,04/25/2018,884  T P BURRUS SR DR SW,101,Atlanta University Center,T,33.75394,-84.41649,
ROBBERY-COMMERCIAL,181150454,04/25/2018,3734 MARTIN L KING JR DR SW,407,Adamsville,H,33.76494,-84.51081,
ROBBERY-PEDESTRIAN,181150104,04/25/2018,2865 OLD HAPEVILLE RD SW,311,Glenrose Heights,Z,33.67735,-84.39633,
ROBBERY-PEDESTRIAN,181152265,04/25/2018,3616 HAMPSHIRE PARK WAY SW,413,Ben Hill Pines,P,33.68276,-84.50687,
ROBBERY-PEDESTRIAN,181152554,04/25/2018,1500 OLYMPIAN WAY SW,404,Westview,T,33.7353,-84.43688,
LARCENY-NON VEHICLE,181150713,04/25/2018,50 UPPER ALABAMA ST SW,511,Downtown,M,33.75194,-84.38964,
LARCENY-NON VEHICLE,181151539,04/25/2018,2841 GREENBRIAR PKWY SW @GREENBRIAR MALL,411,Greenbriar,R,33.68677,-84.49773,
LARCENY-NON VEHICLE,181151765,04/25/2018,3500 PEACHTREE RD NE @PHIPPS PLAZA,208,North Buckhead,B,33.85302,-84.36278,
LARCENY-NON VEHICLE,181151979,04/25/2018,3495 BUCKHEAD LOOP NE,208,North Buckhead,B,33.85209,-84.3645,
LARCENY-NON VEHICLE,181152059,04/25/2018,835 MARTIN L KING JR DR NW,102,Vine City,L,33.75504,-84.41457,
LARCENY-NON VEHICLE,181152176,04/25/2018,1275 CAROLINE ST NE @TARGET - CAROLINE,609,Edgewood,O,33.75674,-84.34619,
LARCENY-NON VEHICLE,181152259,04/25/2018,3393 PEACHTREE RD NE @LENOX MALL,210,Lenox,B,33.84676,-84.36212,
LARCENY-NON VEHICLE,181152339,04/25/2018,580 MCDONOUGH BLVD SE,305,Chosewood Park,Y,33.71392,-84.36899,
LARCENY-FROM VEHICLE,181152329,04/25/2018,33 PEACHTREE PL NE,503,Midtown,E,33.78022,-84.3865,
LARCENY-NON VEHICLE,181141916,04/24/2018,835 MARTIN L KING JR DR NW,102,Vine City,L,33.75504,-84.41457,
LARCENY-NON VEHICLE,181141506,04/24/2018,850 NORTHSIDE DR NW,504,Marietta Street Artery,E,33.77807,-84.40773,
LARCENY-NON VEHICLE,181141927,04/24/2018,3393 PEACHTREE RD NE @LENOX MALL,210,Lenox,B,33.84676,-84.36212,
LARCENY-NON VEHICLE,181141429,04/24/2018,3393 PEACHTREE RD NE @LENOX MALL,210,Lenox,B,33.84676,-84.36212,
LARCENY-NON VEHICLE,181141369,04/24/2018,1217 CAROLINE ST NE,609,Edgewood,O,33.75786,-84.34875,
LARCENY-NON VEHICLE,181141333,04/24/2018,3334 PEACHTREE RD NE @ONE BUCKHEAD LOOP,208,North Buckhead,B,33.84911,-84.37075,
LARCENY-NON VEHICLE,181141009,04/24/2018,3393 PEACHTREE RD NE @LENOX MALL,210,Lenox,B,33.84676,-84.36212,
LARCENY-FROM VEHICLE,181140740,04/24/2018,450 STONEWALL ST SW,507,Castleberry Hill,M,33.74954,-84.40249,
LARCENY-FROM VEHICLE,181140651,04/24/2018,3615 GINNIS RD SW,407,Fairburn Mays,H,33.73176,-84.51109,
LARCENY-FROM VEHICLE,181140600,04/24/2018,691 14TH ST NW,501,Home Park,E,33.78603,-84.40967,
LARCENY-FROM VEHICLE,181140597,04/24/2018,935 MARIETTA ST NW,504,Marietta Street Artery,E,33.7778,-84.40865,
LARCENY-FROM VEHICLE,181140165,04/24/2018,240 N HIGHLAND AVE NE @PARISH FOODS,602,Inman Park,N,33.76191,-84.36039,
LARCENY-FROM VEHICLE,181140086,04/24/2018,3765 ZIP INDUSTRIAL BLVD SW,313,Blair Villa/Poole Creek,Z,33.65426,-84.39006,
LARCENY-FROM VEHICLE,181140052,04/24/2018,GREENSFERRY AVE SW / ROACH ST SW,101,The Villages at Castleberry Hill,T,33.74687,-84.40983,
LARCENY-FROM VEHICLE,181140024,04/24/2018,1460 ELLSWORTH INDUSTRIAL BLVD NW,203,Blandtown,D,33.79619,-84.42714,
ROBBERY-COMMERCIAL,181142061,04/24/2018,1241 MORELAND AVE SE @SUNSHINE PLAZA SC,607,Woodland Hills,W,33.72055,-84.35045,
AGG ASSAULT,181142409,04/24/2018,2075 DONALD LEE HOLLOWELL PKWY NW,109,Grove Park,J,33.77676,-84.45342,
AGG ASSAULT,181140023,04/24/2018,1005 BALDWIN ST SW,104,Ashview Heights,T,33.74647,-84.42057,
AGG ASSAULT,181148071,04/24/2018,W CURB @5500 N TERMINAL PKWY,705,,,33.64189,-84.44927,
AGG ASSAULT,181140358,04/24/2018,165 ANDERSON AVE NW,108,Dixie Hills,J,33.75872,-84.45035,
BURGLARY-RESIDENCE,181140098,04/24/2018,3362 DELMAR LN NW,111,Adamsville,H,33.7564,-84.49786,
BURGLARY-RESIDENCE,181140980,04/24/2018,694 CHANNING DR NW,205,Channing Valley,C,33.80676,-84.40997,
BURGLARY-RESIDENCE,181141241,04/24/2018,480 PEACHTREE HILLS AVE NE,211,Peachtree Hills,B,33.81948,-84.37347,
BURGLARY-RESIDENCE,181141857,04/24/2018,1236 GRACEWOOD AVE SE,612,East Atlanta,W,33.73318,-84.34721,
BURGLARY-RESIDENCE,181141168,04/24/2018,201 DEFOORS MILL DR NW,204,Underwood Hills,D,33.81384,-84.42766,
AGG ASSAULT,181140674,04/24/2018,2751 PEYTON RD NW,203,Riverside,D,33.80851,-84.47771,
AGG ASSAULT,181141882,04/24/2018,850 OAK ST SW @WEST END MALL,401,West End,T,33.74057,-84.4168,
AGG ASSAULT,181141332,04/24/2018,2520 OLD HAPEVILLE RD SW,310,Browns Mill Park,Z,33.68565,-84.39162,
BURGLARY-NONRES,181140289,04/24/2018,1929 MYRTLE DR SW,410,Campbellton Road,R,33.70229,-84.45528,
BURGLARY-RESIDENCE,181142088,04/24/2018,4002 NOBLE CREEK DR NW,204,Cross Creek,C,33.81638,-84.42816,
BURGLARY-RESIDENCE,181140248,04/24/2018,411 LUCKIE ST NW,504,Downtown,M,33.76567,-84.39601,
BURGLARY-RESIDENCE,181141387,04/24/2018,2330 NISKEY LAKE RD SW,413,Fairburn,P,33.69113,-84.52734,
BURGLARY-RESIDENCE,181142100,04/24/2018,550 JOHN WESLEY DOBBS AVE NE,604,Old Fourth Ward,M,33.75938,-84.36924,
BURGLARY-RESIDENCE,181140866,04/24/2018,1905 CAMPBELLTON RD SW,408,Venetian Hills,S,33.70908,-84.45158,
BURGLARY-RESIDENCE,181142028,04/24/2018,1526 WALTHALL CT NW,205,Collier Hills,C,33.80309,-84.40573,
AUTO THEFT,181140440,04/24/2018,4580 JETTRIDGE DR NW,202,Chastain Park,A,33.88047,-84.40665,
AUTO THEFT,181141454,04/24/2018,202 CANDLER RD SE,611,East Lake,O,33.74754,-84.29153,
AUTO THEFT,181141200,04/24/2018,1050 LENOX PARK BLVD NE,210,Pine Hills,B,33.85016,-84.34846,
AUTO THEFT,181140703,04/24/2018,1924 SYLVAN RD SW,306,Sylvan Hills,X,33.70235,-84.41793,
LARCENY-FROM VEHICLE,181142585,04/24/2018,2293 PEACHTREE RD NE,211,,E,33.81713,-84.38942,
LARCENY-FROM VEHICLE,181142654,04/24/2018,1700 NORTHSIDE DR NW,207,Berkeley Park,D,33.80077,-84.40869,
LARCENY-FROM VEHICLE,181142281,04/24/2018,764 MIAMI CIR,211,Lindbergh/Morosgo,B,33.83188,-84.36198,
LARCENY-FROM VEHICLE,181142300,04/24/2018,219 TONAWANDA DR,310,Browns Mill Park,Z,33.68425,-84.38494,
LARCENY-FROM VEHICLE,181142587,04/24/2018,696 PIEDMONT AVE NE,509,Old Fourth Ward,M,33.76987,-84.38194,
LARCENY-FROM VEHICLE,181142152,04/24/2018,1154 JAMES JACKSON PKWY NW @Multiple,113,Brookview Heights,G,33.7876,-84.47783,
LARCENY-FROM VEHICLE,181142174,04/24/2018,275 E LAKE BLVD SE,611,The Villages at East Lake,O,33.74533,-84.31429,
LARCENY-FROM VEHICLE,181142270,04/24/2018,299 N HIGHLAND AVE NE,602,Inman Park,N,33.76198,-84.35846,
LARCENY-FROM VEHICLE,181141202,04/24/2018,65 CLEVELAND AVE SW,310,Browns Mill Park,Z,33.68119,-84.39103,
LARCENY-FROM VEHICLE,181141362,04/24/2018,826 MARIETTA ST NW,504,Marietta Street Artery,E,33.77477,-84.4067,
LARCENY-FROM VEHICLE,181141096,04/24/2018,1979 AKRON DR SE,308,Thomasville Heights,Z,33.69958,-84.35277,
LARCENY-FROM VEHICLE,181141817,04/24/2018,842 PEACHTREE ST NE,505,Midtown,E,33.77756,-84.38482,
LARCENY-FROM VEHICLE,181141675,04/24/2018,1245 GLENWOOD AVE SE,612,East Atlanta,W,33.74006,-84.3466,
LARCENY-FROM VEHICLE,181141625,04/24/2018,1757 MELROSE DR SW,306,Sylvan Hills,X,33.70672,-84.42054,
LARCENY-FROM VEHICLE,181142632,04/24/2018,2685 METROPOLITAN PKWY SW,309,Perkerson,X,33.68274,-84.40902,
LARCENY-FROM VEHICLE,181142131,04/24/2018,3368 PEACHTREE RD NE,208,North Buckhead,B,33.84713,-84.36802,
LARCENY-FROM VEHICLE,181141967,04/24/2018,2771 ALPINE RD NE,206,Garden Hills,B,33.83045,-84.36847,
LARCENY-FROM VEHICLE,181142108,04/24/2018,3333 PIEDMONT RD NE,208,North Buckhead,B,33.84592,-84.37234,
LARCENY-NON VEHICLE,181141242,04/24/2018,3455 PEACHTREE RD NE,210,Lenox,B,33.85199,-84.36061,
LARCENY-NON VEHICLE,181141989,04/24/2018,3804 MARTIN L KING JR DR SW @GORDON FOREST APT,114,Old Gordon,H,33.76676,-84.51461,
LARCENY-FROM VEHICLE,181140750,04/24/2018,2213 FAULKNER RD NE,212,Lindridge/Martin Manor,F,33.81276,-84.35871,
LARCENY-FROM VEHICLE,181141464,04/24/2018,3628 GINNIS RD SW,407,Fairburn Mays,H,33.73154,-84.51288,
LARCENY-FROM VEHICLE,181141041,04/24/2018,2115 PIEDMONT RD NE @SQUIRE INN MOTEL NE,212,Morningside/Lenox Park,F,33.81235,-84.36578,
LARCENY-FROM VEHICLE,181141186,04/24/2018,135 W WIEUCA RD NW @CHASTAIN PARK,202,Chastain Park,A,33.87589,-84.39202,
LARCENY-FROM VEHICLE,181141498,04/24/2018,469 N HIGHLAND AVE NE,602,Inman Park,N,33.76681,-84.35289,
LARCENY-FROM VEHICLE,181140820,04/24/2018,1689 VENETIAN DR SW,403,Venetian Hills,S,33.7149,-84.44307,
LARCENY-FROM VEHICLE,181140342,04/24/2018,480 JOHN WESLEY DOBBS AVE NE,604,Old Fourth Ward,M,33.75961,-84.37127,
LARCENY-FROM VEHICLE,181141259,04/24/2018,2261 FAIRBURN RD SW,412,Kings Forest,P,33.69284,-84.51142,
LARCENY-FROM VEHICLE,181142068,04/24/2018,623 AMAL DR SW,307,Amal Heights,Y,33.7082,-84.39784,
LARCENY-NON VEHICLE,181141058,04/24/2018,708 SPRING ST NW,505,Midtown,E,33.77402,-84.3892,
LARCENY-NON VEHICLE,181142642,04/24/2018,3405 LENOX RD NE @TERRACE GARDEN INN,210,Lenox,B,33.848,-84.35947,
LARCENY-NON VEHICLE,181141068,04/24/2018,2870 PEACHTREE RD NW,206,Peachtree Heights West,B,33.83278,-84.38428,
LARCENY-NON VEHICLE,181142353,04/24/2018,152 HOWELL ST NE,604,Old Fourth Ward,M,33.7584,-84.37025,
LARCENY-NON VEHICLE,181141264,04/24/2018,342 GLENWOOD AVE SE,605,Grant Park,W,33.74248,-84.377,
LARCENY-NON VEHICLE,181141287,04/24/2018,1644 MERTON RD NE,213,Morningside/Lenox Park,F,33.7996,-84.35633,
LARCENY-NON VEHICLE,181142310,04/24/2018,1269 PRYOR RD SW,302,Pittsburgh,V,33.72037,-84.39397,
LARCENY-NON VEHICLE,181141520,04/24/2018,2035 PEACHTREE RD NE,207,,E,33.81027,-84.38932,
AUTO THEFT,181142637,04/24/2018,201 DEFOORS MILL DR NW,204,Underwood Hills,D,33.81384,-84.42766,
AUTO THEFT,181142738,04/24/2018,180 UNIVERSITY AVE SW,302,Pittsburgh,V,33.72164,-84.39375,
AUTO THEFT,181142427,04/24/2018,1201 W PEACHTREE ST NE @IBM TOWER,502,Midtown,E,33.78713,-84.38746,
AUTO THEFT,181142057,04/24/2018,3024 MARTIN L KING JR DR SW,405,Harland Terrace,I,33.7527,-84.48607,
LARCENY-NON VEHICLE,181132006,04/23/2018,633 GRESHAM AVE SE,612,East Atlanta,W,33.73705,-84.34612,
LARCENY-FROM VEHICLE,181132127,04/23/2018,595 RALPH D ABERNATHY BLVD SW,303,Pittsburgh,V,33.73796,-84.40707,
LARCENY-FROM VEHICLE,181132300,04/23/2018,1223 SPRING PARK DR SW,406,Audobon Forest,I,33.72253,-84.47394,
LARCENY-FROM VEHICLE,181130487,04/23/2018,1620 HOLLYWOOD RD NW,113,Scotts Crossing,G,33.79988,-84.47023,
LARCENY-FROM VEHICLE,181130715,04/23/2018,3760 SOUTHSIDE INDUSTRIAL PKWY SE,313,Blair Villa/Poole Creek,Z,33.6512,-84.37741,
LARCENY-NON VEHICLE,181131798,04/23/2018,950 W PEACHTREE ST NW @PUBLIX - W PEACHTREE,503,Midtown,E,33.78014,-84.38747,
LARCENY-NON VEHICLE,181131103,04/23/2018,3035 PEACHTREE RD NE,206,Buckhead Village,B,33.83771,-84.38064,
LARCENY-NON VEHICLE,181131981,04/23/2018,144 MORELAND AVE NE,606,Reynoldstown,N,33.75736,-84.3496,
LARCENY-NON VEHICLE,181131718,04/23/2018,2155 HOSEA L WILLIAMS DR SE,610,Kirkwood,O,33.75084,-84.31719,
LARCENY-FROM VEHICLE,181131561,04/23/2018,2011 BOLTON RD NW @PERRY HOME BRANCH,203,Riverside,D,33.8104,-84.47705,
AUTO THEFT,181130733,04/23/2018,333 NELSON ST SW,507,Castleberry Hill,M,33.75156,-84.39887,
AUTO THEFT,181130670,04/23/2018,1 PHILLIPS DR,507,Dixie Hills,J,33.75535,-84.46195,
AUTO THEFT,181130383,04/23/2018,1079 NORTH AVE NE,602,Poncey-Highland,N,33.7709,-84.35218,
AUTO THEFT,181130885,04/23/2018,866 MURPHY AVE SW @ADAIR II PARK,301,Adair Park,V,33.73255,-84.41239,
AUTO THEFT,181132146,04/23/2018,1239 HARTFORD AVE SW,301,Capitol View,X,33.72107,-84.41708,
AUTO THEFT,181131775,04/23/2018,2240 BUTNER RD SW,413,Fairburn,P,33.69152,-84.52133,
AUTO THEFT,181131113,04/23/2018,848 SPRING STREET,505,Midtown,E,33.77771,-84.38947,
AUTO THEFT,181130830,04/23/2018,848 SPRING ST NW,505,Midtown,E,33.77771,-84.38947,
BURGLARY-RESIDENCE,181131677,04/23/2018,796 SPRINGDALE PL SW,309,Perkerson,X,33.69243,-84.4147,
BURGLARY-RESIDENCE,181131267,04/23/2018,112 COURTLAND ST NE,510,Downtown,M,33.75756,-84.38434,
BURGLARY-RESIDENCE,181131476,04/23/2018,1375 NORTHSIDE DR NW,207,Loring Heights,E,33.79215,-84.40774,
BURGLARY-NONRES,181130551,04/23/2018,2035 CAMPBELLTON RD SW,408,Venetian Hills,S,33.7076,-84.45534,
BURGLARY-RESIDENCE,181131847,04/23/2018,617 HAMILTON E HOLMES DR NW,109,Center Hill,J,33.772,-84.47323,
BURGLARY-RESIDENCE,181131012,04/23/2018,3224 TELFORD TER SW,414,Princeton Lakes,P,33.66581,-84.51453,
BURGLARY-RESIDENCE,181131236,04/23/2018,1767 DODSON DR SW,409,Laurens Valley,R,33.70732,-84.47561,
BURGLARY-NONRES,181130288,04/23/2018,1308 GLENWOOD AVE SE,612,East Atlanta,W,33.74032,-84.34476,
AGG ASSAULT,181132272,04/23/2018,80 JESSE HILL JR DR SE @GRADY DETENTION,510,Downtown,M,33.75168,-84.38198,
BURGLARY-RESIDENCE,181131940,04/23/2018,1298 GIDEONS DR SW,104,Mozley Park,K,33.75195,-84.42997,
BURGLARY-RESIDENCE,181130965,04/23/2018,2109 BRIAR GLEN LN SW,412,Briar Glen,P,33.6974,-84.5006,
AGG ASSAULT,181131947,04/23/2018,1903 DREW DR NW @APS WESTSIDE,110,West Highlands,G,33.79346,-84.45106,
AGG ASSAULT,181131783,04/23/2018,2000 FLAT SHOALS RD SE ,606,East Atlanta,W,33.726,-84.32204,
AGG ASSAULT,181130807,04/23/2018,3337 MARTIN L KING JR DR NW,111,Adamsville,H,33.75362,-84.49558,
ROBBERY-PEDESTRIAN,181131283,04/23/2018,735 LAWTON ST SW,402,West End,T,33.73485,-84.42365,
ROBBERY-PEDESTRIAN,181131934,04/23/2018,2037 REYNOLDS DR SW,307,Lakewood Heights,Y,33.69882,-84.40133,
LARCENY-FROM VEHICLE,181132286,04/23/2018,1925 MONROE DR NE,212,Piedmont Heights,F,33.80804,-84.37412,
LARCENY-FROM VEHICLE,181131883,04/23/2018,931 MONROE DR NE @Multiple,506,Midtown,E,33.77909,-84.36717,
LARCENY-FROM VEHICLE,181132113,04/23/2018,3755 CARMIA DR SW,414,Princeton Lakes,P,33.6569,-84.51004,
LARCENY-FROM VEHICLE,181131939,04/23/2018,750 BENDER ST SW,302,Pittsburgh,V,33.73414,-84.40618,
LARCENY-FROM VEHICLE,181131982,04/23/2018,2143 PEACHTREE RD NE,207,,E,33.81262,-84.39195,
LARCENY-FROM VEHICLE,181132085,04/23/2018,3242 PEACHTREE RD NE,208,Buckhead Forest,B,33.84425,-84.37311,
LARCENY-FROM VEHICLE,181132216,04/23/2018,426 HOPKINS ST SW,401,West End,T,33.74353,-84.43035,
LARCENY-FROM VEHICLE,181132137,04/23/2018,3393 PEACHTREE RD,210,Lenox,B,33.84676,-84.36212,
LARCENY-FROM VEHICLE,181132160,04/23/2018,132 10TH ST NE,503,Midtown,E,33.78222,-84.3829,
LARCENY-FROM VEHICLE,181132191,04/23/2018,3200 ATLANTA INDUSTRIAL PKWY NW,114,Atlanta Industrial Park,G,33.79164,-84.49622,
LARCENY-FROM VEHICLE,181131897,04/23/2018,889 W PEACHTREE ST NE,505,Midtown,E,33.77889,-84.38717,
LARCENY-FROM VEHICLE,181132025,04/23/2018,265 PONCE DE LEON AVE NE,505,Midtown,E,33.77206,-84.37869,
LARCENY-FROM VEHICLE,181131073,04/23/2018,213 PEACHTREE ST SW,512,Downtown,M,33.74864,-84.39497,
LARCENY-FROM VEHICLE,181130245,04/23/2018,400 PHARR RD NE,206,Buckhead Village,B,33.83751,-84.37416,
LARCENY-FROM VEHICLE,181131825,04/23/2018,3500 PEACHTREE RD NE @PHIPPS PLAZA,208,North Buckhead,B,33.85252,-84.36116,
LARCENY-FROM VEHICLE,181131727,04/23/2018,2020 COLLIER RD,205,Channing Valley,C,33.80944,-84.41286,
LARCENY-FROM VEHICLE,181131708,04/23/2018,519 CENTRAL AVE SW,303,Mechanicsville,V,33.74047,-84.39353,
LARCENY-FROM VEHICLE,181131687,04/23/2018,3760 PRINCETON LAKES PKWY SW,414,Princeton Lakes,P,33.65806,-84.51051,
LARCENY-FROM VEHICLE,181131682,04/23/2018,1600 ELLSWORTH INDUSTRIAL BLVD NW,203,Blandtown,D,33.79826,-84.42811,
LARCENY-FROM VEHICLE,181131663,04/23/2018,1907 METROPOLITAN PKWY SW,306,Sylvan Hills,X,33.70218,-84.40817,
LARCENY-FROM VEHICLE,181131660,04/23/2018,672 CLIFTON RD SE,612,East Atlanta,W,33.73585,-84.32987,
LARCENY-FROM VEHICLE,181131655,04/23/2018,ARMSTRONG ST SE / JESSE HILL JR DR SE,510,Downtown,M,33.75274,-84.38202,
LARCENY-FROM VEHICLE,181131619,04/23/2018,2345 ADAMS DR NW,203,Bolton,D,33.81881,-84.45333,
LARCENY-FROM VEHICLE,181131483,04/23/2018,1147 MAYLAND CIR SW,302,Pittsburgh,V,33.72351,-84.40611,
LARCENY-FROM VEHICLE,181131458,04/23/2018,660  E SIDE AVE SE,612,East Atlanta,W,33.73635,-84.34007,
LARCENY-FROM VEHICLE,181131292,04/23/2018,915 W PEACHTREE ST NE,503,Midtown,E,33.78079,-84.38409,
LARCENY-FROM VEHICLE,181131274,04/23/2018,2900 PEACHTREE RD NW,206,Peachtree Heights West,B,33.83399,-84.3841,
LARCENY-FROM VEHICLE,181131215,04/23/2018,874 DURANT PL,504,Midtown,E,33.77807,-84.37535,
LARCENY-FROM VEHICLE,181131172,04/23/2018,333 NELSON ST SW,507,Castleberry Hill,M,33.75158,-84.39883,
LARCENY-FROM VEHICLE,181131160,04/23/2018,85 5TH ST NW,505,Midtown,E,33.77727,-84.3898,
LARCENY-FROM VEHICLE,181131157,04/23/2018,30 SPRING ST NW,507,Downtown,M,33.75585,-84.39367,
LARCENY-FROM VEHICLE,181131635,04/23/2018,3676 STONE RD SW,413,,P,33.68029,-84.50835,
LARCENY-FROM VEHICLE,181132196,04/23/2018,3060 PEACHTREE RD NW,206,Peachtree Heights West,B,33.83953,-84.38123,
LARCENY-FROM VEHICLE,181130921,04/23/2018,1166 RALPH D ABERNATHY BLVD SW,402,West End,T,33.73818,-84.42588,
LARCENY-FROM VEHICLE,181130813,04/23/2018,400 PHARR RD,206,Buckhead Village,B,33.8371,-84.3747,
LARCENY-FROM VEHICLE,181130748,04/23/2018,57 RUMSON RD NE,206,Garden Hills,B,33.83119,-84.38476,
LARCENY-FROM VEHICLE,181130717,04/23/2018,1130 DONALD LEE HOLLOWELL PKWY NW,106,Bankhead,K,33.77137,-84.42406,
LARCENY-FROM VEHICLE,181130672,04/23/2018,1956 LATHROP ST SE,308,Thomasville Heights,Z,33.70132,-84.35936,
LARCENY-FROM VEHICLE,181130654,04/23/2018,2492 MARTIN L KING JR DR SW,405,Harland Terrace,I,33.75174,-84.47488,
LARCENY-FROM VEHICLE,181121832,04/23/2018,192 PEACHTREE CENTER AVE,510,Downtown,M,33.75942,-84.3865,
LARCENY-FROM VEHICLE,181130049,04/23/2018,126 3RD ST NE,505,Midtown,E,33.77364,-84.38296,
LARCENY-FROM VEHICLE,181131046,04/23/2018,3242 PEACHTREE RD NE,208,Buckhead Forest,B,33.84286,-84.37291,
LARCENY-FROM VEHICLE,181130521,04/23/2018,8406 CHASTAIN DR NE,209,East Chastain Park,B,33.86585,-84.38416,
LARCENY-FROM VEHICLE,181131632,04/23/2018,8170 WEST PEACHTREE ST,,Colonial Homes,C,33.81392,-84.39459,
LARCENY-NON VEHICLE,181132133,04/23/2018,1371 MARKET ST NW,501,Atlantic Station,E,33.7921,-84.39466,
LARCENY-NON VEHICLE,181131379,04/23/2018,1275 CAROLINE ST NE @TARGET - CAROLINE,609,Edgewood,O,33.75674,-84.34619,
LARCENY-NON VEHICLE,181130919,04/23/2018,375 18TH ST NW @TARGET - 18TH,501,Atlantic Station,E,33.79303,-84.39921,
LARCENY-NON VEHICLE,181131724,04/23/2018,2020 BOLTON RD ,203,Riverside,D,33.81125,-84.47594,
LARCENY-NON VEHICLE,181130931,04/23/2018,490 WHITEHALL ST SW,507,Castleberry Hill,M,33.74348,-84.40341,
LARCENY-NON VEHICLE,181121558,04/22/2018,3050 MARTIN L KING JR DR SW,405,Harland Terrace,I,33.75177,-84.4857,
LARCENY-NON VEHICLE,181121537,04/22/2018,639 MOROSGO DR NE,211,Lindbergh/Morosgo,B,33.82329,-84.36696,
LARCENY-FROM VEHICLE,181121778,04/22/2018,300 PEACHTREE ST NW,508,Downtown,M,33.76254,-84.38789,
LARCENY-FROM VEHICLE,181121124,04/22/2018,852 HALL ST NW,109,Center Hill,J,33.77826,-84.46616,
LARCENY-FROM VEHICLE,181121346,04/22/2018,2841 GREENBRIAR PKWY SW @PLANET FITNESS,411,Greenbriar,R,33.68677,-84.49773,
LARCENY-FROM VEHICLE,181120513,04/22/2018,1153 PENN CT SE,308,Thomasville Heights,Z,33.7021,-84.36083,
LARCENY-FROM VEHICLE,181120540,04/22/2018,705 PIEDMONT AVE NE,505,Midtown,E,33.77373,-84.38124,
LARCENY-FROM VEHICLE,181112264,04/22/2018,1397 N HIGHLAND AVE NE,213,Morningside/Lenox Park,F,33.79246,-84.35224,
LARCENY-FROM VEHICLE,181120055,04/22/2018,1270 W PEACHTREE ST NW @ATLANTA TOWERS,502,Midtown,E,33.78937,-84.3882,
LARCENY-FROM VEHICLE,181121056,04/22/2018,1080 W PEACHTREE ST NW,503,Midtown,E,33.7847,-84.38817,
LARCENY-FROM VEHICLE,181121038,04/22/2018,448 RALPH D ABERNATHY BLVD SW,303,Mechanicsville,V,33.73642,-84.40248,
LARCENY-FROM VEHICLE,181121030,04/22/2018,3330 PIEDMONT RD NE @KROGER - PIEDMONT,208,Buckhead Forest,B,33.84564,-84.37462,
LARCENY-FROM VEHICLE,181121017,04/22/2018,1424 N HIGHLAND AVENUE,213,Morningside/Lenox Park,F,33.79351,-84.35148,
LARCENY-FROM VEHICLE,181120917,04/22/2018,1951 WOODLAND HILLS AVE NW,204,Underwood Hills,D,33.80836,-84.41854,
LARCENY-FROM VEHICLE,181120873,04/22/2018,165 COURTLAND ST NE @SHERATON ATLANTA,510,Downtown,M,33.75895,-84.3834,
ROBBERY-RESIDENCE,181120815,04/22/2018,1664 KENMORE ST SW,403,Cascade Avenue/Road,S,33.72611,-84.44293,
ROBBERY-PEDESTRIAN,181120675,04/22/2018,1097 WESTVIEW DR SW,104,Ashview Heights,T,33.74737,-84.42375,
ROBBERY-PEDESTRIAN,181120684,04/22/2018,1685 RALPH D ABERNATHY BLVD SW,404,,I,33.74851,-84.4425,
ROBBERY-RESIDENCE,181121920,04/22/2018,1359 BOULEVARD LORRAINE SW,409,Adams Park,R,33.71866,-84.45821,
ROBBERY-PEDESTRIAN,181120469,04/22/2018,1184 SPRING ST NW,502,Midtown,E,33.78697,-84.38959,
HOMICIDE,181112004,04/22/2018,633 PARKWAY DR NE,603,Old Fourth Ward,M,33.77189,-84.3725,
ROBBERY-PEDESTRIAN,181120326,04/22/2018,VINE ST/MARTIN LUTHER KING JR DR,102,Vine City,L,33.75693,-84.41004,
ROBBERY-PEDESTRIAN,181120964,04/22/2018,265 BROTHERTON ST SW,512,Downtown,M,33.74821,-84.39631,
ROBBERY-PEDESTRIAN,181121114,04/22/2018,2615 HOOD AVE NW,109,Center Hill,J,33.77021,-84.47048,
ROBBERY-PEDESTRIAN,181121651,04/22/2018,2097 BAKER RD NW,107,Grove Park,J,33.77021,-84.4565,
AGG ASSAULT,181121073,04/22/2018,1674 WESTWOOD AVE SW,404,Westview,T,33.7382,-84.44256,
AGG ASSAULT,181121705,04/22/2018,171 DOANE ST SW,303,Mechanicsville,V,33.73126,-84.3937,
AGG ASSAULT,181120446,04/22/2018,3901 CAMPBELLTON RD SW,412,Kings Forest,P,33.69231,-84.51621,
AGG ASSAULT,181120017,04/22/2018,3113 LENOX RD NE,210,Pine Hills,B,33.83926,-84.35786,
AGG ASSAULT,181120663,04/22/2018,854 JOSEPH E BOONE BLVD NW,102,Vine City,L,33.76326,-84.41542,
BURGLARY-RESIDENCE,181120115,04/22/2018,450 PIEDMONT AVE NE,509,Downtown,M,33.76625,-84.38261,
BURGLARY-NONRES,181121795,04/22/2018,3541 MARTIN L KING JR DR NW,111,Adamsville,H,33.75844,-84.50372,
BURGLARY-RESIDENCE,181121263,04/22/2018,1555 STEELE DR NW,207,Loring Heights,E,33.79752,-84.40119,
BURGLARY-RESIDENCE,181121781,04/22/2018,1000 NORTHSIDE DR NW,501,Home Park,E,33.78194,-84.40758,
BURGLARY-RESIDENCE,181121759,04/22/2018,2900 LANDRUM DR SW,409,Southwest,R,33.70623,-84.48372,
LARCENY-NON VEHICLE,181121119,04/22/2018,TED TURNER DR NW / MARIETTA ST NW,508,Downtown,M,33.75699,-84.39267,
LARCENY-NON VEHICLE,181121015,04/22/2018,862 PARSON ST,101,Atlanta University Center,T,33.75067,-84.4158,
BURGLARY-RESIDENCE,181120955,04/22/2018,530 LINDSAY ST NW,103,English Avenue,L,33.76927,-84.4166,
AUTO THEFT,181121685,04/22/2018,1551 PIEDMONT AVE NE,213,Morningside/Lenox Park,F,33.79675,-84.36899,
AUTO THEFT,181120276,04/22/2018,WALNUT ST NW / MARTIN L KING JR DR NW,101,Atlanta University Center,T,33.75466,-84.40649,
AUTO THEFT,181121560,04/22/2018,599 WHITEHALL ST SW,303,Pittsburgh,V,33.74277,-84.40756,
AUTO THEFT,181121313,04/22/2018,510 NORTHSIDE DR NW,103,English Avenue,L,33.76854,-84.40493,
AUTO THEFT,181120936,04/22/2018,1994 BENT CREEK WAY SW,410,Campbellton Road,R,33.7011,-84.46631,
AUTO THEFT,181120763,04/22/2018,607 PARSONS ST SW,101,Atlanta University Center,T,33.75143,-84.40748,
LARCENY-NON VEHICLE,181120838,04/22/2018,1101 JUNIPER ST,502,Midtown,E,33.78465,-84.3821,
LARCENY-NON VEHICLE,181120923,04/22/2018,3901 CAMPBELLTON RD SW,412,Kings Forest,P,33.69231,-84.51621,
LARCENY-NON VEHICLE,181120600,04/22/2018,3434 PEACHTREE RD NE,208,North Buckhead,B,33.8504,-84.36226,
LARCENY-NON VEHICLE,181120984,04/22/2018,544 NORFOLK ST NW,106,Bankhead,K,33.76957,-84.41882,
LARCENY-NON VEHICLE,181121362,04/22/2018,2784 DONALD LEE HOLLOWELL PKWY NW,112,Collier Heights,I,33.77927,-84.47996,
LARCENY-NON VEHICLE,181120712,04/22/2018,1537 DONALD LEE HOLLOWELL PKWY NW,110,Grove Park,J,33.77189,-84.43829,
LARCENY-NON VEHICLE,181121564,04/22/2018,800 W MARIETTA ST NW,103,English Avenue,L,33.78022,-84.41514,
LARCENY-NON VEHICLE,181110933,04/21/2018,824 RALPH D ABERNATHY BLVD SW,401,West End,T,33.73792,-84.41473,
LARCENY-NON VEHICLE,181111628,04/21/2018,3041 LANDRUM DR SW,409,Southwest,R,33.70846,-84.48783,
LARCENY-NON VEHICLE,181110581,04/21/2018,553 MARKTREY PL NW,107,Grove Park,J,33.77054,-84.44837,
LARCENY-NON VEHICLE,181111212,04/21/2018,3535 PEACHTREE RD NE @TARGET - PEACHTREE,210,Lenox,B,33.85182,-84.3595,
LARCENY-NON VEHICLE,181111342,04/21/2018,1100 HOWELL MILL RD NW,501,Home Park,E,33.78458,-84.41197,
LARCENY-FROM VEHICLE,181112128,04/21/2018,631 MONTEVISTA STREET SW,404,Westwood Terrace,I,33.73797,-84.4519,
LARCENY-FROM VEHICLE,181111112,04/21/2018,3122 LATONA DR SW,312,Glenrose Heights,Z,33.66953,-84.39537,
LARCENY-FROM VEHICLE,181111594,04/21/2018,2591 ETHERIDGE DR NW,113,Carey Park,G,33.7881,-84.47292,
AUTO THEFT,181112067,04/21/2018,229 SCOTT ST NW,105,Hunter Hills,K,33.76142,-84.43173,
AUTO THEFT,181111444,04/21/2018,40 PEACHTREE VALLEY RD NE,207,,E,33.81096,-84.39145,
AUTO THEFT,181110368,04/21/2018,3201 PACES FERRY PL NW,206,South Tuxedo Park,B,33.84125,-84.38195,
AUTO THEFT,181110157,04/21/2018,361 17TH ST NW,501,Atlantic Station,E,33.79161,-84.3981,
AUTO THEFT,181111232,04/21/2018,2323 PIEDMONT RD NE,211,Lindbergh/Morosgo,B,33.81869,-84.36622,
LARCENY-NON VEHICLE,181111416,04/21/2018,870 MARTIN L KING JR DR SW,101,Atlanta University Center,T,33.75455,-84.41611,
LARCENY-NON VEHICLE,181111184,04/21/2018,2636 MARTIN L KING JR DR SW,405,Harland Terrace,I,33.75277,-84.47429,
BURGLARY-RESIDENCE,181111598,04/21/2018,611 HILLSIDE VILLAGE DR SE,611,The Villages at East Lake,O,33.7407,-84.31607,
BURGLARY-NONRES,181110495,04/21/2018,222 S COLONIAL HOMES CIR NW,205,Colonial Homes,C,33.81276,-84.39527,
AGG ASSAULT,181111145,04/21/2018,1530 WOODBINE,610,Kirkwood,O,33.75194,-84.33668,
AGG ASSAULT,181110590,04/21/2018,714 WATERS DR SW,404,Westview,T,33.73557,-84.44351,
AGG ASSAULT,181110294,04/21/2018,3326 DELMAR LN NW,111,Adamsville,H,33.75629,-84.49683,
BURGLARY-RESIDENCE,181111280,04/21/2018,156 FAIRFIELD PL NW,108,Dixie Hills,J,33.75828,-84.46325,
BURGLARY-RESIDENCE,181112228,04/21/2018,131 PINE ST NW,504,Downtown,M,33.76789,-84.39172,
AGG ASSAULT,181121102,04/21/2018,610 BOULEVARD,603,Old Fourth Ward,M,33.77099,-84.37189,
AGG ASSAULT,181110463,04/21/2018,320 FAIRBURN RD SW,407,Fairburn Mays,H,33.7451,-84.50858,
AGG ASSAULT,181110915,04/21/2018,496 STEPHENS ST SW,302,Pittsburgh,V,33.73443,-84.40349,
AGG ASSAULT,181112125,04/21/2018,3334 PEACHTREE RD NE @ONE BUCKHEAD LOOP,208,North Buckhead,B,33.84911,-84.37075,
LARCENY-FROM VEHICLE,181112176,04/21/2018,2178 CAMPBELLTON RD SW,410,Campbellton Road,R,33.70514,-84.45947,
LARCENY-FROM VEHICLE,181112262,04/21/2018,3670 CAMP CREEK PKWY SW,414,Princeton Lakes,P,33.655,-84.50859,
LARCENY-FROM VEHICLE,181112137,04/21/2018,385 LEGACY DR,112,Collier Heights,I,33.78577,-84.49055,
LARCENY-FROM VEHICLE,181110281,04/21/2018,486 DECATUR ST SE,604,Sweet Auburn,M,33.75126,-84.37207,
LARCENY-FROM VEHICLE,181110202,04/21/2018,1700 NORTHSIDE DR NW,207,Berkeley Park,D,33.80077,-84.40869,
LARCENY-FROM VEHICLE,181110185,04/21/2018,1109 TUMLIN ST NW,501,Home Park,E,33.78501,-84.40047,
LARCENY-FROM VEHICLE,181110180,04/21/2018,3641 ZIP INDUSTRIAL BLVD SE,313,Blair Villa/Poole Creek,Z,33.65724,-84.38583,
LARCENY-FROM VEHICLE,181110138,04/21/2018,573 ELBRIDGEDR NW ,106,Bankhead,K,33.77058,-84.43253,
LARCENY-FROM VEHICLE,181110125,04/21/2018,685 11TH ST NW,501,Home Park,E,33.78332,-84.40974,
LARCENY-FROM VEHICLE,181110008,04/21/2018,500 AMSTERDAM AVE NE,213,Morningside/Lenox Park,F,33.78856,-84.36992,
LARCENY-FROM VEHICLE,181110413,04/21/2018,645 SHELTON AVE SW,301,Adair Park,V,33.73495,-84.40898,
LARCENY-NON VEHICLE,181112251,04/21/2018,1133 EUCLID AVE NE,602,Inman Park,N,33.76451,-84.35,
LARCENY-NON VEHICLE,181110392,04/21/2018,400 EDGEWOOD AVE NE,604,Sweet Auburn,M,33.75464,-84.37465,
LARCENY-NON VEHICLE,181110717,04/21/2018,1190 MEMORIAL DR SE,609,Edgewood,O,33.74788,-84.34859,
LARCENY-NON VEHICLE,181111041,04/21/2018,3509 MARTIN L KING JR DR NW,111,Adamsville,H,33.7581,-84.50258,
LARCENY-NON VEHICLE,181111333,04/21/2018,835 MARTIN L KING JR DR NW,102,Vine City,L,33.75504,-84.41457,
LARCENY-NON VEHICLE,181111359,04/21/2018,2900 PEACHTREE RD NE,206,Peachtree Heights West,B,33.83399,-84.3841,
LARCENY-NON VEHICLE,181111392,04/21/2018,3050 MARTIN L KING JR DR SW,405,Harland Terrace,I,33.75237,-84.48653,
LARCENY-NON VEHICLE,181111630,04/21/2018,1275 CAROLINE ST NE @TARGET - CAROLINE,609,Edgewood,O,33.75674,-84.34619,
LARCENY-NON VEHICLE,181111915,04/21/2018,1275 CAROLINE ST NE @TARGET - CAROLINE,609,Edgewood,O,33.75674,-84.34619,
LARCENY-NON VEHICLE,181112196,04/21/2018,1275 CAROLINE ST NE ,609,Edgewood,O,33.75674,-84.34619,
LARCENY-FROM VEHICLE,181110609,04/21/2018,1678 HOWELL MILL RD NW,204,Underwood Hills,D,33.79991,-84.41625,
LARCENY-FROM VEHICLE,181110602,04/21/2018,1277 SELLS AVE SW,401,West End,T,33.74554,-84.4295,
LARCENY-FROM VEHICLE,181110592,04/21/2018,507 BISHOP ST NW,207,Loring Heights,E,33.79257,-84.4046,
LARCENY-FROM VEHICLE,181110733,04/21/2018,820 W MARIETTA ST NW,103,English Avenue,L,33.78089,-84.41622,
LARCENY-FROM VEHICLE,181112136,04/21/2018,1345 DONNELLY AVE SW,402,West End,T,33.73601,-84.4316,
LARCENY-FROM VEHICLE,181111583,04/21/2018,1019 COLLIER RD NW,204,,C,33.81187,-84.42057,
LARCENY-FROM VEHICLE,181111033,04/21/2018,1750 COMMERCE DR NW,204,Berkeley Park,D,33.80285,-84.41169,
LARCENY-FROM VEHICLE,181110819,04/21/2018,17 BAKER ST NW,508,Downtown,M,33.76235,-84.38819,
LARCENY-FROM VEHICLE,181110946,04/21/2018,1962 HOWELL MILL RD NW,205,Wildwood (NPU-C),C,33.80831,-84.41287,
LARCENY-FROM VEHICLE,181111908,04/21/2018,252 NORTHSIDE DR SW,507,Castleberry Hill,M,33.74721,-84.40514,
LARCENY-FROM VEHICLE,181110891,04/21/2018,412 SAWTELL AVE SE,307,Lakewood Heights,Y,33.70822,-84.37541,
LARCENY-FROM VEHICLE,181111434,04/21/2018,127 ANDREW YOUNG INTERNA BLVD NE,510,Downtown,M,33.75956,-84.38371,
LARCENY-FROM VEHICLE,181110833,04/21/2018,1750 COMMERCE DR NW,204,Berkeley Park,D,33.80174,-84.41093,
LARCENY-FROM VEHICLE,181110768,04/21/2018,930 SPRING ST NW,503,Midtown,E,33.7801,-84.38942,
LARCENY-FROM VEHICLE,181110742,04/21/2018,146 SAMPSON ST NE,604,Old Fourth Ward,M,33.75817,-84.36593,
LARCENY-FROM VEHICLE,181111712,04/21/2018,675 N HIGHLAND AVE NE,602,Poncey-Highland,N,33.7729,-84.35241,
LARCENY-FROM VEHICLE,181111878,04/21/2018,1313 W PACES FERRY RD NW,202,Randall Mill,A,33.84933,-84.43048,
LARCENY-FROM VEHICLE,181110959,04/21/2018,1040 RALPH D ABERNATHY BLVD SW @WEST HUNTER BAPTIST,401,West End,T,33.73739,-84.42171,
LARCENY-FROM VEHICLE,181102568,04/20/2018,123 MARIETTA ST NW,508,Downtown,M,33.75767,-84.39266,
LARCENY-FROM VEHICLE,181101133,04/20/2018,933 PEACHTREE ST NE,503,Midtown,E,33.78034,-84.38394,
LARCENY-FROM VEHICLE,181100622,04/20/2018,1211 HIGHTOWER RD NW,113,Carey Park,G,33.78822,-84.4702,
LARCENY-FROM VEHICLE,181100566,04/20/2018,1926 LATHROP ST SE,308,Thomasville Heights,Z,33.70213,-84.35915,
LARCENY-FROM VEHICLE,181100519,04/20/2018,140 ALDEN AVE NW,207,Brookwood,E,33.8014,-84.39747,
LARCENY-FROM VEHICLE,181101716,04/20/2018,3334 PEACHTREE RD NE,208,North Buckhead,B,33.84911,-84.37075,
LARCENY-NON VEHICLE,181100971,04/20/2018,2539 PIEDMONT RD NE @TARGET - PIEDMONT,211,Lindbergh/Morosgo,B,33.82403,-84.36328,
LARCENY-NON VEHICLE,181101225,04/20/2018,2310 MARTIN L KING JR DR SW,405,Florida Heights,I,33.75121,-84.46544,
LARCENY-NON VEHICLE,181100846,04/20/2018,1275 CAROLINE STREETNE,609,Edgewood,O,33.75674,-84.34619,
LARCENY-NON VEHICLE,181101592,04/20/2018,835 MARTIN L KING JR DR NW,102,Vine City,L,33.75504,-84.41457,
LARCENY-NON VEHICLE,181101602,04/20/2018,3393 PEACHTREE RD NE,210,Lenox,B,33.84676,-84.36212,
LARCENY-NON VEHICLE,181102234,04/20/2018,835 MARTIN L KING JR DR NW,102,Vine City,L,33.75504,-84.41457,
LARCENY-NON VEHICLE,181101199,04/20/2018,835 MARTIN L KING JR DR NW,102,Vine City,L,33.75504,-84.41457,
LARCENY-FROM VEHICLE,181102501,04/20/2018,299 N HIGHLAND AVE NE,602,Inman Park,N,33.76198,-84.35846,
LARCENY-FROM VEHICLE,181102492,04/20/2018,220 RENAISSANCE PKWY NE,603,Old Fourth Ward,M,33.76924,-84.37961,
LARCENY-FROM VEHICLE,181092469,04/20/2018,655 HIGHLAND AVE NE,604,Old Fourth Ward,M,33.76094,-84.36599,
LARCENY-FROM VEHICLE,181102639,04/20/2018,275 BAKER ST NW,508,Downtown,M,33.76206,-84.39568,
LARCENY-FROM VEHICLE,181101311,04/20/2018,842 PEACHTREE ST NE,505,Midtown,E,33.77756,-84.38482,
LARCENY-FROM VEHICLE,181102509,04/20/2018,549 AMSTERDAM AVE NE,601,Virginia Highland,F,33.78813,-84.3689,
LARCENY-FROM VEHICLE,181102085,04/20/2018,1091 EUCLID AVE NE,602,Inman Park,N,33.7636,-84.35097,
LARCENY-FROM VEHICLE,181102038,04/20/2018,1160 MOORES MILL RD NW,201,Brandon,C,33.83133,-84.42498,
LARCENY-FROM VEHICLE,181101959,04/20/2018,1074 ADA AVE NW,109,Almond Park,G,33.78377,-84.4639,
LARCENY-FROM VEHICLE,181101869,04/20/2018,3183 PEACHTREE RD,206,Buckhead Village,B,33.84063,-84.37497,
LARCENY-FROM VEHICLE,181102572,04/20/2018,300 PEACHTREE ST NE,508,Downtown,M,33.76293,-84.38714,
AGG ASSAULT,181101844,04/20/2018,60 PASCHAL BLVD NW,102,Vine City,L,33.75783,-84.41419,
AGG ASSAULT,181100346,04/20/2018,1940 FISHER RD SE,607,Custer/McDonough/Guice,W,33.70979,-84.35849,
ROBBERY-RESIDENCE,181100342,04/20/2018,585 PARKWAY DR NE,603,Old Fourth Ward,M,33.77024,-84.37223,
BURGLARY-RESIDENCE,181101216,04/20/2018,2904 GLENWOOD AVE SE,611,East Lake,O,33.73917,-84.29197,
BURGLARY-RESIDENCE,181100352,04/20/2018,1109 HUBBARD ST SW,302,Pittsburgh,V,33.72471,-84.40252,
BURGLARY-RESIDENCE,181101302,04/20/2018,1190 LYNWAY LN SW,406,Cascade Heights,I,33.7226,-84.48729,
BURGLARY-RESIDENCE,181102245,04/20/2018,3236 VERDANT DR SW,411,Greenbriar,R,33.6831,-84.49628,
BURGLARY-RESIDENCE,181102382,04/20/2018,921 WESTMORELAND CIR NW,110,West Highlands,G,33.79009,-84.44969,
AGG ASSAULT,181100606,04/20/2018,81 BURBANK DR NW,105,Hunter Hills,K,33.75742,-84.42855,
BURGLARY-NONRES,181101732,04/20/2018,1387 NORTHSIDE DR NW,207,Loring Heights,E,33.79262,-84.40774,
BURGLARY-RESIDENCE,181102502,04/20/2018,1660 PEACHTREE ST NW,502,Midtown,E,33.79874,-84.39164,
BURGLARY-RESIDENCE,181100640,04/20/2018,1434 N MORNINGSIDE DR NE,213,Morningside/Lenox Park,F,33.79349,-84.35807,
BURGLARY-RESIDENCE,181102407,04/20/2018,820 W MARIETTA ST NW,103,English Avenue,L,33.78045,-84.41554,
AUTO THEFT,181100181,04/20/2018,1190 LOGAN CIR NW,204,Underwood Hills,D,33.80658,-84.43004,
AUTO THEFT,181100649,04/20/2018,2166 LA DAWN LN NW,203,Bolton,D,33.81592,-84.45858,
AUTO THEFT,181101191,04/20/2018,1660 PEACHTREE ST NW,502,Midtown,E,33.79874,-84.39164,
AUTO THEFT,181100580,04/20/2018,1944 LATHROP ST SE,308,Thomasville Heights,Z,33.70165,-84.35929,
AUTO THEFT,181102034,04/20/2018,550 PIEDMONT AVE NE,509,Downtown,M,33.7695,-84.38232,
AUTO THEFT,181102372,04/20/2018,634 WHITEHALL ST SW,303,Adair Park,V,33.74179,-84.40844,
AUTO THEFT,181100489,04/20/2018,515 ELMWOOD RD NW,107,Grove Park,J,33.76921,-84.43871,
LARCENY-FROM VEHICLE,181101269,04/20/2018,205 12TH ST NE,503,Midtown,E,33.7842,-84.38071,
LARCENY-NON VEHICLE,181100116,04/20/2018,1270 W PEACHTREE ST NW,502,Midtown,E,33.7892,-84.38789,
LARCENY-NON VEHICLE,181102259,04/20/2018,2500 CENTER ST NW,113,Carey Park,G,33.78999,-84.47156,
LARCENY-NON VEHICLE,181102340,04/20/2018,3060 PHARR CT NORTH,208,Peachtree Heights West,B,33.83846,-84.38422,
LARCENY-NON VEHICLE,181101212,04/20/2018,825 CASCADE AVE SW,404,Cascade Avenue/Road,S,33.73296,-84.43809,
LARCENY-NON VEHICLE,181101836,04/20/2018,3700 MARTIN L KING JR DR SW,407,Adamsville,H,33.76327,-84.5095,
LARCENY-NON VEHICLE,181101497,04/20/2018,275 BAKER ST NW,508,Downtown,M,33.76206,-84.39568,
LARCENY-NON VEHICLE,181100771,04/20/2018,1599 MEMORIAL DR SE,610,Kirkwood,O,33.74614,-84.33607,
LARCENY-NON VEHICLE,181101151,04/20/2018,1925 MONROE DR NE,212,Piedmont Heights,F,33.80804,-84.37412,
LARCENY-NON VEHICLE,181101253,04/20/2018,1717 N ROCK SPRINGS RD NE,213,Morningside/Lenox Park,F,33.80149,-84.36352,
LARCENY-NON VEHICLE,181100006,04/20/2018,1263 GLENWOOD AVE SE,612,East Atlanta,W,33.73998,-84.34627,
LARCENY-NON VEHICLE,181100467,04/20/2018,1322 SW LORENZO DR SW,403,Venetian Hills,S,33.71897,-84.43234,
LARCENY-NON VEHICLE,181101436,04/20/2018,303 PARKWAY DR NE @Multiple,604,Old Fourth Ward,M,33.76286,-84.37405,
LARCENY-NON VEHICLE,181091726,04/19/2018,384 WOODWARD WAY NW,205,,C,33.81596,-84.4035,
LARCENY-NON VEHICLE,181090758,04/19/2018,3999 PARAN RIDGE RD NW,201,Pleasant Hill,A,33.86118,-84.44081,
LARCENY-NON VEHICLE,181090860,04/19/2018,2515 FAIRBURN RD SW,413,,P,33.68603,-84.51258,
LARCENY-NON VEHICLE,181091413,04/19/2018,1655 NORTH OLYMPIAN WAY SW,404,Westview,T,33.73648,-84.44191,
LARCENY-NON VEHICLE,181091714,04/19/2018,97 LITTLE ST SE,304,Summerhill,V,33.73293,-84.38478,
LARCENY-NON VEHICLE,181090838,04/19/2018,1280 W PEACHTREE ST NW,502,Midtown,E,33.78971,-84.38812,
LARCENY-NON VEHICLE,181098091,04/19/2018,N TERM @6000 N TERMINAL PKWY,705,,,33.64184,-84.4477,
LARCENY-NON VEHICLE,181090874,04/19/2018,445 CLEVELAND AVE SW,312,Perkerson,X,33.68134,-84.40388,
LARCENY-NON VEHICLE,181098010,04/19/2018,6000 N TERMINAL PKWY,705,,,33.64184,-84.4477,
LARCENY-NON VEHICLE,181090988,04/19/2018,88 PEACHTREE ST SW,511,Downtown,M,33.75214,-84.39173,
LARCENY-FROM VEHICLE,181090008,04/19/2018,1093 WEST AVE SW,302,Pittsburgh,V,33.72494,-84.39593,
LARCENY-FROM VEHICLE,181092578,04/19/2018,1150 ASTOR AVE SW,306,Sylvan Hills,X,33.70137,-84.42678,
AUTO THEFT,181092538,04/19/2018,930 SPRING ST NW,503,Midtown,E,33.7801,-84.38942,
AUTO THEFT,181090202,04/19/2018,343 JOSEPH E LOWERY BLVD SW,104,Ashview Heights,T,33.74569,-84.41786,
AUTO THEFT,181090701,04/19/2018,1281 FAIRVIEW RD NE,608,Druid Hills,N,33.77211,-84.34542,
AUTO THEFT,181092409,04/19/2018,635 LINDBERGH DR NE,211,Lindbergh/Morosgo,B,33.8213,-84.36689,
AUTO THEFT,181090977,04/19/2018,1824 DEFOOR AVE NW,204,Underwood Hills,D,33.80485,-84.4239,
AUTO THEFT,181090953,04/19/2018,848 SPRING ST NW,505,Midtown,E,33.77781,-84.38888,
AUTO THEFT,181090617,04/19/2018,172 ELVAN AVE NE,610,Kirkwood,O,33.75706,-84.31658,
BURGLARY-NONRES,181090960,04/19/2018,1585 MORELAND AVE SE,607,Custer/McDonough/Guice,W,33.71113,-84.35017,
BURGLARY-RESIDENCE,181092302,04/19/2018,1018 REGIS RD SE,308,Leila Valley,Z,33.68992,-84.35445,
LARCENY-NON VEHICLE,181091105,04/19/2018,25 PARK PL NE,510,Downtown,M,33.7552,-84.38805,
BURGLARY-RESIDENCE,181090722,04/19/2018,3945 PRINCETON LAKES WAY SW,414,Princeton Lakes,P,33.65944,-84.51662,
BURGLARY-NONRES,181090411,04/19/2018,665 8TH ST NW,501,Home Park,E,33.77988,-84.40896,
BURGLARY-NONRES,181090413,04/19/2018,2200 CAMPBELLTON RD SW,410,Campbellton Road,R,33.70504,-84.46063,
BURGLARY-RESIDENCE,181091463,04/19/2018,950 MARIETTA ST NW,504,Marietta Street Artery,E,33.77689,-84.40807,
BURGLARY-RESIDENCE,181092475,04/19/2018,950 MARIETTA ST NW,504,Marietta Street Artery,E,33.77689,-84.40807,
BURGLARY-RESIDENCE,181091767,04/19/2018,1371 KIMBERLY WAY SW,412,Ashley Courts,P,33.71771,-84.52315,
BURGLARY-RESIDENCE,181090436,04/19/2018,2484 BAKER RD NW,109,Center Hill,J,33.76936,-84.46855,
AGG ASSAULT,181081918,04/19/2018,265 18TH ST NW,501,Atlantic Station,E,33.79251,-84.39726,
AGG ASSAULT,181091603,04/19/2018,2909 CAMPBELLTON RD SW,409,Southwest,R,33.69869,-84.48265,
AGG ASSAULT,181091500,04/19/2018,1960 ALISON CT SW,410,Campbellton Road,R,33.70061,-84.45299,
ROBBERY-PEDESTRIAN,181090251,04/19/2018,80 WALNUT ST,101,Vine City,L,33.75707,-84.40651,
ROBBERY-PEDESTRIAN,181090241,04/19/2018,591 KANUGA ST NE,601,Virginia Highland,F,33.78212,-84.36843,
AGG ASSAULT,181091989,04/19/2018,565 WELLS COURT,306,Sylvan Hills,X,33.70278,-84.41017,
AGG ASSAULT,181092513,04/19/2018,624 WOODWARD AVE SE,606,Grant Park,W,33.74561,-84.36709,
LARCENY-FROM VEHICLE,181092311,04/19/2018,400 MERRITTS AVE NE @CENTRAL PARK,603,Old Fourth Ward,M,33.76901,-84.37444,
LARCENY-FROM VEHICLE,181092457,04/19/2018,128 E ANDREWS DR NW,206,South Tuxedo Park,B,33.84251,-84.38311,
LARCENY-FROM VEHICLE,181092454,04/19/2018,1071 HOWELL MILL RD NW,501,Home Park,E,33.78381,-84.41176,
LARCENY-FROM VEHICLE,181091060,04/19/2018,1544 PIEDMONT AVE NE @PUBLIX - ANSLEY,213,Piedmont Heights,F,33.79789,-84.37101,
LARCENY-FROM VEHICLE,181090407,04/19/2018,295 GLENN ST SW,303,Mechanicsville,V,33.73833,-84.3973,
LARCENY-FROM VEHICLE,181091359,04/19/2018,152 ELM ST,101,The Villages at Castleberry Hill,T,33.74933,-84.40978,
LARCENY-FROM VEHICLE,181090387,04/19/2018,2685 METROPOLITAN PARKWAY,309,Perkerson,X,33.68274,-84.40902,
LARCENY-FROM VEHICLE,181090996,04/19/2018,1322 EUCLID AVE NE,608,Candler Park,N,33.76905,-84.34442,
LARCENY-FROM VEHICLE,181092155,04/19/2018,834 PEACHTREE ST NE,505,Midtown,E,33.77753,-84.3845,
LARCENY-FROM VEHICLE,181092145,04/19/2018,180 WALKER ST SW,507,Castleberry Hill,M,33.74964,-84.40132,
LARCENY-FROM VEHICLE,181092096,04/19/2018,31 BAKER ST NE,509,Downtown,M,33.76214,-84.38625,
LARCENY-FROM VEHICLE,181091866,04/19/2018,535 MEANS ST NW,504,Marietta Street Artery,E,33.77269,-84.40466,
LARCENY-FROM VEHICLE,181091768,04/19/2018,1968 PEACHTREE RD NW @PIEDMONT HOSPITAL,207,,E,33.81,-84.39583,
LARCENY-FROM VEHICLE,181091453,04/19/2018,1138 PEACHTREE ST NE,503,Midtown,E,33.78559,-84.38365,
LARCENY-FROM VEHICLE,181090526,04/19/2018,79 MADDOX DR NE,502,Ansley Park,E,33.79567,-84.37628,
LARCENY-FROM VEHICLE,181090561,04/19/2018,1824 DEFOOR AVE NW,204,Underwood Hills,D,33.80485,-84.4239,
LARCENY-FROM VEHICLE,181090638,04/19/2018,1685 RALPH D ABERNATHY BLVD SW,404,,I,33.74851,-84.4425,
LARCENY-FROM VEHICLE,181090729,04/19/2018,235 PHARR RD NE,206,Garden Hills,B,33.83636,-84.38001,
LARCENY-FROM VEHICLE,181090187,04/19/2018,2841 GREENBRIAR PKWY SW @GREENBRIAR MALL,411,Greenbriar,R,33.68677,-84.49773,
LARCENY-FROM VEHICLE,181090162,04/19/2018,3030 HEADLAND DR SW,411,Greenbriar,R,33.68841,-84.48742,
LARCENY-FROM VEHICLE,181090381,04/19/2018,1019 ROSEDALE RD NE,601,Virginia Highland,F,33.78242,-84.34787,
LARCENY-FROM VEHICLE,181090909,04/19/2018,2699 PEACHTREE RD NE ,206,Peachtree Heights West,B,33.82757,-84.38746,
LARCENY-FROM VEHICLE,181090938,04/19/2018,3381 LANDINGS SOUTH DR SW,414,Ben Hill,P,33.66369,-84.52091,
LARCENY-NON VEHICLE,181090354,04/19/2018,520 BOULEVARD SE,605,Grant Park,W,33.7407,-84.36764,
LARCENY-NON VEHICLE,181091256,04/19/2018,520 BOULEVARD SE,605,Grant Park,W,33.7407,-84.36764,
LARCENY-NON VEHICLE,181091892,04/19/2018,3393 PEACHTREE RD NE @Multiple,210,Lenox,B,33.84676,-84.36212,
LARCENY-NON VEHICLE,181092043,04/19/2018,835 MARTIN L KING JR DR NW,102,Vine City,L,33.75504,-84.41457,
LARCENY-NON VEHICLE,181092199,04/19/2018,3500 PEACHTREE RD NE @PHIPPS PLAZA,208,North Buckhead,B,33.85302,-84.36278,
LARCENY-NON VEHICLE,181092359,04/19/2018,835 MARTIN L KING JR DR NW,102,Vine City,L,33.75504,-84.41457,
LARCENY-FROM VEHICLE,181092531,04/19/2018,931 MONROE DR NE,506,Midtown,E,33.77909,-84.36717,
LARCENY-FROM VEHICLE,181092519,04/19/2018,3464 ROXBORO RD NE,210,Buckhead Heights,B,33.84935,-84.35574,
LARCENY-FROM VEHICLE,181092517,04/19/2018,3755 CARMIA DR SW,414,Princeton Lakes,P,33.65571,-84.50908,
LARCENY-NON VEHICLE,181080995,04/18/2018,835 MARTIN L KING JR DR NW,102,Vine City,L,33.75504,-84.41457,
LARCENY-NON VEHICLE,181081105,04/18/2018,918 DONALD LEE HOLLOWELL PKWY NW,106,Bankhead,K,33.77267,-84.41777,
LARCENY-NON VEHICLE,181081523,04/18/2018,3393 PEACHTREE RD NE,210,Lenox,B,33.84676,-84.36212,
LARCENY-NON VEHICLE,181080676,04/18/2018,3835 JONESBORO RD SE,313,South River Gardens,Z,33.64967,-84.3662,
LARCENY-NON VEHICLE,181080845,04/18/2018,605 BOULEVARD NE,603,Old Fourth Ward,M,33.77097,-84.3714,
LARCENY-FROM VEHICLE,181080787,04/18/2018,3495 BUCKHEAD LOOP NE,208,North Buckhead,B,33.85209,-84.3645,
LARCENY-FROM VEHICLE,181080742,04/18/2018,2119 GARRISON WAY NW,203,Whittier Mill Village,D,33.8134,-84.48072,
LARCENY-FROM VEHICLE,181080671,04/18/2018,2115 PIEDMONT RD NE,212,Morningside/Lenox Park,F,33.81274,-84.36659,
LARCENY-FROM VEHICLE,181080633,04/18/2018,17 BAKER ST NW,508,Downtown,M,33.76235,-84.38819,
LARCENY-FROM VEHICLE,181080416,04/18/2018,2161 PEACHTREE RD NE,207,,E,33.81327,-84.39236,
LARCENY-FROM VEHICLE,181080415,04/18/2018,711 WOODS DR NW,109,Center Hill,J,33.77442,-84.46853,
LARCENY-FROM VEHICLE,181080399,04/18/2018,(03375380 08438020),510,Downtown,M,33.75657,-84.38034,
LARCENY-FROM VEHICLE,181080013,04/18/2018,2685 METROPOLITAN PKWY SW,309,Perkerson,X,33.68274,-84.40902,
LARCENY-FROM VEHICLE,181081380,04/18/2018,3334 PEACHTREE RD NE @ONE BUCKHEAD LOOP,208,North Buckhead,B,33.84911,-84.37075,
LARCENY-FROM VEHICLE,181081362,04/18/2018,882 ADAIR AVE NE,601,Virginia Highland,F,33.78024,-84.35852,
LARCENY-FROM VEHICLE,181081255,04/18/2018,390 STOVALL ST SE,606,Ormewood Park,W,33.7436,-84.35429,
LARCENY-FROM VEHICLE,181081139,04/18/2018,2255 PEACHTREE RD NE,211,,E,33.81563,-84.39093,
LARCENY-FROM VEHICLE,181081087,04/18/2018,3085 EMPIRE BLVD SW,312,Glenrose Heights,Z,33.67044,-84.39354,
LARCENY-FROM VEHICLE,181082176,04/18/2018,3450 ROXBORO RD NE,210,Buckhead Heights,B,33.84862,-84.354,
LARCENY-FROM VEHICLE,181082075,04/18/2018,177 MOURY AVE SW,305,The Villages at Carver,Y,33.71348,-84.39052,
LARCENY-FROM VEHICLE,181081987,04/18/2018,842 PEACHTREE ST NE,504,Midtown,E,33.77756,-84.38482,
LARCENY-FROM VEHICLE,181081703,04/18/2018,1040 HUFF RD NW,203,Blandtown,D,33.78868,-84.42207,
LARCENY-FROM VEHICLE,181081682,04/18/2018,360 PHARR RD NE,206,Buckhead Village,B,33.83752,-84.37574,
LARCENY-FROM VEHICLE,181080906,04/18/2018,240 N HIGHLAND AVE NE @BELTLINE BUSINESS,602,Inman Park,N,33.76191,-84.36039,
LARCENY-FROM VEHICLE,181081489,04/18/2018,1784 PEACHTREE ST NW,207,Ardmore,E,33.80334,-84.39351,
LARCENY-FROM VEHICLE,181081399,04/18/2018,3242 PEACHTREE RD NE,208,Buckhead Forest,B,33.84425,-84.37311,
LARCENY-FROM VEHICLE,181081500,04/18/2018,2809 PEACHTREE RD NE,206,Garden Hills,B,33.83157,-84.38498,
AGG ASSAULT,181082059,04/18/2018,1925 MONROE DR NE,212,Piedmont Heights,F,33.80804,-84.37412,
AGG ASSAULT,181081808,04/18/2018,345 LANIER ST NW,107,Grove Park,J,33.76449,-84.4392,
AGG ASSAULT,181082000,04/18/2018,399 HOLLY ST NW,107,Grove Park,J,33.76601,-84.43728,
AGG ASSAULT,181080089,04/18/2018,309 THORNTON ST SW,307,Joyland,Y,33.71199,-84.39903,
HOMICIDE,181081880,04/18/2018,29 MORELAND AVE SE,606,Reynoldstown,N,33.75276,-84.34968,
AGG ASSAULT,181081383,04/18/2018,45 IVAN ALLEN JR BLVD NW,504,Downtown,M,33.76505,-84.38939,
AGG ASSAULT,181080375,04/18/2018,2265 PERRY BLVD,101,Scotts Crossing,G,33.80595,-84.46416,
BURGLARY-RESIDENCE,181080937,04/18/2018,744 GARIBALDI ST SW,303,Mechanicsville,V,33.73459,-84.3989,
BURGLARY-RESIDENCE,181081572,04/18/2018,950 MARIETTA ST NW,504,Marietta Street Artery,E,33.77689,-84.40807,
BURGLARY-RESIDENCE,181081312,04/18/2018,390 STOVALL ST SE,606,Ormewood Park,W,33.7436,-84.35429,
BURGLARY-RESIDENCE,181080793,04/18/2018,691 FERRIS ST SW,404,Westwood Terrace,I,33.73633,-84.45418,
BURGLARY-NONRES,181081005,04/18/2018,1387 NORTHSIDE DR NW,207,Loring Heights,E,33.79266,-84.40727,
BURGLARY-NONRES,181080929,04/18/2018,444 HIGHLAND AVE NE,604,Old Fourth Ward,M,33.76145,-84.3729,
BURGLARY-NONRES,181081391,04/18/2018,1387 NORTHSIDE DR NW,207,Loring Heights,E,33.79266,-84.40727,
LARCENY-NON VEHICLE,181080872,04/18/2018,2779 LAKEWOOD AVE SW,306,Sylvan Hills,X,33.69729,-84.40943,
LARCENY-NON VEHICLE,181080549,04/18/2018,2720 METROPOLITAN PKWY SW,311,Hammond Park,X,33.68067,-84.4072,
BURGLARY-RESIDENCE,181081358,04/18/2018,1631 STANTON RD SW,408,,R,33.71076,-84.4438,
AUTO THEFT,181081030,04/18/2018,2500 MARTIN L KING JR DR SW,405,Harland Terrace,I,33.75237,-84.46958,
AUTO THEFT,181081026,04/18/2018,1940 MURPHY AVE SW,306,Sylvan Hills,X,33.70192,-84.42732,
AUTO THEFT,181080900,04/18/2018,320 FAIRBURN RD SW,407,Fairburn Mays,H,33.7451,-84.50858,
AUTO THEFT,181080558,04/18/2018,3041 LANDRUM DR SW,409,Southwest,R,33.70649,-84.48782,
AUTO THEFT,181080241,04/18/2018,1689 HOWELL MILL RD NW,207,Berkeley Park,D,33.80029,-84.4156,
AUTO THEFT,181080067,04/18/2018,409 UNIVERSITY AVE SW,302,Pittsburgh,V,33.72232,-84.40135,
AUTO THEFT,181082008,04/18/2018,233 BURBANK DR NW,105,Hunter Hills,K,33.76142,-84.42879,
LARCENY-FROM VEHICLE,181081933,04/18/2018,2101 TULA ST NW,207,,C,33.8118,-84.39331,
LARCENY-FROM VEHICLE,181080429,04/18/2018,178 MOURY AVE SW,305,The Villages at Carver,Y,33.71347,-84.39079,
LARCENY-NON VEHICLE,181081421,04/18/2018,2452 MOROSGO WAY NE,211,Lindbergh/Morosgo,B,33.82295,-84.36559,
LARCENY-NON VEHICLE,181081149,04/18/2018,680 14TH ST NW,501,Home Park,E,33.78553,-84.40954,
LARCENY-NON VEHICLE,181080997,04/18/2018,3500 PEACHTREE RD NE @PHIPPS PLAZA,208,North Buckhead,B,33.85302,-84.36278,
LARCENY-NON VEHICLE,181080162,04/18/2018,1280 W PEACHTREE ST NW,502,Midtown,E,33.78971,-84.38812,
LARCENY-NON VEHICLE,181081816,04/18/2018,450 16TH ST NW,501,Home Park,E,33.78852,-84.40344,
LARCENY-NON VEHICLE,181080011,04/18/2018,370 NORTHSIDE DR NW,103,English Avenue,L,33.76507,-84.4042,
LARCENY-NON VEHICLE,181081201,04/18/2018,60 PASCHAL BLVD NW,102,Vine City,L,33.75783,-84.41419,
LARCENY-NON VEHICLE,181081394,04/18/2018,1265 E ROCK SPRINGS RD NE,213,Morningside/Lenox Park,F,33.79515,-84.34567,
LARCENY-NON VEHICLE,181071258,04/17/2018,1175 PEACHTREE ST NE,502,Midtown,E,33.78696,-84.38316,
LARCENY-NON VEHICLE,181071014,04/17/2018,196 PEACHTREE ST SW,512,Downtown,M,33.74916,-84.3943,
LARCENY-NON VEHICLE,181070625,04/17/2018,1455 ENGLISH ST NW,203,Blandtown,D,33.79589,-84.42145,
LARCENY-NON VEHICLE,181071865,04/17/2018,345 FIELDING CT SW,406,Peyton Forest,I,33.74654,-84.48262,
LARCENY-NON VEHICLE,181070450,04/17/2018,1280 W PEACHTREE ST NE,502,Midtown,E,33.78971,-84.38812,
LARCENY-NON VEHICLE,181070975,04/17/2018,401 17TH ST NW,501,Atlantic Station,E,33.79044,-84.40216,
AUTO THEFT,181072350,04/17/2018,2450 CAMELLIA LN NE,211,Lindbergh/Morosgo,B,33.82302,-84.3714,
AUTO THEFT,181072264,04/17/2018,2900 LANDRUM DR SW,409,Southwest,R,33.70623,-84.48372,
AUTO THEFT,181072186,04/17/2018,535 LEE ST SW,401,West End,T,33.74042,-84.41435,
AUTO THEFT,181072130,04/17/2018,530 JOSEPH E LOWERY BLVD SW,401,West End,T,33.74095,-84.41722,
AUTO THEFT,181070647,04/17/2018,2055 ROBSON PL SE,610,Kirkwood,O,33.75601,-84.32025,
AUTO THEFT,181070531,04/17/2018,1142 VIRGINIA AVE NE,601,Virginia Highland,F,33.78182,-84.34921,
AUTO THEFT,181070413,04/17/2018,3023 GRAND AVE SW,311,Hammond Park,X,33.67464,-84.40595,
AUTO THEFT,181070409,04/17/2018,3200 STONE RD SW,411,Greenbriar,R,33.6697,-84.49403,
AUTO THEFT,181070394,04/17/2018,3450 FORREST PARK RD SE,313,South River Gardens,Z,33.66061,-84.35549,
AUTO THEFT,181070364,04/17/2018,921 WESTMORELAND CIR NW,110,West Highlands,G,33.79009,-84.44969,
AUTO THEFT,181062150,04/17/2018,530 JOSEPH E LOWERY BLVD SW,401,West End,T,33.74095,-84.41722,
BURGLARY-RESIDENCE,181071004,04/17/2018,2151 OHARA PL SE,308,Leila Valley,Z,33.6911,-84.35712,
BURGLARY-RESIDENCE,181071974,04/17/2018,569 WARWICK ST SE,607,Ormewood Park,W,33.73868,-84.35404,
BURGLARY-RESIDENCE,181071953,04/17/2018,1050 LENOX PARK BLVD NE,210,Pine Hills,B,33.85016,-84.34846,
BURGLARY-RESIDENCE,181070592,04/17/2018,175 ROSSER ST SW,104,Ashview Heights,T,33.75001,-84.42457,
LARCENY-NON VEHICLE,181071277,04/17/2018,1215 CAROLINE ST NE,609,Edgewood,O,33.75718,-84.34889,
LARCENY-NON VEHICLE,181071924,04/17/2018,1275 CAROLINE ST NE @TARGET - CAROLINE,609,Edgewood,O,33.75674,-84.34619,
LARCENY-NON VEHICLE,181072056,04/17/2018,1275 CAROLINE ST NE @TARGET - CAROLINE,609,Edgewood,O,33.75674,-84.34619,
BURGLARY-NONRES,181071051,04/17/2018,2945 STONE HOGAN CONN SW,411,Greenbriar,R,33.67511,-84.49716,
BURGLARY-NONRES,181072166,04/17/2018,1387 NORTHSIDE DR NW,207,Loring Heights,E,33.79266,-84.40727,
BURGLARY-RESIDENCE,181070387,04/17/2018,2265 PERRY BLVD NW,110,Scotts Crossing,G,33.80595,-84.46416,
BURGLARY-RESIDENCE,181071690,04/17/2018,2539 KNOX ST NE,611,East Lake,O,33.75232,-84.30388,
BURGLARY-RESIDENCE,181072279,04/17/2018,454 GIFT AVE SE,606,Ormewood Park,W,33.74168,-84.35329,
BURGLARY-RESIDENCE,181071773,04/17/2018,1564 MARBUT AVE SE,612,East Atlanta,W,33.74333,-84.33664,
BURGLARY-RESIDENCE,181071618,04/17/2018,2132 BURROUGHS AVE SE,310,Lakewood,Z,33.69596,-84.37094,
BURGLARY-RESIDENCE,181071590,04/17/2018,2800 MARTIN L KING JR DR SW,405,Harland Terrace,I,33.75431,-84.4793,
BURGLARY-RESIDENCE,181071130,04/17/2018,1000 NORTHSIDE DR NW,501,Home Park,E,33.78194,-84.40758,
AGG ASSAULT,181071197,04/17/2018,12 BROAD ST SW,511,Downtown,M,33.7532,-84.39201,
ROBBERY-PEDESTRIAN,181070839,04/17/2018,2031 DETROIT AVE NW,107,Grove Park,J,33.76723,-84.45372,
ROBBERY-PEDESTRIAN,181072144,04/17/2018,3901 CAMPBELLTON RD SW,412,Kings Forest,P,33.69231,-84.51621,
AGG ASSAULT,181072296,04/17/2018,1981 MARTIN L KING JR DR NW,108,,I,33.75014,-84.45237,
AGG ASSAULT,181072109,04/17/2018,1829 CAMPBELLTON RD SW,408,Venetian Hills,S,33.71,-84.44863,
LARCENY-FROM VEHICLE,181070830,04/17/2018,441 16TH ST NW @IKEA,501,Atlantic Station,E,33.78874,-84.40468,
LARCENY-FROM VEHICLE,181070710,04/17/2018,931 MONROE DR NE @TRADER JOES - MONROE,506,Midtown,E,33.77909,-84.36717,
LARCENY-FROM VEHICLE,181070681,04/17/2018,680 PONCE DE LEON AVE NE,506,Midtown,E,33.77406,-84.36528,
LARCENY-FROM VEHICLE,181070630,04/17/2018,2407 CASCADE RD SW,406,Cascade Heights,I,33.72116,-84.46711,
LARCENY-FROM VEHICLE,181070601,04/17/2018,180 JACKSON ST NE,604,Sweet Auburn,M,33.75932,-84.37442,
LARCENY-FROM VEHICLE,181070905,04/17/2018,898 T P BURRUSS SR DR SW,101,Atlanta University Center,T,33.754,-84.4168,
LARCENY-FROM VEHICLE,181071989,04/17/2018,1160 MOORES MILL ROAD,203,Brandon,C,33.83133,-84.42498,
LARCENY-FROM VEHICLE,181071604,04/17/2018,1162 PRYOR ST SW,304,Peoplestown,V,33.72327,-84.39322,
LARCENY-FROM VEHICLE,181071296,04/17/2018,757 CLEVELAND AVENUE SW,309,Perkerson,X,33.68131,-84.41167,
LARCENY-FROM VEHICLE,181071263,04/17/2018,1531 CAMPBELLTON RD SW,408,Venetian Hills,S,33.71334,-84.4387,
LARCENY-FROM VEHICLE,181070986,04/17/2018,1393 LANIER PL NE,213,Morningside/Lenox Park,F,33.79273,-84.35346,
LARCENY-FROM VEHICLE,181070415,04/17/2018,235 PHARR RD NE,206,Garden Hills,B,33.83636,-84.38001,
LARCENY-FROM VEHICLE,181071066,04/17/2018,3005 1ST ST,311,Hammond Park,X,33.67404,-84.40283,
LARCENY-FROM VEHICLE,181072307,04/17/2018,1784 PEACHTREE ST NW,207,Ardmore,E,33.80334,-84.39351,
LARCENY-FROM VEHICLE,181072299,04/17/2018,554 PIEDMONT AVE NE,509,Old Fourth Ward,M,33.76987,-84.38194,
LARCENY-FROM VEHICLE,181072362,04/17/2018,3465 NORTHSIDE PKWY NW,202,Randall Mill,A,33.84958,-84.42962,
LARCENY-FROM VEHICLE,181072389,04/17/2018,944 W PEACHTREE ST NW,503,Midtown,E,33.78037,-84.38746,
LARCENY-FROM VEHICLE,181072395,04/17/2018,2275 MARIETTA BLVD NW,201,,C,33.81979,-84.45051,
LARCENY-FROM VEHICLE,181070507,04/17/2018,240 NORTH AVE NE,505,Midtown,E,33.77248,-84.37857,
LARCENY-FROM VEHICLE,181070452,04/17/2018,2865 DONALD LEE HOLLOWELL PKWY NW,113,Brookview Heights,G,33.78092,-84.48168,
LARCENY-FROM VEHICLE,181070367,04/17/2018,2367 CASCADE RD SW,406,Cascade Heights,I,33.72211,-84.46611,
LARCENY-FROM VEHICLE,181070345,04/17/2018,3242 PEACHTREE RD NE,208,Buckhead Forest,B,33.84425,-84.37311,
LARCENY-FROM VEHICLE,181070341,04/17/2018,3580 CAMPBELLTON RD SW,413,,P,33.6899,-84.50584,
LARCENY-FROM VEHICLE,181070123,04/17/2018,1091 LEAH LN SE,612,East Atlanta,W,33.72622,-84.32948,
LARCENY-FROM VEHICLE,181070031,04/17/2018,447 MORELAND AVE NE,608,Candler Park,N,33.76653,-84.34889,
LARCENY-FROM VEHICLE,181062106,04/16/2018,3670 CAMP CREEK PKWY SW,414,Princeton Lakes,P,33.655,-84.50859,
LARCENY-FROM VEHICLE,181061929,04/16/2018,757 CLEVELAND AVE SW,309,Perkerson,X,33.68232,-84.41417,
LARCENY-FROM VEHICLE,181061765,04/16/2018,3580 CAMPBELLTON RD SW,413,,P,33.6899,-84.50584,
LARCENY-FROM VEHICLE,181061688,04/16/2018,777 DONALD LEE HOLLOWELL PKWY NW,103,English Avenue,L,33.77328,-84.41283,
LARCENY-FROM VEHICLE,181061792,04/16/2018,43 FORSYTH ST NW,508,Downtown,M,33.75571,-84.39048,
LARCENY-FROM VEHICLE,181061815,04/16/2018,3535 PEACHTREE RD NE,210,Lenox,B,33.85182,-84.3595,
LARCENY-FROM VEHICLE,181061824,04/16/2018,3730 CARMIA DR SW @PUBLIX - CARMIA,414,Princeton Lakes,P,33.65573,-84.5109,
LARCENY-FROM VEHICLE,181061843,04/16/2018,1359 PARK WALK SE,607,Benteen Park,W,33.71471,-84.36037,
LARCENY-FROM VEHICLE,181061878,04/16/2018,1968 PEACHTREE RD NW,207,,E,33.81,-84.39583,
LARCENY-FROM VEHICLE,181061615,04/16/2018,110 TED TURNER DR SW,512,Downtown,M,33.75129,-84.39576,
LARCENY-FROM VEHICLE,181061700,04/16/2018,30 JOHNSON RD NW,110,Grove Park,J,33.78174,-84.45446,
LARCENY-FROM VEHICLE,181060312,04/16/2018,92 W PACES FERRY RD NW,206,Peachtree Heights West,B,33.83982,-84.38409,
LARCENY-FROM VEHICLE,181060016,04/16/2018,249 PETERS ST SW,507,Castleberry Hill,M,33.74789,-84.40161,
LARCENY-FROM VEHICLE,181060383,04/16/2018,2477 METROPOLITAN PKWY SW,309,Perkerson,X,33.68711,-84.40862,
LARCENY-FROM VEHICLE,181060380,04/16/2018,398 OAKLAND AVE SE,605,Grant Park,W,33.7438,-84.37465,
LARCENY-FROM VEHICLE,181061885,04/16/2018,930 HOWELL MILL RD NW,501,Home Park,E,33.77987,-84.41063,
LARCENY-FROM VEHICLE,181060572,04/16/2018,3390 STRATFORD RD NE,208,North Buckhead,B,33.849,-84.36673,
LARCENY-FROM VEHICLE,181061253,04/16/2018,1959 METROPOLITAN PKWY SW,306,Sylvan Hills,X,33.7008,-84.41018,
LARCENY-FROM VEHICLE,181061220,04/16/2018,142 MANGUM ST SW,507,Castleberry Hill,M,33.75073,-84.39925,
LARCENY-FROM VEHICLE,181061182,04/16/2018,772 BROOKLINE ST SW,301,Adair Park,V,33.72686,-84.41287,
LARCENY-FROM VEHICLE,181061161,04/16/2018,1802 HOLLYWOOD RD NW,113,Scotts Crossing,G,33.80485,-84.47091,
LARCENY-FROM VEHICLE,181061119,04/16/2018,3232 PEACHTREE RD NE,208,Buckhead Forest,B,33.84413,-84.37409,
LARCENY-FROM VEHICLE,181061050,04/16/2018,2158 FORREST PL NW,203,Riverside,D,33.81445,-84.4693,
LARCENY-FROM VEHICLE,181061006,04/16/2018,356 STOKESWOOD AVE,612,East Atlanta,W,33.73911,-84.3446,
LARCENY-FROM VEHICLE,181060239,04/16/2018,3140 ALEXANDER CIR NE,209,North Buckhead,B,33.85524,-84.36617,
LARCENY-FROM VEHICLE,181061631,04/16/2018,3183 PEACHTREE RD NE,206,Buckhead Village,B,33.84063,-84.37497,
LARCENY-FROM VEHICLE,181060791,04/16/2018,800 GLENWOOD AVE SE,605,Grant Park,W,33.74234,-84.36002,
LARCENY-FROM VEHICLE,181060893,04/16/2018,757 CLEVELAND AVE SW,309,Perkerson,X,33.68232,-84.41417,
LARCENY-FROM VEHICLE,181060001,04/16/2018,360 MARIETTA ST,507,Downtown,M,33.76269,-84.39702,
LARCENY-NON VEHICLE,181060956,04/16/2018,3050 MARTIN L KING JR DR SW,405,Harland Terrace,I,33.75177,-84.4857,
LARCENY-NON VEHICLE,181060974,04/16/2018,2841 GREENBRIAR PKWY SW @GREENBRIAR MALL,411,Greenbriar,R,33.68845,-84.49328,
LARCENY-NON VEHICLE,181060803,04/16/2018,1275 CAROLINE ST NE @TARGET - CAROLINE,609,Edgewood,O,33.75684,-84.3461,
LARCENY-NON VEHICLE,181060754,04/16/2018,835 MARTIN L KING JR DR NW,102,Vine City,L,33.75504,-84.41457,
LARCENY-NON VEHICLE,181060689,04/16/2018,235 PEACHTREE ST NE @ATL GAS LIGHT TOWER,509,Downtown,M,33.76044,-84.38702,
LARCENY-NON VEHICLE,181060966,04/16/2018,1275 CAROLINE ST ST,609,Edgewood,O,33.75674,-84.34619,
AGG ASSAULT,181062037,04/16/2018,1652 LANGSTON AVE SW,306,Sylvan Hills,X,33.71041,-84.42294,
AGG ASSAULT,181060072,04/16/2018,269 9TH ST NE,503,Midtown,E,33.78138,-84.38046,
AGG ASSAULT,181061693,04/16/2018,547 ELBRIDGE DR NW,106,Bankhead,K,33.77011,-84.43236,
AGG ASSAULT,181061992,04/16/2018,83 FITZGERALD ST SE,604,Sweet Auburn,M,33.752,-84.37259,
BURGLARY-RESIDENCE,181062093,04/16/2018,1391 COLLIER RD NW,204,Underwood Hills,D,33.80989,-84.43402,
BURGLARY-RESIDENCE,181060616,04/16/2018,3256 VERDANT DR SW,411,Greenbriar,R,33.68338,-84.49612,
BURGLARY-RESIDENCE,181060493,04/16/2018,4006 CORNELL BLVD SW,407,Baker Hills,H,33.75861,-84.51844,
BURGLARY-RESIDENCE,181061425,04/16/2018,1775 CAMPBELLTON RD SW,408,Venetian Hills,S,33.71143,-84.44622,
BURGLARY-RESIDENCE,181061028,04/16/2018,40 MILDRED PL NW,109,Almond Park,G,33.77998,-84.45674,
BURGLARY-NONRES,181060289,04/16/2018,3024 PEACHTREE RD NW @CHEESECAKE FACTORY,206,Peachtree Heights West,B,33.83777,-84.38154,
BURGLARY-NONRES,181060610,04/16/2018,2730 BROWNS MILL RD SE,312,Rosedale Heights,Z,33.68001,-84.38352,
BURGLARY-NONRES,181061317,04/16/2018,402 ATLANTA AVE SE,605,Grant Park,W,33.73057,-84.37428,
BURGLARY-NONRES,181061547,04/16/2018,2427 MORELAND AVE SE,308,Leila Valley,Z,33.688,-84.35091,
LARCENY-NON VEHICLE,181061269,04/16/2018,2237 CASCADE RD SW,406,Cascade Avenue/Road,S,33.72282,-84.46129,
LARCENY-NON VEHICLE,181061324,04/16/2018,375 18TH ST NW @TARGET - 18TH,501,Atlantic Station,E,33.79303,-84.39921,
LARCENY-NON VEHICLE,181061369,04/16/2018,1 BUCKHEAD LOOP,208,Lenox,B,33.85235,-84.36041,
LARCENY-NON VEHICLE,181061510,04/16/2018,1975 CAMPBELLTON RD SW,408,Venetian Hills,S,33.70827,-84.45385,
LARCENY-NON VEHICLE,181061677,04/16/2018,835 MARTIN L KING JR DR NW,102,Vine City,L,33.75504,-84.41457,
BURGLARY-RESIDENCE,181060003,04/16/2018,4050 SOUTHWOOD CIR SW,412,Ben Hill Terrace,P,33.69609,-84.52076,
BURGLARY-RESIDENCE,181061255,04/16/2018,1660 PEACHTREE ST NW,502,Midtown,E,33.79874,-84.39164,
BURGLARY-RESIDENCE,181061613,04/16/2018,1375 BATTLEVIEW DR NW,201,Wesley Battle,C,33.8247,-84.43262,
BURGLARY-RESIDENCE,181061159,04/16/2018,202 CARROLL ST SE,606,Cabbagetown,N,33.74908,-84.36785,
BURGLARY-RESIDENCE,181061723,04/16/2018,1210 KIPLING ST SE,308,Thomasville Heights,Z,33.69808,-84.35016,
BURGLARY-RESIDENCE,181061715,04/16/2018,1618 GATES PL,203,Hills Park,D,33.80988,-84.44819,
AUTO THEFT,181062030,04/16/2018,3221 MARTIN L KING JR DR NW,111,,I,33.75284,-84.49256,
AUTO THEFT,181060621,04/16/2018,2492 MARTIN L KING JR DR SW,405,Harland Terrace,I,33.75174,-84.47488,
AUTO THEFT,181061917,04/16/2018,1093 HEMPHILL AVE NW,501,Home Park,E,33.78466,-84.40561,
AUTO THEFT,181060915,04/16/2018,2080 DONALD LEE HOLLOWELL PKWY NW,107,Grove Park,J,33.77639,-84.45349,
AUTO THEFT,181060778,04/16/2018,374 CLEVELAND AVE SW,311,Hammond Park,X,33.68076,-84.40126,
AUTO THEFT,181060542,04/16/2018,33 GOLF CIR NE,502,Ansley Park,E,33.80149,-84.37649,
AUTO THEFT,181060501,04/16/2018,542 CLIFTON ST SE,612,East Atlanta,W,33.73926,-84.33186,
AUTO THEFT,181060128,04/16/2018,140 BELMONTE DR SW,403,Cascade Avenue/Road,S,33.72494,-84.44409,
AUTO THEFT,181060055,04/16/2018,1695 NORTHSIDE DR NW,207,Loring Heights,E,33.80107,-84.40742,
LARCENY-NON VEHICLE,181061106,04/16/2018,200 EDGEWOOD AVE NE,510,Downtown,M,33.75479,-84.38102,
LARCENY-FROM VEHICLE,181051258,04/16/2018,3092 EMBRY WAY SE ,312,Glenrose Heights,Z,33.67087,-84.38452,
LARCENY-NON VEHICLE,181060571,04/16/2018,55 IVAN ALLEN JR BLVD NW,504,Downtown,M,33.76477,-84.38936,
LARCENY-NON VEHICLE,181061180,04/16/2018,1959 LAKEWOOD AVE SE,307,Lakewood Heights,Y,33.70229,-84.38496,
LARCENY-NON VEHICLE,181060519,04/16/2018,1275 CAROLINE ST NE @TARGET - CAROLINE,609,Edgewood,O,33.75674,-84.34619,
LARCENY-NON VEHICLE,181060809,04/16/2018,265 PEACHTREE CENTER AVE NE @MARIOTT MARQUIS,509,Downtown,M,33.76158,-84.38496,
LARCENY-NON VEHICLE,181060820,04/16/2018,209 MITCHELL ST SW,512,Downtown,M,33.75194,-84.39464,
LARCENY-NON VEHICLE,181060589,04/16/2018,4099 SUNSET DR SW,412,Ben Hill Terrace,P,33.69794,-84.52349,
LARCENY-NON VEHICLE,181060413,04/16/2018,186 RACINE ST SW,104,Mozley Park,K,33.75014,-84.44107,
LARCENY-NON VEHICLE,181060541,04/16/2018,1805 JONESBORO RD SE,307,Lakewood Heights,Y,33.70471,-84.37885,
LARCENY-NON VEHICLE,181061890,04/16/2018,441 16TH ST NW @IKEA,501,Atlantic Station,E,33.78874,-84.40468,
LARCENY-NON VEHICLE,181060771,04/16/2018,1235 CHATTAHOOCHEE AVE NW,204,Underwood Hills,D,33.80288,-84.42852,
LARCENY-NON VEHICLE,181061641,04/16/2018,255 COURTLAND ST NE @HILTON HOTEL,509,Downtown,M,33.76157,-84.38314,
LARCENY-NON VEHICLE,181061755,04/16/2018,2537 PIEDMONT RD NE,211,Lindbergh/Morosgo,B,33.82403,-84.36328,
LARCENY-NON VEHICLE,181068048,04/16/2018,S TERM @6000 S TERMINAL PKWY,704,,,33.63751,-84.44824,
