UC2_Literal,Report Number,Report Date,Location,Beat,Neigborhood,NPU,Lat,Long,
ROBBERY-PEDESTRIAN,153042748,10/31/2015,411 FLAT SHOALS AVE SE,606,East Atlanta,W,33.74253,-84.34852,
ROBBERY-PEDESTRIAN,153041625,10/31/2015,1754 HADLOCK ST SW,408,,R,33.70758,-84.44621,
ROBBERY-PEDESTRIAN,153042206,10/31/2015,126 JAMES P BRAWLEY DR NW,102,Vine City,L,33.75787,-84.41281,
ROBBERY-PEDESTRIAN,153040125,10/31/2015,426 TODD ST SE,604,Sweet Auburn,M,33.75183,-84.37294,
ROBBERY-COMMERCIAL,153040720,10/31/2015,2866 METROPOLITAN PKWY SW,311,Hammond Park,X,33.67677,-84.40829,
ROBBERY-PEDESTRIAN,153041959,10/31/2015,444 WINDSOR ST ,303,Mechanicsville,V,33.74275,-84.39808,
ROBBERY-PEDESTRIAN,153041365,10/31/2015,746 BECKWITH ST SW,101,Atlanta University Center,T,33.75204,-84.41209,
ROBBERY-COMMERCIAL,153040298,10/31/2015,3802 ROSWELL RD NE,209,East Chastain Park,B,33.85865,-84.38102,
ROBBERY-PEDESTRIAN,153040605,10/31/2015,1531 CAMPBELLTON RD NW,408,Venetian Hills,S,33.71334,-84.4387,
ROBBERY-COMMERCIAL,153041564,10/31/2015,231 18TH ST NW,501,Atlantic Station,E,33.79275,-84.39544,
AGG ASSAULT,153042791,10/31/2015,61 NORTH AVE NW ,505,Midtown,E,33.77138,-84.38943,
AGG ASSAULT,153040634,10/31/2015,1575 MORELAND AVE SE,607,Custer/McDonough/Guice,W,33.7118,-84.35004,
AGG ASSAULT,153040559,10/31/2015,620 PARKWAY DR NE,603,Old Fourth Ward,M,33.7714,-84.37313,
AGG ASSAULT,153042364,10/31/2015,1177 JOSEPH E BOONE BLVD NW,106,Bankhead,K,33.7636,-84.42619,
AGG ASSAULT,153041717,10/31/2015,2001 SYLVAN RD SW,306,Sylvan Hills,X,33.69981,-84.4184,
AGG ASSAULT,153042849,10/31/2015,1267 JOSEPH E BOONE BLVD NW,106,Bankhead,K,33.76398,-84.42895,
AGG ASSAULT,153040574,10/31/2015,196 WADLEY,108,Dixie Hills,J,33.7574,-84.45771,
BURGLARY-RESIDENCE,153043042,10/31/2015,479 WILLARD AVE SW,404,Westview,T,33.74202,-84.4369,
BURGLARY-RESIDENCE,153042734,10/31/2015,1770 MADRONA ST NW,107,Grove Park,J,33.77035,-84.44469,
BURGLARY-RESIDENCE,153042745,10/31/2015,1073 HOLLYWOOD RD NW,110,Almond Park,G,33.78421,-84.46026,
BURGLARY-RESIDENCE,153042673,10/31/2015,1614 PONTIAC PL SE,607,Custer/McDonough/Guice,W,33.71055,-84.35677,
BURGLARY-RESIDENCE,153041605,10/31/2015,149 WALTHALL ST SE,606,Reynoldstown,N,33.74968,-84.35187,
BURGLARY-RESIDENCE,153042361,10/31/2015,1871 PLAZA LN SW,410,Campbellton Road,R,33.70518,-84.45336,
BURGLARY-NONRES,153042935,10/31/2015,3722 ROSWELL RD NE,209,East Chastain Park,B,33.85684,-84.38236,
BURGLARY-NONRES,153042165,10/31/2015,890 CHATTAHOOCHEE AVE NW,203,Berkeley Park,D,33.79902,-84.41695,
BURGLARY-NONRES,153040817,10/31/2015,1455 ELLSWORTH INDUSTRIAL BLVD NW,203,Blandtown,D,33.79579,-84.42575,
BURGLARY-RESIDENCE,153042533,10/31/2015,2229 BURROUGHS AVE SE,310,Lakewood,Z,33.6933,-84.37148,
BURGLARY-RESIDENCE,153041973,10/31/2015,960 N HIGHLAND AVE NE,601,Virginia Highland,F,33.78082,-84.35403,
BURGLARY-RESIDENCE,153041465,10/31/2015,955 PALMETTO AVE SW,104,Ashview Heights,T,33.75196,-84.41885,
BURGLARY-RESIDENCE,153040941,10/31/2015,436 MACEDONIA RD SE,312,Orchard Knob,Z,33.66378,-84.37514,
LARCENY-NON VEHICLE,153041931,10/31/2015,3330 PIEDMONT RD NE @Multiple,208,Buckhead Forest,B,33.84564,-84.37462,
LARCENY-NON VEHICLE,153042487,10/31/2015,3393 PEACHTREE ROAD ,210,Lenox,B,33.84676,-84.36212,
LARCENY-NON VEHICLE,153041797,10/31/2015,2841 GREENBRIAR PKWY SW @Multiple,411,Greenbriar,R,33.68677,-84.49773,
LARCENY-NON VEHICLE,153041533,10/31/2015,1275 CAROLINE ST NE @TARGET - CAROLINE,609,Edgewood,O,33.75674,-84.34619,
LARCENY-NON VEHICLE,153041914,10/31/2015,2539 PIEDMONT ROAD,211,Lindbergh/Morosgo,B,33.82403,-84.36328,
LARCENY-FROM VEHICLE,153042754,10/31/2015,441 16TH ST NW @IKEA,501,Atlantic Station,E,33.78874,-84.40468,
LARCENY-FROM VEHICLE,153042700,10/31/2015,3833 PRINCETON LAKES CT SW,414,Princeton Lakes,P,33.65738,-84.51309,
LARCENY-FROM VEHICLE,153042807,10/31/2015,1807 VENETIAN DR SW,408,Venetian Hills,S,33.71494,-84.44696,
LARCENY-FROM VEHICLE,153042783,10/31/2015,4409 ROSWELL RD NE ,209,North Buckhead,B,33.87497,-84.38068,
LARCENY-FROM VEHICLE,153042829,10/31/2015,1740 DEFOOR PL NW,203,Underwood Hills,D,33.80272,-84.42158,
LARCENY-FROM VEHICLE,153040053,10/31/2015,510 COURTLAND ST NE,509,Downtown,M,33.76981,-84.38514,
LARCENY-FROM VEHICLE,153040356,10/31/2015,930 HOWELL MILL RD NW,501,Home Park,E,33.77987,-84.41063,
LARCENY-FROM VEHICLE,153040596,10/31/2015,734 JOSEPH E BOONE BLVD NW,102,Vine City,L,33.76334,-84.41155,
LARCENY-FROM VEHICLE,153040622,10/31/2015,248 TRINITY AVE SW,512,Downtown,M,33.75048,-84.39599,
LARCENY-FROM VEHICLE,153040638,10/31/2015,418 MARIETTA ST,508,Downtown,M,33.76462,-84.3976,
LARCENY-FROM VEHICLE,153041118,10/31/2015,271 GLEN IRIS DR NE,603,Old Fourth Ward,M,33.76193,-84.36741,
LARCENY-FROM VEHICLE,153041188,10/31/2015,123 WOODWARD AVE SE,605,Capitol Gateway,V,33.74552,-84.38289,
LARCENY-FROM VEHICLE,153041226,10/31/2015,378 MAPLE ST  NW,103,English Avenue,L,33.76481,-84.40542,
LARCENY-FROM VEHICLE,153041445,10/31/2015,1550 HOSEA L WILLIAMS DR NE @APS JACKSON HS,609,Edgewood,O,33.75416,-84.33731,
LARCENY-FROM VEHICLE,153041711,10/31/2015,300 WALKER ST SW,507,Castleberry Hill,M,33.7463,-84.40334,
LARCENY-FROM VEHICLE,153041828,10/31/2015,2143 PEACHTREE RD NE,207,,E,33.81262,-84.39195,
LARCENY-FROM VEHICLE,153042040,10/31/2015,268 PONCE DE LEON AVE NE,505,Midtown,E,33.77277,-84.37854,
LARCENY-FROM VEHICLE,153042353,10/31/2015,2975 HEADLAND DR SW @BIG LOTS - HEADLAND,411,Greenbriar,R,33.69168,-84.4872,
LARCENY-FROM VEHICLE,153040750,10/31/2015,1200 OAK ST SW,401,West End,T,33.74071,-84.4269,
LARCENY-FROM VEHICLE,153041081,10/31/2015,951 GLENWOOD AVE SE,607,Ormewood Park,W,33.73966,-84.35664,
LARCENY-FROM VEHICLE,153041024,10/31/2015,1607 S GORDON ST SW,404,Westview,T,33.73998,-84.44039,
LARCENY-FROM VEHICLE,153041649,10/31/2015,1080 EUCLID AVE NE,602,Inman Park,N,33.76359,-84.3517,
LARCENY-FROM VEHICLE,153041172,10/31/2015,100 10TH ST NE,503,Midtown,E,33.78179,-84.38378,
LARCENY-NON VEHICLE,153042952,10/31/2015,265 PEACHTREE ST NE @HYATT REGENCY HOTEL,509,Downtown,M,33.76152,-84.38672,
LARCENY-NON VEHICLE,153060903,10/31/2015,3393 PEACHTREE STREET,210,Loring Heights,D,33.79086,-84.40786,
LARCENY-NON VEHICLE,153040028,10/31/2015,1931 VELMA ST SE,308,Thomasville Heights,Z,33.70133,-84.35617,
LARCENY-NON VEHICLE,153042247,10/31/2015,2866 FORREST HILLS DR SW,311,Hammond Park,X,33.67725,-84.39889,
LARCENY-NON VEHICLE,153041788,10/31/2015,149 PEACHTREE CIR NE,502,Ansley Park,E,33.79333,-84.38388,
LARCENY-NON VEHICLE,153041106,10/31/2015,1634 LAKEWOOD AVE SE,307,Lakewood Heights,Y,33.70965,-84.37962,
AUTO THEFT,153042591,10/31/2015,2980 MIDDLETON RD NW,111,,I,33.75285,-84.48838,
AUTO THEFT,153042652,10/31/2015,580 W END PL SW,401,West End,T,33.7393,-84.42459,
AUTO THEFT,153040756,10/31/2015,PEACHTREE WALK NE / 12TH ST NE,503,Midtown,E,33.78431,-84.38307,
AUTO THEFT,153042895,10/31/2015,529 FLAT SHOALS AVE SE,612,East Atlanta,W,33.7398,-84.34511,
AUTO THEFT,153041517,10/31/2015,935 MARIETTA ST NW,504,Marietta Street Artery,E,33.7778,-84.40865,
AUTO THEFT,153030849,10/30/2015,490 MARIETTA ST NW,507,Downtown,M,33.76627,-84.39761,
AUTO THEFT,153030925,10/30/2015,2636 MARTIN L KING JR DR SW,405,Harland Terrace,I,33.75277,-84.47429,
AUTO THEFT,153030828,10/30/2015,1772 MELROSE DR SW,306,Sylvan Hills,X,33.70646,-84.41974,
AUTO THEFT,153038067,10/30/2015,4300 GLOBAL GATEWAY CONNECTOR GTWY,707,,,33.64801,-84.44474,
AUTO THEFT,153031931,10/30/2015,646 ROBERT ST NW,109,Center Hill,J,33.7727,-84.4726,
AUTO THEFT,153033032,10/30/2015,85 CLEVELAND AVE SW,312,Glenrose Heights,Z,33.68097,-84.38594,
AUTO THEFT,153031447,10/30/2015,3200 STONE RD SW,411,Greenbriar,R,33.6697,-84.49403,
AUTO THEFT,153031472,10/30/2015,2024 BRIAR TRAIL CT SW,412,Briar Glen,P,33.69675,-84.50208,
AUTO THEFT,153031547,10/30/2015,281 SEWANEE AVE NW,108,Dixie Hills,J,33.76093,-84.46467,
AUTO THEFT,153031559,10/30/2015,1955 DODSON DR SW,410,Campbellton Road,R,33.70146,-84.47616,
AUTO THEFT,153032271,10/30/2015,3715 NORTHSIDE PKWY NW,202,Mt. Paran/Northside,A,33.85557,-84.43152,
LARCENY-NON VEHICLE,153030186,10/30/2015,1263 GLENWOOD AVE SE,612,East Atlanta,W,33.73998,-84.34627,
LARCENY-NON VEHICLE,153031693,10/30/2015,1001 SAINT CHARLES AVE NE,601,Virginia Highland,F,33.77516,-84.35477,
LARCENY-NON VEHICLE,153031736,10/30/2015,565 MAIN ST NE,211,Lindbergh/Morosgo,B,33.82239,-84.36825,
LARCENY-NON VEHICLE,153031085,10/30/2015,3027 COLLIER DR NW,112,Collier Heights,I,33.76364,-84.48588,
LARCENY-NON VEHICLE,153032162,10/30/2015,2049 OAKVIEW RD SE,610,Kirkwood,O,33.74974,-84.32082,
LARCENY-NON VEHICLE,153032785,10/30/2015,3775 STAMFORD RD SW,407,Wisteria Gardens,H,33.75645,-84.51115,
LARCENY-NON VEHICLE,153031733,10/30/2015,1814 WOODCLIFFE TER NE,213,Morningside/Lenox Park,F,33.8042,-84.3583,
LARCENY-NON VEHICLE,153031687,10/30/2015,583 JUNIPER ST,509,Downtown,M,33.77128,-84.38344,
LARCENY-NON VEHICLE,153031598,10/30/2015,830 PRYOR ST SW,303,Mechanicsville,V,33.73206,-84.39343,
LARCENY-NON VEHICLE,153032504,10/30/2015,3061 MCMURRAY DR SW,409,Southwest,R,33.70307,-84.48803,
LARCENY-NON VEHICLE,153022532,10/30/2015,303 PEACHTREE CENTER AVE NE,509,Downtown,M,33.76289,-84.38589,
LARCENY-NON VEHICLE,153031413,10/30/2015,1825 MACARTHUR BLVD NW,203,Bolton,D,33.81406,-84.44758,
LARCENY-NON VEHICLE,153031325,10/30/2015,884 LAKE AVE NE,602,Inman Park,N,33.76117,-84.35879,
LARCENY-FROM VEHICLE,153033055,10/30/2015,3620 MARTIN L KING JR DR SW,407,Adamsville,H,33.76038,-84.50699,
LARCENY-FROM VEHICLE,153030526,10/30/2015,1021 PEACHTREE ST NE,503,Midtown,E,33.78257,-84.38311,
LARCENY-FROM VEHICLE,153033324,10/30/2015,500 PHARR RD NE,206,Buckhead Village,B,33.8371,-84.37185,
LARCENY-FROM VEHICLE,153032031,10/30/2015,840 MARIETTA ST NW,504,Marietta Street Artery,E,33.77522,-84.40691,
LARCENY-FROM VEHICLE,153033236,10/30/2015,172 HOWELL ST NE,604,Old Fourth Ward,M,33.75874,-84.37094,
LARCENY-FROM VEHICLE,153031240,10/30/2015,2611 SPRINGDALE RD SW,309,Perkerson,X,33.68326,-84.41554,
LARCENY-FROM VEHICLE,153031309,10/30/2015,664 MERCER ST SE,605,Grant Park,W,33.73607,-84.36571,
LARCENY-FROM VEHICLE,153031318,10/30/2015,1500 MARIETTA BLVD NW,203,Hills Park,D,33.79681,-84.4333,
LARCENY-FROM VEHICLE,153031324,10/30/2015,933 PEACHTREE ST NE,503,Midtown,E,33.77965,-84.3833,
LARCENY-FROM VEHICLE,153031399,10/30/2015,1654 S ALVARADO TER SW @APS CONNALLY ES,404,Cascade Avenue/Road,S,33.73112,-84.44125,
LARCENY-FROM VEHICLE,153031429,10/30/2015,329 MARIETTA ST NW,508,Downtown,M,33.7623,-84.39643,
LARCENY-FROM VEHICLE,153031545,10/30/2015,146 PEACHTREE CTR,508,Midtown,E,33.77381,-84.36897,
LARCENY-FROM VEHICLE,153033276,10/30/2015,695 NORTH AVE NE ,603,Old Fourth Ward,M,33.77073,-84.3645,
LARCENY-FROM VEHICLE,153031807,10/30/2015,437 MEMORIAL DR SE,605,Grant Park,W,33.74554,-84.37339,
LARCENY-FROM VEHICLE,153030871,10/30/2015,592 FLAT SHOALS AVE SE,612,East Atlanta,W,33.73833,-84.34275,
LARCENY-FROM VEHICLE,153032057,10/30/2015,3261 PEACHTREE RD NE,208,Peachtree Park,B,33.84347,-84.36951,
LARCENY-FROM VEHICLE,153032061,10/30/2015,3393 PEACHTREE RD NE,210,Lenox,B,33.84676,-84.36212,
LARCENY-FROM VEHICLE,153032177,10/30/2015,68 GRIFFON ST,102,Vine City,L,33.75615,-84.41187,
LARCENY-FROM VEHICLE,153032453,10/30/2015,401 WEST PEACHTREE ST NE,504,Downtown,M,33.7654,-84.3871,
LARCENY-FROM VEHICLE,153032642,10/30/2015,967 BRADY AVE NW,501,Home Park,E,33.78115,-84.41234,
LARCENY-FROM VEHICLE,153032736,10/30/2015,1625 MARTIN L KING JRDR,104,Mozley Park,K,33.75344,-84.44213,
LARCENY-FROM VEHICLE,153032995,10/30/2015,965 SELLS AVE SW,104,Harris Chiles,T,33.74601,-84.42093,
LARCENY-FROM VEHICLE,153032996,10/30/2015,878 RALPH D ABERNATHY BLVD SW,401,West End,T,33.73804,-84.41666,
LARCENY-FROM VEHICLE,153031746,10/30/2015,2609 SANTA BARBARA DR NW,112,Collier Heights,I,33.76556,-84.47305,
LARCENY-FROM VEHICLE,153030182,10/30/2015,31 BAKER ST NW,508,Downtown,M,33.76214,-84.38625,
LARCENY-FROM VEHICLE,153030450,10/30/2015,104 GRIFFIN ST NW,102,Vine City,L,33.75751,-84.41174,
LARCENY-FROM VEHICLE,153030490,10/30/2015,1983 HOWELL MILL RD NW,205,Channing Valley,C,33.80884,-84.41276,
LARCENY-NON VEHICLE,153032280,10/30/2015,2525 PIEDMONT RD NE @HOME DEPOT,211,Lindbergh/Morosgo,B,33.824,-84.36521,
LARCENY-NON VEHICLE,153032648,10/30/2015,3393 PEACHTREE RD NE,210,Lenox,B,33.84676,-84.36212,
LARCENY-NON VEHICLE,153032729,10/30/2015,3730 CARMIA DR SW @PUBLIX - CARMIA,414,Princeton Lakes,P,33.65573,-84.5109,
LARCENY-NON VEHICLE,153031496,10/30/2015,1801 HOWELL MILL RD NW,204,Berkeley Park,D,33.80388,-84.41278,
LARCENY-NON VEHICLE,153032827,10/30/2015,201 PEACHTREE ST NE,509,Downtown,M,33.75991,-84.38579,
LARCENY-NON VEHICLE,153038016,10/30/2015,8700 SPINE RD,703,,,33.64085,-84.43915,
LARCENY-NON VEHICLE,153031800,10/30/2015,3500 PEACHTREE RD NE,208,North Buckhead,B,33.85248,-84.36058,
LARCENY-NON VEHICLE,153032112,10/30/2015,375 18TH ST NW @TARGET - 18TH,501,Atlantic Station,E,33.79303,-84.39921,
LARCENY-NON VEHICLE,153031770,10/30/2015,1801 HOWELL MILL RD NW,204,Berkeley Park,D,33.80388,-84.41278,
LARCENY-NON VEHICLE,153030051,10/30/2015,3393 PEACHTREE RD ,206,Lenox,B,33.84676,-84.36212,
LARCENY-NON VEHICLE,153031923,10/30/2015,2636 MARTIN L KING JR DR SW,405,Harland Terrace,I,33.75277,-84.47429,
BURGLARY-NONRES,153030107,10/30/2015,1325 MOUNT PARAN RD NW ,202,Mt. Paran/Northside,A,33.87344,-84.42341,
BURGLARY-NONRES,153032536,10/30/2015,2865 DONALD LEE HOLLOWELL PKWY NW,113,Brookview Heights,G,33.78092,-84.48168,
BURGLARY-RESIDENCE,153031921,10/30/2015,2848 LENOX RD NE,210,Pine Hills,B,33.83218,-84.35679,
BURGLARY-RESIDENCE,153032344,10/30/2015,3108 ARBOR GATES DR NE,210,Pine Hills,B,33.82674,-84.35889,
BURGLARY-NONRES,153031356,10/30/2015,629 PAINES AVE NW,103,English Avenue,L,33.77187,-84.41425,
BURGLARY-RESIDENCE,153032071,10/30/2015,952 PALMETTO AVE SW,104,Ashview Heights,T,33.75163,-84.41866,
BURGLARY-RESIDENCE,153031676,10/30/2015,142 2ND AVE SE,611,East Lake,O,33.74856,-84.3095,
BURGLARY-RESIDENCE,153031557,10/30/2015,2809 WYNGATE DR NW,205,Wyngate,C,33.83163,-84.3991,
BURGLARY-RESIDENCE,153032092,10/30/2015,745 FLORENCE PL NW,110,Grove Park,J,33.77572,-84.44178,
BURGLARY-RESIDENCE,153032488,10/30/2015,49 HARLAN RD SW,405,Harland Terrace,I,33.75339,-84.4815,
AGG ASSAULT,153031452,10/30/2015,1058 RIDGE AVE SW,304,Peoplestown,V,33.7262,-84.39163,
AGG ASSAULT,153033399,10/30/2015,232 FORSYTH ST SW @GREYHOUND BUS DEPOT,512,Downtown,M,33.74852,-84.39636,
BURGLARY-RESIDENCE,153033264,10/30/2015,55 MAPLE ST NW,102,Vine City,L,33.75569,-84.40528,
BURGLARY-RESIDENCE,153032702,10/30/2015,600 MAYLAND AVE SW,302,Pittsburgh,V,33.72453,-84.4072,
BURGLARY-RESIDENCE,153031907,10/30/2015,1994 BENT CREEK WAY SW,410,Campbellton Road,R,33.7011,-84.46631,
ROBBERY-PEDESTRIAN,153032749,10/30/2015,188 NORTHSIDE DR SW,101,Castleberry Hill,M,33.74871,-84.40452,
AGG ASSAULT,153030362,10/30/2015,2980 DELMAR LN NW,111,,I,33.75517,-84.48481,
ROBBERY-PEDESTRIAN,153033086,10/30/2015,162 LINKWOOD RD NW,111,,I,33.75938,-84.48287,
ROBBERY-PEDESTRIAN,153032122,10/30/2015,48 BROAD STREET,511,Downtown,M,33.7521,-84.38955,
ROBBERY-PEDESTRIAN,153020406,10/29/2015,924 ALLENE AVE SW,301,Adair Park,V,33.72974,-84.41356,
ROBBERY-PEDESTRIAN,153023718,10/29/2015,2255 LENOX RD NE,213,Lindridge/Martin Manor,F,33.81631,-84.35188,
ROBBERY-PEDESTRIAN,153020238,10/29/2015,56 ALDEN AVE NW,207,Brookwood,E,33.79954,-84.39594,
ROBBERY-PEDESTRIAN,153020823,10/29/2015,2453 CORONET WAY NW,201,,C,33.8209,-84.44958,
ROBBERY-PEDESTRIAN,153021202,10/29/2015,2866 FORREST HILLS DR SW,311,Hammond Park,X,33.67725,-84.39889,
AGG ASSAULT,153013489,10/29/2015,3201 MARTIN L KING JR DR NW @GORDON VALLEY APTS,111,,I,33.75428,-84.49165,
AGG ASSAULT,153022426,10/29/2015,10 LINKWOOD RD NW,111,,I,33.75487,-84.48201,
AGG ASSAULT,153023286,10/29/2015,490 FAIRBURN RD SW,407,Fairburn Mays,H,33.74107,-84.50997,
ROBBERY-PEDESTRIAN,153023442,10/29/2015,3393 LENOX RD,210,Lenox,B,33.84676,-84.36212,
ROBBERY-PEDESTRIAN,153023586,10/29/2015,215 FORSYTH ST SW,512,Downtown,M,33.74892,-84.3968,
ROBBERY-PEDESTRIAN,153020040,10/29/2015,2025 MONROE DR NE,212,Piedmont Heights,F,33.80964,-84.37407,
ROBBERY-PEDESTRIAN,153021682,10/29/2015,333 EDGEWOOD AVE SE,604,Sweet Auburn,M,33.75415,-84.37675,
BURGLARY-RESIDENCE,153022911,10/29/2015,3601 NANCY CREEK RD NW,201,Paces,A,33.85345,-84.4411,
BURGLARY-RESIDENCE,153021587,10/29/2015,656 JETT ST NW,103,English Avenue,L,33.76703,-84.40897,
BURGLARY-RESIDENCE,153023299,10/29/2015,370 NORTHSIDE DR NW,103,English Avenue,L,33.76507,-84.4042,
BURGLARY-RESIDENCE,153023451,10/29/2015,1935 ALISON CT SW,410,Fort Valley,R,33.70055,-84.45149,
BURGLARY-RESIDENCE,153023672,10/29/2015,215 DOLLAR MILL RD SW,407,Boulder Park,H,33.74858,-84.52825,
BURGLARY-RESIDENCE,153023422,10/29/2015,3133 HICKMAN DR NW,111,,I,33.75489,-84.48948,
BURGLARY-RESIDENCE,153022472,10/29/2015,1729 PINE RIDGE DR NE,213,Morningside/Lenox Park,F,33.80232,-84.3604,
BURGLARY-RESIDENCE,153011738,10/29/2015,1102 LANIER BLVD ,601,Virginia Highland,F,33.78487,-84.3512,
AGG ASSAULT,153021633,10/29/2015,215 LAKEWOOD WAY SW @Multiple,307,Lakewood Heights,Y,33.70026,-84.3942,
AGG ASSAULT,153021488,10/29/2015,48 5TH ST,505,Carey Park,G,33.78632,-84.47084,
BURGLARY-RESIDENCE,153023160,10/29/2015,1005 BALDWIN ST SW,104,Ashview Heights,T,33.74647,-84.42057,
BURGLARY-RESIDENCE,153021217,10/29/2015,2308 EWING ST SW,413,Fairburn,P,33.6913,-84.51981,
BURGLARY-RESIDENCE,153021398,10/29/2015,950 NEW TOWN CIR SE;,308,Thomasville Heights,Z,33.70835,-84.35926,
BURGLARY-NONRES,153022271,10/29/2015,1506 HOWELL MILL RD NW,207,Berkeley Park,D,33.79593,-84.41609,
BURGLARY-RESIDENCE,153022055,10/29/2015,1074 ARLINGTON AVE SW,403,Oakland City,S,33.72289,-84.42337,
BURGLARY-NONRES,153021011,10/29/2015,79 MARIETTA ST NW,508,Downtown,M,33.75645,-84.39168,
LARCENY-NON VEHICLE,153021474,10/29/2015,230 CLEVELAND AVE SW ,311,Glenrose Heights,Z,33.68012,-84.39573,
LARCENY-NON VEHICLE,153023430,10/29/2015,3637 PEACHTREE RD NE,210,Lenox,B,33.85387,-84.35826,
LARCENY-NON VEHICLE,153021141,10/29/2015,2333 PEACHTREE RD NE,211,Peachtree Hills,B,33.81864,-84.38865,
LARCENY-NON VEHICLE,153023159,10/29/2015,1001 PONCE DE LEON AVE NE @PUBLIX - PONCE,602,Poncey-Highland,N,33.7734,-84.35467,
LARCENY-NON VEHICLE,153021077,10/29/2015,1545 NORTHSIDE DR NW,207,Loring Heights,E,33.79757,-84.40773,
LARCENY-NON VEHICLE,153021422,10/29/2015,1801 HOWELL MILL RD NW,204,Berkeley Park,D,33.80388,-84.41278,
LARCENY-NON VEHICLE,153021321,10/29/2015,807 CASCADE AVE SW,404,Cascade Avenue/Road,S,33.73323,-84.43795,
LARCENY-NON VEHICLE,153022524,10/29/2015,3050 MARTIN L KING JR DR SW,405,Harland Terrace,I,33.75177,-84.4857,
LARCENY-NON VEHICLE,153022718,10/29/2015,35 W PACES FERRY RD NW,206,South Tuxedo Park,B,33.83984,-84.38093,
LARCENY-FROM VEHICLE,153022178,10/29/2015,136 11TH ST NE,503,Midtown,E,33.78311,-84.38258,
LARCENY-FROM VEHICLE,153022222,10/29/2015,390 WILLIAMS ST,508,Downtown,M,33.76521,-84.39044,
LARCENY-FROM VEHICLE,153021341,10/29/2015,1148 AVON AVE SW,403,Oakland City,S,33.72199,-84.42555,
LARCENY-FROM VEHICLE,153022508,10/29/2015,1280 BEECHER ST SW,402,Oakland City,S,33.73301,-84.42954,
LARCENY-FROM VEHICLE,153023211,10/29/2015,2905 CAMPBELLTON RD SW,409,Southwest,R,33.69827,-84.48395,
LARCENY-FROM VEHICLE,153023364,10/29/2015,540 CAMERON M ALEXANDER BLVD NW,103,English Avenue,L,33.7681,-84.40515,
LARCENY-FROM VEHICLE,153023549,10/29/2015,3242 PEACHTREE RD NE,208,Buckhead Forest,B,33.84425,-84.37311,
LARCENY-FROM VEHICLE,153022440,10/29/2015,1000 MARIETTA ST NW,504,Marietta Street Artery,E,33.77914,-84.41116,
LARCENY-FROM VEHICLE,153021680,10/29/2015,285 MARIETTA ST,508,Downtown,M,33.76097,-84.3951,
LARCENY-FROM VEHICLE,153021782,10/29/2015,3080 CAMPBELLTON RD SW,409,Southwest,R,33.69418,-84.48823,
LARCENY-FROM VEHICLE,153022023,10/29/2015,360 MARIETTA ST NW,507,Downtown,M,33.76269,-84.39702,
LARCENY-FROM VEHICLE,153022058,10/29/2015,2975 HEADLAND DR SW @BIG LOTS - HEADLAND,411,Greenbriar,R,33.69168,-84.4872,
LARCENY-FROM VEHICLE,153022085,10/29/2015,679 GORDON PL SW,401,West End,T,33.73643,-84.41956,
LARCENY-FROM VEHICLE,153022099,10/29/2015,453 FREEDOM PKWY NE @CARTER CENTER,602,Poncey-Highland,N,33.76661,-84.35825,
LARCENY-FROM VEHICLE,153022119,10/29/2015,275 BAKER ST NW,508,Downtown,M,33.76206,-84.39568,
LARCENY-FROM VEHICLE,153021620,10/29/2015,50 MOUNT ZION RD SW,312,Glenrose Heights,Z,33.66982,-84.38995,
LARCENY-FROM VEHICLE,153021577,10/29/2015,125 WESLEY AVE NE,609,Edgewood,O,33.75708,-84.33724,
LARCENY-FROM VEHICLE,153020148,10/29/2015,433 HIGHLAND AVE NE,604,Old Fourth Ward,M,33.76101,-84.37345,
LARCENY-FROM VEHICLE,153020746,10/29/2015,2865 DIANA DR SW;,311,Hammond Park,X,33.67678,-84.41171,
LARCENY-FROM VEHICLE,153020762,10/29/2015,1298 EASTRIDGE RD SW,408,Venetian Hills,S,33.71982,-84.4447,
LARCENY-FROM VEHICLE,153020796,10/29/2015,1545 NORTHSIDE DR NW,207,Loring Heights,E,33.79757,-84.40773,
LARCENY-FROM VEHICLE,153021181,10/29/2015,1704 SANDTOWN RD SW,408,Venetian Hills,S,33.717,-84.44449,
LARCENY-FROM VEHICLE,153021264,10/29/2015,1540 ROGERS AVE SW,404,Westview,T,33.73702,-84.43807,
LARCENY-FROM VEHICLE,153021300,10/29/2015,826 MARIETTA ST NW,504,Marietta Street Artery,E,33.77477,-84.4067,
LARCENY-NON VEHICLE,153022264,10/29/2015,2625 PIEDMONT RD NE ,211,Lindbergh/Morosgo,B,33.82623,-84.36723,
LARCENY-FROM VEHICLE,153020794,10/29/2015,50 MORRIS BROWN DR SW,104,Just Us,T,33.75346,-84.42384,
LARCENY-FROM VEHICLE,153020728,10/29/2015,1956 E CEDAR LN SW,408,Venetian Hills,S,33.71164,-84.45302,
LARCENY-FROM VEHICLE,153020379,10/29/2015,975 WESTVIEW DR SW,104,Ashview Heights,T,33.74713,-84.41954,
LARCENY-FROM VEHICLE,153020733,10/29/2015,I-75-85 NB EXPY NE / EDGEWOOD AVE NE,510,Sweet Auburn,M,33.75437,-84.3783,
LARCENY-NON VEHICLE,153022902,10/29/2015,360 PONCE DE LEON AVE NE,506,Midtown,E,33.77241,-84.37548,
LARCENY-FROM VEHICLE,153011566,10/29/2015,2430 CHESHIRE BRIDGE RD NE,212,North Buckhead,B,33.86985,-84.38063,
LARCENY-FROM VEHICLE,153022891,10/29/2015,400 CENTRAL PARK PL NE,603,Old Fourth Ward,M,33.76522,-84.37805,
LARCENY-FROM VEHICLE,153023008,10/29/2015,943 HANK AARON DR SW,304,Peoplestown,V,33.72884,-84.38829,
LARCENY-FROM VEHICLE,153023668,10/29/2015,529 PEACHTREE ST NE,509,Downtown,M,33.76896,-84.38487,
LARCENY-FROM VEHICLE,153021123,10/29/2015,11 DELMOOR DR NW,111,,I,33.75594,-84.4894,
LARCENY-NON VEHICLE,153021221,10/29/2015,2245 RIDGEDALE RD NE,610,Kirkwood,O,33.75308,-84.31406,
LARCENY-NON VEHICLE,153022992,10/29/2015,1054 SEABOARD AVE NW,204,Underwood Hills,D,33.80856,-84.42227,
LARCENY-NON VEHICLE,153022958,10/29/2015,52 PEACHTREE ST NW,508,Downtown,M,33.75518,-84.38924,
LARCENY-NON VEHICLE,153021426,10/29/2015,3167 ROSWELL RD,202,Buckhead Forest,B,33.84156,-84.37857,
AUTO THEFT,153022047,10/29/2015,501 PULLIAM ST SW,303,Mechanicsville,V,33.74038,-84.39273,
AUTO THEFT,153022738,10/29/2015,136 11TH ST NE,503,Midtown,E,33.78311,-84.38258,
AUTO THEFT,153021393,10/29/2015,714 ERIN AVE SW,301,Capitol View,X,33.71927,-84.41105,
AUTO THEFT,153020492,10/29/2015,2423 MARTIN L KING JR DR NW,108,Florida Heights,I,33.75183,-84.46623,
AUTO THEFT,153021616,10/29/2015,20 GERTRUDE PL NW,110,Collier Heights,I,33.77743,-84.47815,
AUTO THEFT,153022093,10/29/2015,1275 CAROLINE ST NE ,609,Edgewood,O,33.75674,-84.34619,
AUTO THEFT,153020822,10/29/2015,820 W MARIETTA ST NW,103,English Avenue,L,33.78045,-84.41554,
AUTO THEFT,153023492,10/29/2015,1790 HOWELL MILL RD NW,205,Wildwood (NPU-C),C,33.80538,-84.41323,
AUTO THEFT,153020071,10/29/2015,970 SPRING ST NW,503,Midtown,E,33.78123,-84.38946,
AUTO THEFT,153023030,10/29/2015,839 PEGG RD SW,309,Perkerson,X,33.6895,-84.41638,
AUTO THEFT,153012533,10/28/2015,660 RALPH MCGILL BLVD NE,603,Old Fourth Ward,M,33.76462,-84.36561,
AUTO THEFT,153011531,10/28/2015,764 MURPHY AVE SW,301,Adair Park,V,33.73415,-84.4122,
AUTO THEFT,153012289,10/28/2015,1441 ELLSWORTH INDUSTRIAL BLVD NW,203,Blandtown,D,33.79499,-84.42576,
AUTO THEFT,153011322,10/28/2015,1977 MARTIN L KING JR DR NW,108,,I,33.75065,-84.44767,
AUTO THEFT,153011116,10/28/2015,720 FULTON INDUSTRIAL BLVD NW,114,Carroll Heights,H,33.77369,-84.51459,
LARCENY-NON VEHICLE,153012054,10/28/2015,150 10TH ST NE,503,Midtown,E,33.78185,-84.38199,
LARCENY-NON VEHICLE,153011187,10/28/2015,668 CASCADE AVE SW,402,West End,T,33.73706,-84.4355,
LARCENY-NON VEHICLE,153012269,10/28/2015,2350 CHESHIRE BRIDGE RD NE,212,Lindridge/Martin Manor,F,33.81914,-84.3515,
LARCENY-NON VEHICLE,153011703,10/28/2015,190 MARIETTA ST NW @CNN CENTER,507,Downtown,M,33.75757,-84.39487,
LARCENY-NON VEHICLE,153012391,10/28/2015,495 WIMBLEDON RD,213,Piedmont Heights,F,33.80656,-84.36741,
LARCENY-NON VEHICLE,153010555,10/28/2015,477 PEACHTREE ST NE,509,Downtown,M,33.76764,-84.38524,
LARCENY-NON VEHICLE,153012010,10/28/2015,560 BECKWITH CT SW,101,Atlanta University Center,T,33.75195,-84.40567,
LARCENY-FROM VEHICLE,153012468,10/28/2015,1150 COLLIER RD NW,204,Underwood Hills,D,33.81119,-84.42499,
LARCENY-FROM VEHICLE,153011227,10/28/2015,748 DONALD LEE HOLLOWELL PKWY NW,103,English Avenue,L,33.7728,-84.41168,
LARCENY-FROM VEHICLE,153013433,10/28/2015,79 MARIETTA ST NW,508,Downtown,M,33.75645,-84.39168,
LARCENY-FROM VEHICLE,153012636,10/28/2015,44 PRYOR ST SE,511,Downtown,M,33.75332,-84.38931,
LARCENY-FROM VEHICLE,153012825,10/28/2015,1371 KIMBERLY WAY SW,412,Ashley Courts,P,33.71771,-84.52315,
LARCENY-FROM VEHICLE,153010845,10/28/2015,3114 HICKMAN DR NW,111,,I,33.75423,-84.48889,
LARCENY-FROM VEHICLE,153011081,10/28/2015,2020 PEACHTREE ROAD,207,,E,33.80991,-84.39361,
LARCENY-FROM VEHICLE,153010747,10/28/2015,201 MOURY AVE SW,305,The Villages at Carver,Y,33.71691,-84.39276,
LARCENY-FROM VEHICLE,153011036,10/28/2015,3346 MARTIN L KING JR DR SW,407,Adamsville,H,33.75409,-84.49771,
LARCENY-FROM VEHICLE,153018049,10/28/2015,1270 WOOLMAN PLACE,701,,X,33.65383,-84.41966,
LARCENY-NON VEHICLE,153013544,10/28/2015,2900 PEACHTREE RD NW,206,Peachtree Heights West,B,33.83399,-84.3841,
LARCENY-NON VEHICLE,153011214,10/28/2015,70 CLAIRE DR SE @APS STADIUM BLDG,307,Lakewood Heights,Y,33.70524,-84.38593,
LARCENY-NON VEHICLE,153011595,10/28/2015,3450 BENJAMIN E MAYS DR SW @APS MAYS HS,407,Mays,H,33.73364,-84.50386,
LARCENY-NON VEHICLE,153012151,10/28/2015,970 FOREST OVERLOOK TRL SW,412,Midwest Cascade,Q,33.72372,-84.54499,
LARCENY-FROM VEHICLE,153013498,10/28/2015,555 WHITEHALL ST SW,303,Mechanicsville,V,33.74297,-84.40628,
LARCENY-FROM VEHICLE,153013438,10/28/2015,226 COURTLAND ST NE,509,Downtown,M,33.76051,-84.38429,
LARCENY-FROM VEHICLE,153012661,10/28/2015,880 GLENWOOD AVE SE,606,Grant Park,W,33.74058,-84.35903,
LARCENY-FROM VEHICLE,153013545,10/28/2015,1635 MORELAND AVE SE @FOXY LADY,607,Custer/McDonough/Guice,W,33.70941,-84.34994,
LARCENY-FROM VEHICLE,153012862,10/28/2015,829 JOSEPH E BOONE BLVD SW,102,English Avenue,L,33.76345,-84.41388,
LARCENY-FROM VEHICLE,153013021,10/28/2015,2125 NORTHSIDE DR NW @GRANT TENNIS CENTER,205,,C,33.81356,-84.40761,
LARCENY-FROM VEHICLE,153013203,10/28/2015,192 PEACHTREE CENTER AVE NE,510,Downtown,M,33.75942,-84.3865,
LARCENY-FROM VEHICLE,153013284,10/28/2015,300 PEACHTREE ST NE,508,Downtown,M,33.76293,-84.38714,
LARCENY-FROM VEHICLE,153013300,10/28/2015,893 PIEDMONT AVE NE,505,Midtown,E,33.77891,-84.38073,
LARCENY-FROM VEHICLE,153013420,10/28/2015,186 TUSKEGEE ST SE,304,Peoplestown,V,33.72876,-84.38177,
LARCENY-FROM VEHICLE,153012317,10/28/2015,3160 PANTHER TRL SW,409,Southwest,R,33.69801,-84.49146,
LARCENY-FROM VEHICLE,153012773,10/28/2015,349 DECATUR ST SE,604,Sweet Auburn,M,33.74993,-84.37706,
LARCENY-FROM VEHICLE,153011113,10/28/2015,3725 PRINCETON LAKES PKWY SW,414,Princeton Lakes,P,33.65777,-84.50877,
LARCENY-FROM VEHICLE,153010084,10/28/2015,370 NORTHSIDE DR NW,103,English Avenue,L,33.76527,-84.40498,
LARCENY-FROM VEHICLE,153010698,10/28/2015,1758 MARCEL AVE SW,408,,R,33.70825,-84.44561,
LARCENY-FROM VEHICLE,153010763,10/28/2015,1981 JOSEPH E BOONE BLVD NW,107,Grove Park,J,33.76486,-84.45174,
LARCENY-FROM VEHICLE,153011469,10/28/2015,711 COSMOPOLITAN DR NE,211,Lindbergh/Morosgo,B,33.82144,-84.36218,
LARCENY-FROM VEHICLE,153011606,10/28/2015,1029 MCDANIEL ST SW,302,Pittsburgh,V,33.72678,-84.4018,
LARCENY-FROM VEHICLE,153011691,10/28/2015,655 W PEACHTREE ST NE,505,Midtown,E,33.77263,-84.38723,
LARCENY-FROM VEHICLE,153011905,10/28/2015,840 MARIETTA ST NW,504,Marietta Street Artery,E,33.77522,-84.40691,
LARCENY-FROM VEHICLE,153011963,10/28/2015,441 16TH ST NW @IKEA,501,Atlantic Station,E,33.78874,-84.40468,
LARCENY-FROM VEHICLE,153011983,10/28/2015,267 MARIETTA ST NE,508,Downtown,M,33.76071,-84.39469,
LARCENY-FROM VEHICLE,153012231,10/28/2015,708 SPRING ST NW,505,Midtown,E,33.77402,-84.3892,
LARCENY-FROM VEHICLE,153012246,10/28/2015,3700 MARTIN L KING JR DR SW,407,Adamsville,H,33.76327,-84.5095,
LARCENY-FROM VEHICLE,153011008,10/28/2015,826 MARIETTA ST NW,504,Marietta Street Artery,E,33.77477,-84.4067,
LARCENY-FROM VEHICLE,153011075,10/28/2015,208 14TH ST NW,501,Home Park,E,33.78649,-84.3937,
LARCENY-NON VEHICLE,153011462,10/28/2015,2886 MEMORIAL DR SE ,611,East Lake,O,33.74741,-84.29245,
LARCENY-NON VEHICLE,153013154,10/28/2015,2539 PIEDMONT RD NE @TARGET - PIEDMONT,211,Lindbergh/Morosgo,B,33.82403,-84.36328,
LARCENY-NON VEHICLE,153012870,10/28/2015,2161 PIEDMONT RD NE,211,Lindridge/Martin Manor,F,33.81558,-84.366,
LARCENY-NON VEHICLE,153013301,10/28/2015,1145 RALPH D ABERNATHY BLVD SW,401,West End,T,33.73907,-84.42552,
BURGLARY-NONRES,153010661,10/28/2015,3072 EARLY ST NW,206,South Tuxedo Park,B,33.83999,-84.38076,
AGG ASSAULT,153010351,10/28/2015,49 BOULEVARD SE,604,,,16.61651,-41.80966,
AGG ASSAULT,153010516,10/28/2015,2025 PEACHTREE RD NE,207,,E,33.80958,-84.39294,
AGG ASSAULT,153012510,10/28/2015,1050 PONCE DE LEON AVE NE,601,Virginia Highland,F,33.77422,-84.353,
AGG ASSAULT,153013109,10/28/2015,396 RAWSON ST SW,303,Mechanicsville,V,33.74283,-84.40064,
AGG ASSAULT,153013162,10/28/2015,1717 CENTRA VILLA DR SW,409,Adams Park,R,33.70928,-84.45571,
BURGLARY-RESIDENCE,153012256,10/28/2015,270 HUNNICUTT ST NW,504,Downtown,M,33.76655,-84.39582,
BURGLARY-RESIDENCE,153012294,10/28/2015,1335 CASCADE FALLS DR SW,409,Cascade Heights,I,33.71873,-84.49562,
BURGLARY-RESIDENCE,153012364,10/28/2015,552 LOVEJOY ST NW,504,Downtown,M,33.76737,-84.39315,
BURGLARY-RESIDENCE,153012460,10/28/2015,990 ADA AVE NW,109,Almond Park,G,33.78173,-84.46553,
BURGLARY-RESIDENCE,153011234,10/28/2015,301 ORLEANS ST SE,605,Grant Park,W,33.73989,-84.37847,
BURGLARY-RESIDENCE,153011318,10/28/2015,1930 BROWNS MILL RD SE,307,Lakewood Heights,Y,33.70151,-84.37599,
BURGLARY-RESIDENCE,153011354,10/28/2015,3909 CAMPBELLTON RD SW,412,Kings Forest,P,33.6924,-84.51637,
BURGLARY-RESIDENCE,153011482,10/28/2015,596 JOSEPH E LOWERY BLVD NW,106,Bankhead,K,33.771,-84.41779,
BURGLARY-RESIDENCE,153011485,10/28/2015,2651 REX AVE SW,413,Rue Royal,P,33.68356,-84.50536,
BURGLARY-RESIDENCE,153011496,10/28/2015,1724 W SUSSEX RD NE,213,Morningside/Lenox Park,F,33.80185,-84.35313,
BURGLARY-RESIDENCE,153012901,10/28/2015,257 STOVALL ST SE,606,Reynoldstown,N,33.74694,-84.35457,
BURGLARY-RESIDENCE,153011637,10/28/2015,609 VIRGINIA AVE NE,601,Virginia Highland,F,33.78138,-84.36691,
BURGLARY-RESIDENCE,153010619,10/28/2015,180 JACKSON ST NE ,604,Sweet Auburn,M,33.75905,-84.37546,
BURGLARY-RESIDENCE,153010769,10/28/2015,2275 COUNTRY CLUB LN SW,409,Southwest,R,33.69367,-84.49633,
BURGLARY-RESIDENCE,153011016,10/28/2015,3615 STONE RD SW,414,Ben Hill Forest,P,33.67856,-84.50596,
AGG ASSAULT,153013490,10/28/2015,1752 HOLLYWOOD RD NW @APS SCOTT ES,113,Scotts Crossing,G,33.8034,-84.47106,
AGG ASSAULT,153010337,10/28/2015,I-75SB @ NORTHSIDE DR,207,,,16.61882,-41.81091,
ROBBERY-COMMERCIAL,153011500,10/28/2015,1850 DEKALB AVE,608,Lake Claire,N,33.76044,-84.327,
ROBBERY-PEDESTRIAN,153002303,10/27/2015,250 STAFFORD ST NW,105,Hunter Hills,K,33.76152,-84.42516,
AGG ASSAULT,153001906,10/27/2015,501 CONNELL AVE SW,309,Perkerson,X,33.68327,-84.40662,
ROBBERY-PEDESTRIAN,153002625,10/27/2015,1616 JOSEPH E BOONE BLVD NW,105,West Lake,J,33.76348,-84.44069,
ROBBERY-COMMERCIAL,153002096,10/27/2015,2685 METROPOLITAN PKWY SW,309,Perkerson,X,33.68274,-84.40902,
ROBBERY-PEDESTRIAN,153001417,10/27/2015,1624 PIEDMONT AVE,213,Piedmont Heights,F,33.79898,-84.36831,
ROBBERY-PEDESTRIAN,153001717,10/27/2015,3020 DELMAR LN NW,111,,I,33.75517,-84.48579,
BURGLARY-RESIDENCE,153002573,10/27/2015,1338 LOCKHAVEN CIR SW,408,Venetian Hills,S,33.7189,-84.44338,
BURGLARY-RESIDENCE,153002692,10/27/2015,510 CASANOVA ST SE,305,Chosewood Park,Y,33.71641,-84.3712,
BURGLARY-RESIDENCE,153002854,10/27/2015,84 VANNOY ST SE,609,Edgewood,O,33.75121,-84.3462,
BURGLARY-RESIDENCE,153002929,10/27/2015,1083 KIRKWOOD AVE SE,606,Reynoldstown,N,33.75,-84.35153,
AGG ASSAULT,153002804,10/27/2015,4215 BAKERS FERRY RD SW @APS MILES ES,407,Bakers Ferry,H,33.75566,-84.52587,
AGG ASSAULT,153000992,10/27/2015,2124 JAMES JACKSON PKWY NW,203,Whittier Mill Village,D,33.81397,-84.47772,
BURGLARY-NONRES,153001336,10/27/2015,785 PIEDMONT AVE NE,505,Midtown,E,33.77605,-84.38108,
BURGLARY-NONRES,153000668,10/27/2015,969 MARIETTA ST NW,504,Marietta Street Artery,E,33.77828,-84.4091,
BURGLARY-RESIDENCE,153000181,10/27/2015,3663 CROFT PL NW,114,Carroll Heights,H,33.7755,-84.50747,
LARCENY-NON VEHICLE,153003447,10/27/2015,536 NORTH AVE NE,603,Old Fourth Ward,M,33.77124,-84.36952,
BURGLARY-RESIDENCE,153001642,10/27/2015,914 STALLINGS AVE SE,612,East Atlanta,W,33.72915,-84.33327,
BURGLARY-RESIDENCE,153003283,10/27/2015,2232 DUNSEATH AVE NW,203,Bolton,D,33.81667,-84.4492,
LARCENY-NON VEHICLE,152992257,10/27/2015,2539 PIEDMONT RD,211,Lindbergh/Morosgo,B,33.82403,-84.36328,
LARCENY-NON VEHICLE,152992345,10/27/2015,2539 PIEDMONT ROAD,211,Lindbergh/Morosgo,B,33.82403,-84.36328,
LARCENY-NON VEHICLE,153001987,10/27/2015,2525 PIEDMONT RD NE @HOME DEPOT,211,Lindbergh/Morosgo,B,33.824,-84.36521,
LARCENY-NON VEHICLE,153001564,10/27/2015,50 LOWER ALABAMA ST SW,511,Downtown,M,33.75194,-84.38964,
LARCENY-NON VEHICLE,153001631,10/27/2015,1217 CAROLINE ST NE,609,Edgewood,O,33.75786,-84.34875,
LARCENY-NON VEHICLE,153003187,10/27/2015,3730 CARMIA DR SW @PUBLIX - CARMIA,414,Princeton Lakes,P,33.65573,-84.5109,
LARCENY-NON VEHICLE,153001711,10/27/2015,90 ALABAMA ST SW,511,Downtown,M,33.75274,-84.39086,
LARCENY-FROM VEHICLE,153003277,10/27/2015,1635 MORELAND AVE SE ,607,Custer/McDonough/Guice,W,33.70941,-84.34994,
LARCENY-FROM VEHICLE,153001986,10/27/2015,970 HUFF RD NW,203,Blandtown,D,33.78877,-84.41933,
LARCENY-FROM VEHICLE,153002813,10/27/2015,207 PEACHTREE CENTER AVE NE,509,Downtown,M,33.7602,-84.38554,
LARCENY-FROM VEHICLE,153003346,10/27/2015,620 ROSALIA ST SE,605,Grant Park,W,33.73909,-84.36732,
LARCENY-FROM VEHICLE,153001974,10/27/2015,319 PARK AVE SE,605,Grant Park,W,33.74597,-84.3698,
LARCENY-FROM VEHICLE,153003452,10/27/2015,180 NORTHSIDE DR SW @PASCHAL'S RESTAURANT,507,Castleberry Hill,M,33.74936,-84.40346,
LARCENY-FROM VEHICLE,153003498,10/27/2015,360 MARIETTA ST NW,507,Downtown,M,33.76269,-84.39702,
LARCENY-FROM VEHICLE,153003546,10/27/2015,3200 LENOX RD NE,210,Pine Hills,B,33.84293,-84.35825,
LARCENY-FROM VEHICLE,153000965,10/27/2015,1171 OAK ST SW,401,West End,T,33.74104,-84.42616,
LARCENY-FROM VEHICLE,153001194,10/27/2015,252 BANBERRY DR SE,310,Browns Mill Park,Z,33.68832,-84.38138,
LARCENY-FROM VEHICLE,153001395,10/27/2015,1095 ALTA AVE NE,602,Inman Park,N,33.76078,-84.35192,
LARCENY-FROM VEHICLE,153001510,10/27/2015,1195 RALPH D ABERNATHY BLVD SW,401,West End,T,33.73877,-84.42699,
LARCENY-FROM VEHICLE,153001591,10/27/2015,2160 HILLS AVE NW,204,Underwood Hills,D,33.81679,-84.43285,
LARCENY-FROM VEHICLE,153001805,10/27/2015,226 COURTLAND ST NE,508,Downtown,M,33.76051,-84.38429,
LARCENY-FROM VEHICLE,153001809,10/27/2015,207 PEACHTREE CTR,508,Downtown,M,33.7602,-84.38554,
LARCENY-FROM VEHICLE,153000797,10/27/2015,285 CENTENNIAL OLYMPIC P DR NW,508,Downtown,M,33.7626,-84.39146,
LARCENY-FROM VEHICLE,153002066,10/27/2015,1238 DEKALB AVE NE,608,Candler Park,N,33.76105,-84.34752,
LARCENY-FROM VEHICLE,153002085,10/27/2015,3755 CARMIA DR SW,414,Princeton Lakes,P,33.65571,-84.50908,
LARCENY-FROM VEHICLE,153002106,10/27/2015,250 GEORGIA AVE SE @GA HILL,605,Grant Park,W,33.73682,-84.37945,
LARCENY-FROM VEHICLE,153002149,10/27/2015,320 WILLIAMS ST,508,Downtown,M,33.76341,-84.39061,
LARCENY-FROM VEHICLE,153002194,10/27/2015,457 LUCKIE ST NW,504,Downtown,M,33.76728,-84.39584,
LARCENY-FROM VEHICLE,153002290,10/27/2015,1715 HOWELL MILL RD NW @HOWELL MILL SQUARE,204,Berkeley Park,D,33.80089,-84.4157,
LARCENY-FROM VEHICLE,153003451,10/27/2015,71 SHERIDAN DR NE,206,Garden Hills,B,33.83188,-84.38178,
LARCENY-FROM VEHICLE,153002418,10/27/2015,33 RANDOLPH ST NE,604,Old Fourth Ward,M,33.75519,-84.36768,
LARCENY-FROM VEHICLE,153001984,10/27/2015,1225 LOGAN CIR NW,204,Underwood Hills,D,33.80607,-84.42935,
LARCENY-FROM VEHICLE,153002856,10/27/2015,2143 PEACHTREE RD NE,207,,E,33.81262,-84.39195,
LARCENY-FROM VEHICLE,153002927,10/27/2015,351 MORELAND AVE NE,608,Candler Park,N,33.76393,-84.34873,
LARCENY-FROM VEHICLE,153002958,10/27/2015,3232 PIEDMONT RD,208,Buckhead Forest,B,33.84445,-84.37188,
LARCENY-FROM VEHICLE,153002976,10/27/2015,777 CLEVELAND AVE SW,309,Perkerson,X,33.68171,-84.41482,
LARCENY-FROM VEHICLE,153003091,10/27/2015,3393 PEACHTREE RD NE ,210,Lenox,B,33.84676,-84.36212,
LARCENY-FROM VEHICLE,153003170,10/27/2015,1676 DEFOOR CIR NW,204,Underwood Hills,D,33.80102,-84.42037,
LARCENY-FROM VEHICLE,153003236,10/27/2015,1860 PEACHTREE RD NW,207,Ardmore,E,33.80586,-84.39439,
LARCENY-FROM VEHICLE,153003247,10/27/2015,1231 GLENWOOD AVE SE,612,East Atlanta,W,33.73984,-84.34733,
LARCENY-FROM VEHICLE,153002412,10/27/2015,15 PEACHTREE ST SW,511,Downtown,M,33.75369,-84.39043,
LARCENY-FROM VEHICLE,153000873,10/27/2015,1306 SELLS AVE SW,401,West End,T,33.74505,-84.43044,
LARCENY-FROM VEHICLE,153000032,10/27/2015,623 MEAD ST SE,605,Grant Park,W,33.72741,-84.36711,
LARCENY-FROM VEHICLE,153000186,10/27/2015,768 MARIETTA ST NW,504,Marietta Street Artery,E,33.77331,-84.40403,
LARCENY-FROM VEHICLE,153000693,10/27/2015,1783 JOHNSON RD NW,110,Rockdale,G,33.78547,-84.44593,
LARCENY-FROM VEHICLE,153000899,10/27/2015,974 MATHEWS ST SW,401,West End,T,33.73453,-84.41978,
LARCENY-FROM VEHICLE,152963356,10/27/2015,188 VINE ST SW,101,Atlanta University Center,T,33.7496,-84.40778,
LARCENY-NON VEHICLE,153001762,10/27/2015,190 MARIETTA ST NW @CNN CENTER,507,Downtown,M,33.75757,-84.39487,
LARCENY-NON VEHICLE,153003152,10/27/2015,1195 MILTON TER SE,305,Chosewood Park,Y,33.72248,-84.38033,
LARCENY-NON VEHICLE,153002815,10/27/2015,887 W MARIETTA ST NW,103,English Avenue,L,33.78265,-84.41698,
LARCENY-NON VEHICLE,153001819,10/27/2015,1586 LANGSTON AVE SW,306,Sylvan Hills,X,33.71176,-84.42287,
LARCENY-NON VEHICLE,153001965,10/27/2015,1065 PEACHTREE ST NE,503,Midtown,E,33.78363,-84.38344,
LARCENY-NON VEHICLE,153001844,10/27/2015,3751 MARTIN L KING JR DR NW,114,Old Gordon,H,33.76749,-84.51004,
LARCENY-NON VEHICLE,153008035,10/27/2015,9700 SPINE RD,703,,,33.64065,-84.43591,
LARCENY-NON VEHICLE,153008026,10/27/2015,8700 SPINE RD,703,,,33.64085,-84.43915,
LARCENY-FROM VEHICLE,153001396,10/27/2015,1730 TAYLOR ST NW,204,Underwood Hills,D,33.80171,-84.42123,
LARCENY-FROM VEHICLE,153002742,10/27/2015,800 GREENWOOD AVE NE,601,Virginia Highland,F,33.77693,-84.36119,
LARCENY-FROM VEHICLE,153001671,10/27/2015,2505 FORREST PARK RD SE,308,Leila Valley,Z,33.68608,-84.36054,
LARCENY-FROM VEHICLE,153001944,10/27/2015,500 NORTHSIDE CIR NW,207,Loring Heights,E,33.79724,-84.40668,
LARCENY-NON VEHICLE,153001533,10/27/2015,1753 ELLEN ST NW,203,Hills Park,D,33.80315,-84.44486,
LARCENY-NON VEHICLE,153001219,10/27/2015,1888 HOLLYWOOD RD NW,203,Riverside,D,33.80726,-84.47158,
AUTO THEFT,153000259,10/27/2015,3465 NORTHSIDE PKWY NW,201,Randall Mill,A,33.84958,-84.42962,
AUTO THEFT,153001049,10/27/2015,2021 MARTIN L KING JR DR NW,108,,I,33.75035,-84.45218,
AUTO THEFT,153001825,10/27/2015,228 WHITAKER CIR NW,108,Dixie Hills,J,33.76207,-84.44538,
AUTO THEFT,153000758,10/27/2015,2453 CORONET WAY NW,201,,C,33.8209,-84.44958,
AUTO THEFT,153001113,10/27/2015,987 HILBURN DR SE,612,East Atlanta,W,33.72745,-84.32765,
AUTO THEFT,153002851,10/27/2015,3657 MARTIN L KING JR DR NW,111,Adamsville,H,33.76208,-84.5076,
AUTO THEFT,153003342,10/27/2015,617 SEMINOLE AVE NE,602,Poncey-Highland,N,33.77131,-84.35065,
AUTO THEFT,153003158,10/27/2015,2453 CORONET WAY NW,201,,C,33.8209,-84.44958,
AUTO THEFT,153002934,10/27/2015,1313 SYLVAN RD SW,301,Capitol View,X,33.71923,-84.41898,
AUTO THEFT,153002443,10/27/2015,675 W PEACHTREE ST NE,505,Midtown,E,33.773,-84.38723,
AUTO THEFT,153001643,10/27/2015,50 MOUNT ZION RD SE;,312,Glenrose Heights,Z,33.67286,-84.38706,
AUTO THEFT,153001421,10/27/2015,2175 PIEDMONT RD NE,211,Lindridge/Martin Manor,F,33.81716,-84.36632,
AUTO THEFT,153001573,10/27/2015,1611 PERRY BLVD NW,110,Rockdale,G,33.79067,-84.44065,
AUTO THEFT,153000803,10/27/2015,437 HOLDERNESS ST SW,401,West End,T,33.74318,-84.42739,
AUTO THEFT,152990652,10/26/2015,1371 KIMBERLY WAY SW,412,Ashley Courts,P,33.71771,-84.52315,
AUTO THEFT,152990350,10/26/2015,1059 OGLETHORPE AVE SW @ABERNATHY TOWER,401,West End,T,33.73619,-84.42234,
AUTO THEFT,152991495,10/26/2015,1510 ELLSWORTH INDUSTRIAL BLVD NW,203,Blandtown,D,33.79625,-84.42787,
AUTO THEFT,152990293,10/26/2015,643 GRADY PL SW,402,West End,T,33.73754,-84.4268,
AUTO THEFT,152992042,10/26/2015,1330 SPRING ST NW,502,Midtown,E,33.7908,-84.38939,
AUTO THEFT,152990764,10/26/2015,1720 MARIETTA BLVD NW,203,Hills Park,D,33.80169,-84.43644,
AUTO THEFT,152991468,10/26/2015,152 LUCKIE ST NW ,508,Downtown,M,33.75869,-84.39147,
AUTO THEFT,152991897,10/26/2015,405 FAIRBURN RD SW,407,Wildwood (NPU-H),H,33.74367,-84.50959,
AUTO THEFT,152991563,10/26/2015,3620 MARTIN L KING JR DR SW,407,Adamsville,H,33.76038,-84.50699,
AUTO THEFT,152992913,10/26/2015,414 WESTCHESTER BLVD NW,107,Grove Park,J,33.7662,-84.45408,
AUTO THEFT,152990906,10/26/2015,1227 AVON AVE SW,403,Oakland City,S,33.72252,-84.42812,
LARCENY-NON VEHICLE,152992946,10/26/2015,980 NORTHSIDE DR NW,501,Home Park,E,33.78106,-84.40757,
LARCENY-NON VEHICLE,152992549,10/26/2015,1621 AVON AVE SW,403,Cascade Avenue/Road,S,33.72276,-84.44084,
LARCENY-NON VEHICLE,153001880,10/26/2015,651 14TH ST NW,501,Home Park,E,33.78624,-84.4089,
LARCENY-NON VEHICLE,152990101,10/26/2015,491 LINDBERGH PL NE,211,Lindbergh/Morosgo,B,33.81947,-84.37115,
LARCENY-NON VEHICLE,152990583,10/26/2015,1770 RICHMOND CIR SE,307,Lakewood Heights,Y,33.70695,-84.37414,
LARCENY-NON VEHICLE,152991899,10/26/2015,3076 MAPLE DR NE,206,Buckhead Village,B,33.83906,-84.37213,
LARCENY-FROM VEHICLE,152992499,10/26/2015,330 TANNER ST SE ,604,Sweet Auburn,M,33.75375,-84.37646,
LARCENY-FROM VEHICLE,152991076,10/26/2015,1470 BOLTON RD NW,114,Atlanta Industrial Park,G,33.79583,-84.49216,
LARCENY-FROM VEHICLE,152990922,10/26/2015,437 HARPER RD SE,310,Lakewood,Z,33.69667,-84.3749,
LARCENY-NON VEHICLE,152992075,10/26/2015,800 FORREST ST NW,207,Berkeley Park,D,33.79583,-84.41412,
LARCENY-FROM VEHICLE,152998049,10/26/2015,1340 NORTH LOOP RD,701,,,33.65491,-84.43521,
LARCENY-FROM VEHICLE,152992775,10/26/2015,365 CLEVELAND AVE SE @SOUTHEAST ATLANTA,312,Rosedale Heights,Z,33.67953,-84.37899,
LARCENY-NON VEHICLE,152992914,10/26/2015,41 IRBY AVE NW,206,South Tuxedo Park,B,33.84152,-84.38026,
LARCENY-NON VEHICLE,152992968,10/26/2015,1240 PRINCESS AVE SW,403,Oakland City,S,33.72084,-84.42529,
LARCENY-NON VEHICLE,152991860,10/26/2015,3860 CAMP CREEK PKWY SW,414,Ben Hill,P,33.65643,-84.5164,
LARCENY-FROM VEHICLE,152990460,10/26/2015,1919 METROPOLITAN PKWY SW,306,Sylvan Hills,X,33.70278,-84.41017,
LARCENY-FROM VEHICLE,152990693,10/26/2015,265 PONCE DE LEON AVE NE,505,Midtown,E,33.77206,-84.37869,
LARCENY-FROM VEHICLE,152990767,10/26/2015,1552 SARAH M HARDEN DR SW,408,Venetian Hills,S,33.71324,-84.44046,
LARCENY-FROM VEHICLE,152990769,10/26/2015,690 GRADY PL SW,402,West End,T,33.73619,-84.42636,
LARCENY-FROM VEHICLE,152990889,10/26/2015,949 BEECHER ST SW,401,West End,T,33.73364,-84.4189,
LARCENY-FROM VEHICLE,152993091,10/26/2015,2128 BELVEDERE DR NW,205,Springlake,C,33.81351,-84.41308,
LARCENY-FROM VEHICLE,152993128,10/26/2015,939 GRESS AVE SE,605,Grant Park,W,33.72887,-84.36648,
LARCENY-FROM VEHICLE,152993136,10/26/2015,801 GLENWOOD AVE SE ,605,Grant Park,W,33.73958,-84.36161,
LARCENY-FROM VEHICLE,152993238,10/26/2015,263 PETERS ST SW,507,Castleberry Hill,M,33.74732,-84.40198,
LARCENY-FROM VEHICLE,152990939,10/26/2015,1255 ALLENE AVE SW,301,Capitol View,X,33.72066,-84.41311,
LARCENY-FROM VEHICLE,152991349,10/26/2015,745 TRABERT AVE NW,207,Berkeley Park,D,33.79554,-84.41241,
LARCENY-FROM VEHICLE,152992931,10/26/2015,965 SELLS AVE SW,104,Harris Chiles,T,33.74601,-84.42093,
LARCENY-FROM VEHICLE,152991436,10/26/2015,1000 MARIETTA ST NW,504,Marietta Street Artery,E,33.77914,-84.41116,
LARCENY-FROM VEHICLE,152991437,10/26/2015,888 3RD ST NW,504,Marietta Street Artery,E,33.77918,-84.40915,
LARCENY-FROM VEHICLE,152991474,10/26/2015,955 VIOLET ST SE,304,Peoplestown,V,33.72834,-84.38437,
LARCENY-FROM VEHICLE,152991645,10/26/2015,4279 ROSWELL ROAD,209,North Buckhead,B,33.87145,-84.38094,
LARCENY-FROM VEHICLE,152991656,10/26/2015,690 11TH ST NW,501,Home Park,E,33.78267,-84.40983,
LARCENY-FROM VEHICLE,152991670,10/26/2015,125 SIMPSON ST NW ,508,Downtown,M,33.76353,-84.3914,
LARCENY-FROM VEHICLE,152993090,10/26/2015,465 MEMORIAL DR SE,605,Grant Park,W,33.74651,-84.37221,
LARCENY-FROM VEHICLE,152991836,10/26/2015,275 BAKER ST NW,508,Downtown,M,33.76206,-84.39568,
LARCENY-FROM VEHICLE,152993042,10/26/2015,134 GASLIGHT LN NW,108,Dixie Hills,J,33.75771,-84.46634,
LARCENY-FROM VEHICLE,152991986,10/26/2015,480 CLIFTON ST SE @APS BURG-PETER ES,612,East Atlanta,W,33.74074,-84.33166,
LARCENY-FROM VEHICLE,152992076,10/26/2015,907 MARIETTA ST NW,504,Marietta Street Artery,E,33.77714,-84.40791,
LARCENY-FROM VEHICLE,152992123,10/26/2015,1185 WILLIAMS ST NW,502,Midtown,E,33.78694,-84.39014,
LARCENY-FROM VEHICLE,152992478,10/26/2015,3131 CAMPBELLTON RD SW @WESTGATE PLAZA,409,Southwest,R,33.69258,-84.49266,
LARCENY-FROM VEHICLE,152992589,10/26/2015,88 SIMPSON ST NW,508,Downtown,M,33.76319,-84.3903,
LARCENY-FROM VEHICLE,152992725,10/26/2015,344 TED TURNER DR NW,508,Downtown,M,33.7639,-84.38909,
LARCENY-FROM VEHICLE,152992923,10/26/2015,1676 DEFOOR CIR NW,204,Underwood Hills,D,33.80102,-84.42037,
LARCENY-FROM VEHICLE,152991932,10/26/2015,59 SIMPSON ST NW,508,Downtown,M,33.7635,-84.38968,
LARCENY-FROM VEHICLE,152991265,10/26/2015,1625 MARTIN LUTHER KING JR DR SW,104,Mozley Park,K,33.75344,-84.44213,
LARCENY-FROM VEHICLE,152991675,10/26/2015,1450 RALPH D ABERNATHY BLVD SW,404,Westview,T,33.74116,-84.43595,
LARCENY-NON VEHICLE,152992339,10/26/2015,1275 CAROLINE ST NE @TARGET - CAROLINE,609,Edgewood,O,33.75674,-84.34619,
LARCENY-NON VEHICLE,152992551,10/26/2015,2539 PIEDMONT RD NE @TARGET - PIEDMONT,211,Lindbergh/Morosgo,B,33.82403,-84.36328,
LARCENY-NON VEHICLE,152991591,10/26/2015,2001 JAMES JACKSON PKWY NW,203,Riverside,D,33.81063,-84.47569,
LARCENY-NON VEHICLE,152991648,10/26/2015,835 MARTIN L KING JR DR NW,102,Vine City,L,33.75504,-84.41457,
BURGLARY-RESIDENCE,152990013,10/26/2015,301 CENTRAL PARK PL NE,604,Old Fourth Ward,M,33.76291,-84.37795,
BURGLARY-RESIDENCE,152991682,10/26/2015,1731 BRAEBURN DR SE,612,East Atlanta,W,33.73479,-84.33103,
BURGLARY-RESIDENCE,152992808,10/26/2015,107 SEWANEE AVE NW,108,Dixie Hills,J,33.75592,-84.46475,
BURGLARY-RESIDENCE,152991273,10/26/2015,143 BURBANK DR NW,105,Hunter Hills,K,33.75906,-84.42907,
BURGLARY-RESIDENCE,152992407,10/26/2015,3200 LENOX RD NE,210,Pine Hills,B,33.84293,-84.35825,
BURGLARY-RESIDENCE,152991657,10/26/2015,626 DEKALB AVE SE,604,Old Fourth Ward,M,33.75283,-84.36687,
BURGLARY-RESIDENCE,152992225,10/26/2015,3111 LONE OAK AVE SW,312,Glenrose Heights,Z,33.66969,-84.39485,
BURGLARY-RESIDENCE,152992201,10/26/2015,1184 EGGLESTON ST SW,401,West End,T,33.73958,-84.42657,
BURGLARY-NONRES,152990561,10/26/2015,2274 PEACHTREE RD NW,205,,C,33.81652,-84.39021,
BURGLARY-NONRES,152990555,10/26/2015,2280 PEACHTREE RD NW,205,,C,33.81685,-84.39065,
BURGLARY-NONRES,152990450,10/26/2015,809 RALPH D ABERNATHY BLVD SW,401,West End,T,33.73833,-84.41451,
BURGLARY-NONRES,152990773,10/26/2015,2120 FORREST PARK RD SE,308,Norwood Manor,Z,33.69489,-84.36001,
BURGLARY-RESIDENCE,152991863,10/26/2015,3540 N CAMP CREEK PKWY SW,414,,P,33.67051,-84.50299,
AGG ASSAULT,152991539,10/26/2015,3663 CROFT PL NW,114,Carroll Heights,H,33.7755,-84.50747,
AGG ASSAULT,152990232,10/26/2015,902 DILL AVE SW,301,Capitol View,X,33.71831,-84.41807,
AGG ASSAULT,152993170,10/26/2015,2347 CLARISSA DR NW,110,Carver Hills,G,33.79756,-84.45794,
AGG ASSAULT,152990658,10/26/2015,438 VINE ST NW,103,English Avenue,L,33.76666,-84.40784,
AGG ASSAULT,152990434,10/26/2015,2025 PEACHTREE RD NE @DARLINGTON APARTMEN,207,,E,33.80965,-84.39144,
BURGLARY-RESIDENCE,152991416,10/26/2015,3065 BROWNS MILL RD SE,312,Glenrose Heights,Z,33.67107,-84.3824,
BURGLARY-RESIDENCE,152991070,10/26/2015,870 MAYSON TURNER RD NW,102,Vine City,L,33.756,-84.41629,
BURGLARY-RESIDENCE,152990721,10/26/2015,3123 HICKMAN DR NW,111,,I,33.75459,-84.48906,
ROBBERY-PEDESTRIAN,152991855,10/26/2015,2 JOSEPH E LOWERY BLVD NW,105,Washington Park,K,33.75491,-84.41773,
ROBBERY-PEDESTRIAN,152993240,10/26/2015,275 PRYOR ST SW,512,Downtown,M,33.74839,-84.39544,
AGG ASSAULT,152990242,10/26/2015,1411 BOULEVARDSE,305,Chosewood Park,Y,33.71577,-84.36885,
AGG ASSAULT,152991744,10/26/2015,1146 IRA ST SW,302,Pittsburgh,V,33.72366,-84.39981,
ROBBERY-PEDESTRIAN,152992974,10/26/2015,110 E ANDREWS DR NW @CATES CENTER SHOPPI,206,South Tuxedo Park,B,33.84286,-84.38266,
ROBBERY-PEDESTRIAN,152993244,10/26/2015,896 PROCTOR ST NW,103,English Avenue,L,33.76488,-84.41698,
ROBBERY-PEDESTRIAN,152982666,10/25/2015,711 CELESTE LN SW,407,Mays,H,33.74273,-84.50597,
ROBBERY-PEDESTRIAN,152981944,10/25/2015,58 BRADLEY ST SE,604,Old Fourth Ward,M,33.75274,-84.3687,
ROBBERY-PEDESTRIAN,152981079,10/25/2015,2158 BELVEDERE DR NW,205,Springlake,C,33.8144,-84.41271,
ROBBERY-PEDESTRIAN,152982047,10/25/2015,806 BARNETT ST NE,601,Virginia Highland,F,33.77656,-84.35881,
ROBBERY-PEDESTRIAN,152982278,10/25/2015,2362 SPRINGDALE CIR SW,309,Perkerson,X,33.69021,-84.41527,
ROBBERY-PEDESTRIAN,152982614,10/25/2015,49 BOULEVARD NE,604,Sweet Auburn,M,33.75253,-84.3721,
ROBBERY-PEDESTRIAN,152981316,10/25/2015,25 BRADLEY ST SE,604,Old Fourth Ward,M,33.75383,-84.36894,
ROBBERY-PEDESTRIAN,152981191,10/25/2015,76 HARPER RD SE,310,Swallow Circle/Baywood,Z,33.69644,-84.38544,
ROBBERY-COMMERCIAL,152982458,10/25/2015,3721 CAMPBELLTON RD SW ,412,Ben Hill Acres,P,33.69136,-84.51037,
ROBBERY-PEDESTRIAN,152981545,10/25/2015,2980 JONESBORO RD SE,313,South River Gardens,Z,33.67248,-84.36806,
ROBBERY-PEDESTRIAN,152981098,10/25/2015,1710 DEFOOR AVE NW,204,Underwood Hills,D,33.8014,-84.42002,
ROBBERY-PEDESTRIAN,152980367,10/25/2015,150 BELL ST SE,604,Sweet Auburn,M,33.75043,-84.37928,
AGG ASSAULT,152982028,10/25/2015,3160 GREENBRIAR PKWY SW,411,Greenbriar,R,33.68593,-84.49685,
AGG ASSAULT,152981487,10/25/2015,720 FULTON INDUSTRIAL BLVD NW,114,Carroll Heights,H,33.77385,-84.51514,
AGG ASSAULT,152982635,10/25/2015,250 AUBURN AVE NE @ODD FELLOWS BUILDIN,510,Downtown,M,33.75575,-84.37958,
ROBBERY-PEDESTRIAN,152981518,10/25/2015,2020 CHARLOTTE PL NW,107,Grove Park,J,33.77059,-84.45048,
ROBBERY-PEDESTRIAN,152981563,10/25/2015,1901 HOLLYWOOD RD,203,Scotts Crossing,G,33.80519,-84.46945,
BURGLARY-RESIDENCE,152982384,10/25/2015,3460 KINGSBORO RD NE,210,Buckhead Heights,B,33.85019,-84.35765,
BURGLARY-RESIDENCE,152982046,10/25/2015,185 MONTAG CIR NE,602,Inman Park,N,33.76013,-84.36218,
BURGLARY-RESIDENCE,152980359,10/25/2015,370 NORTHSIDE DR NW,103,The Villages at Castleberry Hill,T,33.74481,-84.40779,
BURGLARY-RESIDENCE,152981184,10/25/2015,1213 HIGHTOWER RD NW,113,Carey Park,G,33.78834,-84.47019,
BURGLARY-RESIDENCE,152981188,10/25/2015,853 HALL ST NW,109,Center Hill,J,33.77829,-84.46578,
BURGLARY-RESIDENCE,152981525,10/25/2015,2670 SHARONDALE DR NE,206,Garden Hills,B,33.82757,-84.37067,
BURGLARY-RESIDENCE,152981558,10/25/2015,2494 BELLVIEW AVE NW,109,Center Hill,J,33.77645,-84.46884,
BURGLARY-RESIDENCE,152980271,10/25/2015,1481 ALMONT DR SW,403,Oakland City,S,33.72531,-84.43672,
BURGLARY-RESIDENCE,152980790,10/25/2015,927 REBEL FOREST DR SE,308,Rebel Valley Forest,Z,33.68776,-84.35924,
BURGLARY-RESIDENCE,152980262,10/25/2015,370 NORTHSIDE DR NW,103,English Avenue,L,33.76507,-84.4042,
BURGLARY-RESIDENCE,152981754,10/25/2015,880 WESTMONT RD SW,402,Oakland City,S,33.73123,-84.43716,
AGG ASSAULT,152981937,10/25/2015,1032 BOWEN CT SW,305,High Point,Y,33.71732,-84.39588,
AGG ASSAULT,152980069,10/25/2015,193 MATHEWSON PL SW,104,Mozley Park,K,33.74995,-84.43644,
AGG ASSAULT,152980174,10/25/2015,1355 BOULEVARD LORRAINE SW,409,Adams Park,R,33.71896,-84.45851,
AGG ASSAULT,152982154,10/25/2015,2396 ABNER PL NW,110,Carver Hills,G,33.80102,-84.46562,
AGG ASSAULT,152982370,10/25/2015,894 HALL ST NW,109,Center Hill,J,33.77952,-84.46611,
AGG ASSAULT,152981733,10/25/2015,30 IVAN ALLEN JR BLVD NW,508,Downtown,M,33.76444,-84.3884,
BURGLARY-NONRES,152981041,10/25/2015,1265 LEE ST SW,403,Oakland City,S,33.72061,-84.42456,
BURGLARY-NONRES,152982443,10/25/2015,2244 BOLLINGBROOK DR SW,406,Beecher Hills,I,33.73497,-84.46257,
BURGLARY-RESIDENCE,152981308,10/25/2015,1629 DEFOORS WALK NW,204,Underwood Hills,D,33.80778,-84.42604,
BURGLARY-RESIDENCE,152980637,10/25/2015,2430 CHESHIRE BRIDGE RD NE,212,Lindridge/Martin Manor,F,33.82149,-84.35161,
BURGLARY-NONRES,152980802,10/25/2015,1512 PIEDMONT AVE NE,213,Piedmont Heights,F,33.79619,-84.37048,
LARCENY-NON VEHICLE,152981909,10/25/2015,123 BROMACK DR SE,310,Browns Mill Park,Z,33.68876,-84.38648,
LARCENY-NON VEHICLE,152982207,10/25/2015,2555 BOLTON RD NW ,201,,C,33.82028,-84.45188,
LARCENY-NON VEHICLE,152982473,10/25/2015,2018 BOLTON RD NW,203,Whittier Mill Village,D,33.81116,-84.47703,
LARCENY-NON VEHICLE,152982415,10/25/2015,1801 HOWELL MILL RD NW,204,Berkeley Park,D,33.80388,-84.41278,
LARCENY-NON VEHICLE,152981923,10/25/2015,835 MARTIN L KING JR DR NW,102,Vine City,L,33.75504,-84.41457,
LARCENY-NON VEHICLE,152972839,10/25/2015,590 CASCADE AVE SW,402,West End,T,33.73812,-84.43276,
LARCENY-NON VEHICLE,152981544,10/25/2015,305 JOSEPH E LOWERY BLVD NW,102,Vine City,L,33.763,-84.41736,
LARCENY-NON VEHICLE,152982276,10/25/2015,2615 DONALD LEE HOLLOWELL PKWY NW,109,Center Hill,J,33.7762,-84.47236,
LARCENY-FROM VEHICLE,152982123,10/25/2015,683 PRYOR ST SW,303,Mechanicsville,V,33.73616,-84.39495,
LARCENY-FROM VEHICLE,152980324,10/25/2015,671 SPRING ST NW,505,Midtown,E,33.773,-84.38843,
LARCENY-FROM VEHICLE,152980263,10/25/2015,881 PEACHTREE ST,505,Midtown,E,33.77866,-84.38386,
LARCENY-FROM VEHICLE,152972622,10/25/2015,1109 FAIR ST SW,104,Ashview Heights,T,33.74928,-84.42398,
LARCENY-FROM VEHICLE,152982190,10/25/2015,782 PONCE DE LEON AVE NE,601,Virginia Highland,F,33.77412,-84.36179,
LARCENY-FROM VEHICLE,152981437,10/25/2015,800 MARIETTA ST NW,504,Marietta Street Artery,E,33.77381,-84.40575,
LARCENY-FROM VEHICLE,152981490,10/25/2015,464 LAWTON ST SW,401,West End,T,33.74238,-84.42322,
LARCENY-FROM VEHICLE,152981524,10/25/2015,329 MARIETTA ST,508,Downtown,M,33.7623,-84.39643,
LARCENY-FROM VEHICLE,152981618,10/25/2015,600 MEANS ST NW,504,Marietta Street Artery,E,33.77451,-84.40731,
LARCENY-FROM VEHICLE,152981654,10/25/2015,1005 BALDWIN ST SW,104,Ashview Heights,T,33.74693,-84.42038,
LARCENY-FROM VEHICLE,152981719,10/25/2015,123 MARIETTA ST NW,508,Downtown,M,33.75767,-84.39266,
LARCENY-FROM VEHICLE,152981808,10/25/2015,360 MARIETTA ST NW,507,Downtown,M,33.76269,-84.39702,
LARCENY-FROM VEHICLE,152972863,10/25/2015,2 COPENHILL AVE NE,602,Inman Park,N,33.7635,-84.35734,
LARCENY-FROM VEHICLE,152982152,10/25/2015,4472 CAMPBELLTON RD SW,413,Elmco Estates,P,33.69572,-84.53464,
LARCENY-FROM VEHICLE,152981269,10/25/2015,1005 ALLOWAY PL SE,607,Ormewood Park,W,33.72677,-84.35614,
LARCENY-FROM VEHICLE,152982543,10/25/2015,1267 JOSEPH E BOONE BLVD NW,106,Bankhead,K,33.76398,-84.42895,
LARCENY-FROM VEHICLE,152982564,10/25/2015,1600 ELLSWORTH INDUSTRIAL BLVD NW,203,Blandtown,D,33.79826,-84.42811,
LARCENY-FROM VEHICLE,152980054,10/25/2015,893 W PEACHTREE ST NE,505,Midtown,E,33.77898,-84.38717,
LARCENY-FROM VEHICLE,152980060,10/25/2015,3565 MARTIN L KING JR DR NW ,407,Adamsville,H,33.7601,-84.50466,
LARCENY-FROM VEHICLE,152980119,10/25/2015,1700 HOWELL MILL ROAD NW,204,Berkeley Park,D,33.80047,-84.41593,
LARCENY-FROM VEHICLE,152980152,10/25/2015,1156 ALTA AVE NE,602,Inman Park,N,33.76093,-84.34996,
LARCENY-FROM VEHICLE,152980206,10/25/2015,1065 WASHITA AVE NE,602,Inman Park,N,33.76352,-84.353,
LARCENY-FROM VEHICLE,152980244,10/25/2015,1510 ELLSWORTH INDUSTRIAL BLVD NW,203,Blandtown,D,33.79625,-84.42787,
LARCENY-FROM VEHICLE,152981385,10/25/2015,98 ANDERSON AVE NW @ANDERSON PARK,108,Dixie Hills,J,33.75633,-84.45114,
LARCENY-FROM VEHICLE,152980323,10/25/2015,522 LARKIN ST SW,507,Castleberry Hill,M,33.74783,-84.4047,
LARCENY-FROM VEHICLE,152981378,10/25/2015,3455 MARTIN L KING JR DR NW,111,Adamsville,H,33.75643,-84.5006,
LARCENY-FROM VEHICLE,152980392,10/25/2015,1629 MAY AVE SE,612,East Atlanta,W,33.73873,-84.33446,
LARCENY-FROM VEHICLE,152980524,10/25/2015,223 PARKER ST NW,504,Downtown,M,33.76594,-84.39744,
LARCENY-FROM VEHICLE,152980563,10/25/2015,3160 PEACHTREE RD NW,206,Buckhead Village,B,33.84064,-84.37653,
LARCENY-FROM VEHICLE,152980793,10/25/2015,741 EDGEWOOD AVE NE ,602,Inman Park,N,33.75488,-84.36296,
LARCENY-FROM VEHICLE,152980847,10/25/2015,15 WALL ST SE,511,Downtown,M,33.75359,-84.38986,
LARCENY-FROM VEHICLE,152980947,10/25/2015,150 PINE ST NW,504,Downtown,M,33.76771,-84.39218,
LARCENY-FROM VEHICLE,152981242,10/25/2015,840 MARIETTA ST NW,504,Marietta Street Artery,E,33.77522,-84.40691,
LARCENY-NON VEHICLE,152982636,10/25/2015,718 PONCE DE LEON AVE NE,603,Old Fourth Ward,M,33.77118,-84.37177,
LARCENY-NON VEHICLE,152981973,10/25/2015,2685 METROPOLITAN PKWY SW,309,Perkerson,X,33.68274,-84.40902,
LARCENY-NON VEHICLE,152980274,10/25/2015,208 10TH ST NE,503,Midtown,E,33.78186,-84.38077,
LARCENY-FROM VEHICLE,152981499,10/25/2015,50 MOUNT ZION RD SW,312,Glenrose Heights,Z,33.67273,-84.39067,
LARCENY-FROM VEHICLE,152980197,10/25/2015,2460 MARTIN L KING JR DR SW,405,Harland Terrace,I,33.75187,-84.46781,
LARCENY-NON VEHICLE,152981217,10/25/2015,58 NORTH AVE NE,505,Midtown,E,33.77138,-84.38536,
LARCENY-NON VEHICLE,152981404,10/25/2015,3201 MARTIN L KING JR DR NW @GORDON VALLEY APTS,111,,I,33.75428,-84.49165,
LARCENY-NON VEHICLE,152981949,10/25/2015,65 ALABAMA ST SW @UNDERGROUND ATLANTA,511,Downtown,M,33.75258,-84.38992,
AUTO THEFT,152980003,10/25/2015,1790 HOWELL MILL RD NW,204,Underwood Hills,D,33.80352,-84.41455,
AUTO THEFT,152980327,10/25/2015,450 STONEWALL ST SW,507,Castleberry Hill,M,33.74942,-84.40228,
AUTO THEFT,152980360,10/25/2015,1176 CHATTAHOOCHEE AVE NW,203,Blandtown,D,33.80058,-84.42561,
AUTO THEFT,152981797,10/25/2015,1919 METROPOLITAN PKWY SW,306,Sylvan Hills,X,33.70278,-84.41017,
AUTO THEFT,152982128,10/25/2015,1272 METROPOLITAN AVE SE,612,East Atlanta,W,33.74253,-84.34604,
AUTO THEFT,152982583,10/25/2015,160 JOHN WESLEY DOBBS AVE NE,510,Downtown,M,33.75734,-84.38256,
AUTO THEFT,152971053,10/24/2015,412 SAWTELL AVE SE,307,Lakewood Heights,Y,33.70822,-84.37541,
AUTO THEFT,152971252,10/24/2015,I-75-85 NB EXPY SW / I-20 EB EXPY SW,304,Summerhill,V,33.74485,-84.39005,
AUTO THEFT,152972602,10/24/2015,1941 FORT VALLEY DR SW,410,Pomona Park,R,33.70204,-84.44972,
AUTO THEFT,152972573,10/24/2015,1395 MORELAND AVE SE,607,Custer/McDonough/Guice,W,33.71645,-84.34999,
AUTO THEFT,152971463,10/24/2015,1974 THOMASVILLE ESTATES DR SE,308,Norwood Manor,Z,33.69378,-84.35526,
AUTO THEFT,152971897,10/24/2015,450 FAIRBURN RD SW,407,Fairburn Mays,H,33.74276,-84.50984,
AUTO THEFT,152971855,10/24/2015,850 OAK ST SW @WESTEND MALL,401,West End,T,33.74053,-84.41671,
AUTO THEFT,152971842,10/24/2015,46 WALL ST SE,511,Downtown,M,33.75312,-84.38876,
AUTO THEFT,152971738,10/24/2015,589 SEMINOLE AVE NE,602,Poncey-Highland,N,33.7706,-84.35033,
AUTO THEFT,152971272,10/24/2015,935 DECKNER AVE SW,306,Sylvan Hills,X,33.71406,-84.4188,
AUTO THEFT,152971260,10/24/2015,3200 LENOX RD NE,210,Pine Hills,B,33.84293,-84.35825,
AUTO THEFT,152971183,10/24/2015,742 HOLMES ST NW,207,Berkeley Park,D,33.79929,-84.41275,
AUTO THEFT,152971123,10/24/2015,1530 WOODBINE AVE SE @COAN PARK,610,Kirkwood,O,33.75192,-84.3365,
AUTO THEFT,152971294,10/24/2015,200 PEYTON PL SW,405,Harland Terrace,I,33.74956,-84.4742,
AUTO THEFT,152970988,10/24/2015,3200 STONE RD,411,Greenbriar,R,33.66937,-84.49371,
LARCENY-NON VEHICLE,152971657,10/24/2015,438 SUTHERLAND PL NE,608,Lake Claire,N,33.76252,-84.3247,
LARCENY-NON VEHICLE,152970063,10/24/2015,450 CAPITOL AVE SE @CARTER HALL,304,Summerhill,V,33.74229,-84.38686,
LARCENY-NON VEHICLE,152971276,10/24/2015,553 E WESLEY ROAD,206,Garden Hills,B,33.82954,-84.369,
LARCENY-NON VEHICLE,152972623,10/24/2015,1305 OAKLAND DR SW,403,Oakland City,S,33.71978,-84.42758,
LARCENY-NON VEHICLE,152971998,10/24/2015,211 ARTHUR LANGFORD JR PL SW,305,High Point,Y,33.71451,-84.39479,
LARCENY-NON VEHICLE,152972029,10/24/2015,2240 PEACHTREE RD NW,205,,C,33.81559,-84.39129,
LARCENY-NON VEHICLE,152970212,10/24/2015,92 W PACES FERRY RD NW,206,Peachtree Heights West,B,33.84097,-84.38381,
LARCENY-NON VEHICLE,152970914,10/24/2015,519 MAGNOLIA ST NW,102,Vine City,L,33.75819,-84.40454,
LARCENY-NON VEHICLE,152973000,10/24/2015,1631 STANTON RD SW,408,,R,33.71001,-84.445,
LARCENY-NON VEHICLE,152963246,10/24/2015,356 ALTOONA PL SW,401,Westview,T,33.74548,-84.43485,
LARCENY-NON VEHICLE,152971514,10/24/2015,231 18TH ST NW,501,Atlantic Station,E,33.79249,-84.3954,
LARCENY-NON VEHICLE,152952211,10/24/2015,2848 LENOX RD NE,210,Pine Hills,B,33.83197,-84.35754,
LARCENY-NON VEHICLE,152971474,10/24/2015,4191 RANDALL CT NW,202,Mt. Paran/Northside,A,33.86952,-84.43017,
LARCENY-FROM VEHICLE,152970318,10/24/2015,516 MAGNOLIA ST NW,102,Vine City,L,33.75794,-84.40449,
LARCENY-FROM VEHICLE,152971969,10/24/2015,3024 DONALD LEE HOLLOWELL PKWY NW,112,Collier Heights,I,33.78267,-84.48733,
LARCENY-NON VEHICLE,152970744,10/24/2015,43 JESSIE HILL JR DR NE,506,Downtown,M,33.75582,-84.38013,
LARCENY-NON VEHICLE,152971265,10/24/2015,2725 TUPELO ST SE,611,East Lake,O,33.74868,-84.29784,
LARCENY-FROM VEHICLE,152972311,10/24/2015,856 MONROE DR,506,Midtown,E,33.77789,-84.37022,
LARCENY-FROM VEHICLE,152970575,10/24/2015,430 MCAFEE ST NW,504,Downtown,M,33.76572,-84.39468,
LARCENY-FROM VEHICLE,152972974,10/24/2015,2143 PEACHTREE RD NE,207,,E,33.81262,-84.39195,
LARCENY-FROM VEHICLE,152973032,10/24/2015,602 HIGHLAND AVE NE,604,Old Fourth Ward,M,33.76133,-84.36553,
LARCENY-FROM VEHICLE,152971997,10/24/2015,2 PEACHTREE ST SW,511,Downtown,M,33.75409,-84.39054,
LARCENY-FROM VEHICLE,152972004,10/24/2015,1555 VENETIAN DR SW,408,Venetian Hills,S,33.71478,-84.43949,
LARCENY-FROM VEHICLE,152972009,10/24/2015,2125 NORTHSIDE DR NW,205,,C,33.81356,-84.40761,
LARCENY-FROM VEHICLE,152972081,10/24/2015,490 WHITEHALL ST SW,507,Castleberry Hill,M,33.74348,-84.40341,
LARCENY-FROM VEHICLE,152972218,10/24/2015,120 ANDERSON AVE NW,108,Dixie Hills,J,33.75734,-84.45478,
LARCENY-FROM VEHICLE,152972385,10/24/2015,420 LOVEJOY STREET NW,504,Downtown,M,33.76606,-84.39315,
LARCENY-FROM VEHICLE,152972408,10/24/2015,188 VINE ST SW,101,Atlanta University Center,T,33.7496,-84.40778,
LARCENY-FROM VEHICLE,152973069,10/24/2015,49 JAMES P BRAWLEY DR NW ,102,English Avenue,L,33.76691,-84.41238,
LARCENY-FROM VEHICLE,152972608,10/24/2015,486 LAWTON ST SW,401,West End,T,33.74179,-84.42317,
LARCENY-FROM VEHICLE,152971815,10/24/2015,304 OAKLAND AVE SE,605,Grant Park,W,33.74638,-84.37466,
LARCENY-FROM VEHICLE,152972628,10/24/2015,60 SUNSET AVE NW ,102,Vine City,L,33.75588,-84.41042,
LARCENY-FROM VEHICLE,152972650,10/24/2015,1062 WESTVIEW DR SW,104,West End,T,33.74696,-84.42343,
LARCENY-FROM VEHICLE,152972752,10/24/2015,1725 RICHLAND RD SW,404,Cascade Avenue/Road,S,33.73168,-84.44422,
LARCENY-FROM VEHICLE,152972859,10/24/2015,900 CAMILLA ST SW,104,Ashview Heights,T,33.75031,-84.41777,
LARCENY-FROM VEHICLE,152970934,10/24/2015,390 STOVALL ST SE,606,Ormewood Park,W,33.7436,-84.35429,
LARCENY-FROM VEHICLE,152971032,10/24/2015,673 SPRING ST NW,505,Midtown,E,33.773,-84.38872,
LARCENY-FROM VEHICLE,152971064,10/24/2015,15 PEACHTREE ST SW,511,Downtown,M,33.75369,-84.39043,
LARCENY-FROM VEHICLE,152971144,10/24/2015,1885 JONESBORO RD SE,307,Lakewood Heights,Y,33.7032,-84.37701,
LARCENY-FROM VEHICLE,152971169,10/24/2015,100 LUCKIE ST NW,508,Downtown,M,33.7573,-84.38992,
LARCENY-FROM VEHICLE,152971208,10/24/2015,2500 CENTER ST NW,113,Carey Park,G,33.78999,-84.47156,
LARCENY-FROM VEHICLE,152971322,10/24/2015,619 MYRTLE ST NE,505,Midtown,E,33.77154,-84.38024,
LARCENY-FROM VEHICLE,152971957,10/24/2015,2591 ETHERIDGE DR NW,113,Carey Park,G,33.7881,-84.47292,
LARCENY-FROM VEHICLE,152971473,10/24/2015,15 PEACHTREE ST,505,Downtown,M,33.75399,-84.38986,
LARCENY-FROM VEHICLE,152971915,10/24/2015,634 WHITEHALL ST SW,303,Adair Park,V,33.74179,-84.40844,
LARCENY-FROM VEHICLE,152971600,10/24/2015,1919 METROPOLITAN PKWY SW,306,Sylvan Hills,X,33.70278,-84.41017,
LARCENY-FROM VEHICLE,152971640,10/24/2015,2975 HEADLAND DR SW,411,Greenbriar,R,33.69168,-84.4872,
LARCENY-FROM VEHICLE,152971697,10/24/2015,715 WOODSON ST SE,605,Grant Park,W,33.73507,-84.37937,
LARCENY-FROM VEHICLE,152971709,10/24/2015,1270 TACOMA DR NW,203,Blandtown,D,33.7939,-84.43082,
LARCENY-FROM VEHICLE,152971712,10/24/2015,1950 BOLTON RD NW,203,Whittier Mill Village,D,33.80962,-84.47925,
LARCENY-FROM VEHICLE,152971720,10/24/2015,850 OAK ST SW,401,West End,T,33.74057,-84.4168,
LARCENY-FROM VEHICLE,152971729,10/24/2015,1798 JOHNSON RD NW,110,Rockdale,G,33.78532,-84.44623,
LARCENY-FROM VEHICLE,152973116,10/24/2015,2143 PEACHTREE RD NE,207,,E,33.81262,-84.39195,
LARCENY-FROM VEHICLE,152971459,10/24/2015,3460 JONESBORO RD SE @SOUTHSIDE PARK,313,South River Gardens,Z,33.66161,-84.36649,
LARCENY-FROM VEHICLE,152973131,10/24/2015,3228 TELFORD TER SW,414,Princeton Lakes,P,33.66552,-84.51444,
LARCENY-FROM VEHICLE,152970846,10/24/2015,2979 CAMPBELLTON RD SW,409,Southwest,R,33.6967,-84.4857,
LARCENY-FROM VEHICLE,152970803,10/24/2015,1436 CONNALLY AVE SW,403,Oakland City,S,33.71592,-84.42942,
LARCENY-FROM VEHICLE,152972481,10/24/2015,191 LAWTON ST SW,104,Ashview Heights,T,33.74952,-84.42349,
LARCENY-FROM VEHICLE,152963580,10/24/2015,2484 BAKER RD NW,109,Center Hill,J,33.76936,-84.46855,
LARCENY-FROM VEHICLE,152970230,10/24/2015,226 COURTLAND ST,509,Downtown,M,33.76051,-84.38429,
LARCENY-FROM VEHICLE,152970458,10/24/2015,464 EDGEWOOD AVE NE,604,Sweet Auburn,M,33.75448,-84.37234,
LARCENY-FROM VEHICLE,152970536,10/24/2015,479 NORTHSIDE DR NW,103,English Avenue,L,33.76756,-84.40431,
LARCENY-FROM VEHICLE,152971521,10/24/2015,75 MARTIN L KING JR DR SW,511,Downtown,M,33.75119,-84.38996,
LARCENY-NON VEHICLE,152971495,10/24/2015,650 PONCE DE LEON AVE NE,506,Midtown,E,33.77352,-84.36667,
LARCENY-NON VEHICLE,152972447,10/24/2015,1801 HOWELL MILL RD NW,204,Berkeley Park,D,33.80388,-84.41278,
LARCENY-NON VEHICLE,152972598,10/24/2015,1371 MARKET ST,501,Atlantic Station,E,33.79282,-84.39779,
LARCENY-NON VEHICLE,152971766,10/24/2015,2350 CHESHIRE BRIDGE RD NE,212,Lindridge/Martin Manor,F,33.8195,-84.35199,
LARCENY-NON VEHICLE,152970647,10/24/2015,2075 ALISON CT SW,410,Campbellton Road,R,33.70105,-84.45656,
LARCENY-NON VEHICLE,152972284,10/24/2015,54  PEACHTREE ST SW,511,Downtown,M,33.75286,-84.3912,
BURGLARY-RESIDENCE,152972864,10/24/2015,1483 ARTHUR LANGFORD JR PL SW,307,Joyland,Y,33.71097,-84.39789,
BURGLARY-RESIDENCE,152972936,10/24/2015,1620 HOLLYWOOD RD NW,113,Scotts Crossing,G,33.79988,-84.47023,
BURGLARY-NONRES,152970902,10/24/2015,1341 METROPOLITAN PKWY SW,301,Capitol View,X,33.71805,-84.40809,
BURGLARY-NONRES,152970781,10/24/2015,1750 COMMERCE DRIVE NW ,204,Berkeley Park,D,33.80285,-84.41169,
BURGLARY-NONRES,152971420,10/24/2015,199 CLEVELAND AVE SW,310,Browns Mill Park,Z,33.68142,-84.39555,
BURGLARY-RESIDENCE,152970895,10/24/2015,143 LE CONTE HWY SW,407,Bakers Ferry,H,33.75321,-84.53304,
AGG ASSAULT,152971442,10/24/2015,259 RICHARDSON ST SW,303,Mechanicsville,V,33.74116,-84.39741,
AGG ASSAULT,152970704,10/24/2015,135 ANDREW YOUNG INTERNATIONAL BLVD NW,508,Downtown,M,33.76002,-84.39178,
AGG ASSAULT,152972248,10/24/2015,785 MAGNOLIA WAY NW,102,Vine City,L,33.75823,-84.41379,
BURGLARY-RESIDENCE,152973038,10/24/2015,369 MCDANIEL ST SW,101,The Villages at Castleberry Hill,T,33.74505,-84.40523,
BURGLARY-RESIDENCE,152971686,10/24/2015,1075 PEACHTREE WALK NE,503,Midtown,E,33.78436,-84.38617,
BURGLARY-RESIDENCE,152972978,10/24/2015,1401 ROME DR NW,105,Hunter Hills,K,33.76333,-84.43369,
BURGLARY-RESIDENCE,152971388,10/24/2015,3378 GREENBRIAR PKWY SW,413,,P,33.68299,-84.50129,
BURGLARY-RESIDENCE,152971524,10/24/2015,161 KIRKWOOD RD NE,610,Kirkwood,O,33.7568,-84.32147,
BURGLARY-RESIDENCE,152972074,10/24/2015,600 GREENSFERRY AVE SW,101,The Villages at Castleberry Hill,T,33.74662,-84.40755,
BURGLARY-RESIDENCE,152971956,10/24/2015,2599 BROWNS MILL RD SE,310,Browns Mill Park,Z,33.68393,-84.38215,
BURGLARY-RESIDENCE,152970545,10/24/2015,870 MAYSON TURNER RD NW,102,Vine City,L,33.756,-84.41629,
BURGLARY-RESIDENCE,152972606,10/24/2015,1483 ARTHUR LANGFORD JR PL SW,307,Joyland,Y,33.71097,-84.39789,
BURGLARY-RESIDENCE,152972930,10/24/2015,896 EDEN AVE SE,607,Ormewood Park,W,33.73035,-84.35853,
BURGLARY-RESIDENCE,152972343,10/24/2015,385 LEGACY DR SW,104,Harris Chiles,T,33.74494,-84.41937,
BURGLARY-RESIDENCE,152970142,10/24/2015,870 MAYSON TURNER RD NW,102,Vine City,L,33.756,-84.41629,
BURGLARY-RESIDENCE,152972392,10/24/2015,370 NORTHSIDE DR NW,103,English Avenue,L,33.76507,-84.4042,
BURGLARY-RESIDENCE,152972468,10/24/2015,565 GREENSFERRY AVE SW,101,The Villages at Castleberry Hill,T,33.74651,-84.40675,
ROBBERY-PEDESTRIAN,152970537,10/24/2015,1563 PAXON ST SE,610,Kirkwood,O,33.75036,-84.33629,
ROBBERY-PEDESTRIAN,152972937,10/24/2015,271 17TH ST NW,501,Atlantic Station,E,33.79154,-84.39555,
AGG ASSAULT,152972744,10/24/2015,764 CASCADE AVE SW,402,West End,T,33.73446,-84.43665,
AGG ASSAULT,152971283,10/24/2015,61 ELLIOTT ST SW,507,Castleberry Hill,M,33.75299,-84.39847,
AGG ASSAULT,152972007,10/24/2015,1933  BAKER RD NW,107,Grove Park,J,33.77114,-84.45022,
AGG ASSAULT,152970175,10/24/2015,1460 BOULEVARD SE,607,Benteen Park,W,33.71437,-84.36832,
AGG ASSAULT,152971625,10/24/2015,1754 RICHMOND CIR,307,Lakewood Heights,Y,33.70698,-84.3745,
ROBBERY-PEDESTRIAN,152970578,10/24/2015,1190 METROPOLITAN PKWY SW,302,Pittsburgh,V,33.72254,-84.40759,
ROBBERY-PEDESTRIAN,152972657,10/24/2015,2312 POLAR ROCK TER,310,Polar Rock,Z,33.68978,-84.3961,
ROBBERY-PEDESTRIAN,152972756,10/24/2015,101 MARIETTA ST NW,508,Downtown,M,33.75708,-84.39185,
ROBBERY-PEDESTRIAN,152972005,10/24/2015,565 MCDANIEL ST SW,303,Mechanicsville,V,33.73814,-84.40163,
ROBBERY-PEDESTRIAN,152972499,10/24/2015,95 VINE ST NW,102,Vine City,L,33.75724,-84.40764,
ROBBERY-RESIDENCE,152970924,10/24/2015,2129 JERNIGAN DR SE,310,Lakewood,Z,33.69605,-84.37261,
ROBBERY-PEDESTRIAN,152971209,10/24/2015,1865 WELLBOURNE DR NE,213,Morningside/Lenox Park,F,33.80553,-84.35973,
ROBBERY-PEDESTRIAN,152960557,10/23/2015,165 COURTLAND ST NE ,510,Downtown,M,33.75895,-84.3834,
ROBBERY-COMMERCIAL,152961996,10/23/2015,2834 HAPEVILLE RD SW,312,Glenrose Heights,Z,33.67658,-84.39331,
ROBBERY-COMMERCIAL,152961404,10/23/2015,381 MORELAND AVE,606,Ormewood Park,W,33.74357,-84.34957,
ROBBERY-PEDESTRIAN,152962776,10/23/2015,3250 MOUNT GILEAD RD SW,409,Southwest,R,33.69803,-84.49452,
ROBBERY-PEDESTRIAN,152963033,10/23/2015,20 BROAD ST SW,511,Downtown,M,33.75247,-84.38983,
ROBBERY-PEDESTRIAN,152963283,10/23/2015,874 WRIGHT AVE,210,Lenox,B,33.84688,-84.3592,
HOMICIDE,152961366,10/23/2015,510 MARY ST SW,302,Pittsburgh,V,33.72918,-84.40468,
AGG ASSAULT,152962909,10/23/2015,2745 OLD HAPEVILLE RD SW,311,Glenrose Heights,Z,33.68009,-84.3942,
AGG ASSAULT,152962986,10/23/2015,874 CASCADE AVE SW,403,Cascade Avenue/Road,S,33.73132,-84.43897,
ROBBERY-PEDESTRIAN,152962623,10/23/2015,445 CLEVELAND AVE,312,Rosedale Heights,Z,33.68013,-84.37757,
ROBBERY-PEDESTRIAN,152962307,10/23/2015,3263 DONALD LEE HOLLOWELL PKWY NW ,114,English Park,G,33.78784,-84.49384,
ROBBERY-COMMERCIAL,152962044,10/23/2015,876 RALPH D ABERNATHY BLVD SW,401,West End,T,33.73788,-84.41643,
BURGLARY-RESIDENCE,152961840,10/23/2015,2127 LARCHWOOD RD SW,405,Florida Heights,I,33.74811,-84.45782,
BURGLARY-RESIDENCE,152961887,10/23/2015,747 RALPH MCGILL BLVD NE,603,Old Fourth Ward,M,33.76674,-84.36263,
BURGLARY-RESIDENCE,152960145,10/23/2015,618 SKIPPER DR NW,112,Collier Heights,I,33.77207,-84.49084,
BURGLARY-RESIDENCE,152962713,10/23/2015,390 STOVALL ST SE,606,Ormewood Park,W,33.7436,-84.35429,
BURGLARY-RESIDENCE,152962193,10/23/2015,4065 SOUTHWOOD CIR SW      ,412,Ben Hill Terrace,P,33.69549,-84.52088,
BURGLARY-RESIDENCE,152963276,10/23/2015,565 GREENSFERRY AVE SW,101,The Villages at Castleberry Hill,T,33.74651,-84.40675,
BURGLARY-RESIDENCE,152963168,10/23/2015,3133 HICKMAN DR NW,111,,I,33.75489,-84.48948,
BURGLARY-RESIDENCE,152963038,10/23/2015,953 HOPE DR SW,306,Sylvan Hills,X,33.70702,-84.41961,
AGG ASSAULT,152963147,10/23/2015,950 NEW TOWN CIR SE,308,Thomasville Heights,Z,33.70835,-84.35926,
BURGLARY-RESIDENCE,152962745,10/23/2015,1532 AVON AVE SW,403,Venetian Hills,S,33.72229,-84.43802,
BURGLARY-RESIDENCE,152962511,10/23/2015,192 MAYSON AVE NE,609,Edgewood,O,33.75891,-84.33882,
BURGLARY-NONRES,152900493,10/23/2015,1660 PEACHTREE STREET,502,Midtown,E,33.79874,-84.39164,
BURGLARY-RESIDENCE,152962076,10/23/2015,765 MCDANIEL ST SW,302,Pittsburgh,V,33.73396,-84.40177,
BURGLARY-RESIDENCE,152962997,10/23/2015,1950 HOWELL MILL RD NW,205,Wildwood (NPU-C),C,33.80805,-84.41282,
BURGLARY-RESIDENCE,152961999,10/23/2015,2175 MEADOR AVE SE,310,Swallow Circle/Baywood,Z,33.6948,-84.38074,
BURGLARY-RESIDENCE,152962652,10/23/2015,215 CHILDS DR NW,105,Hunter Hills,K,33.76095,-84.43627,
LARCENY-NON VEHICLE,152961278,10/23/2015,2034 METROPOLITAN PKWY SW,306,Sylvan Hills,X,33.69873,-84.40798,
LARCENY-NON VEHICLE,152962708,10/23/2015,1275 CAROLINE ST NE @TARGET - CAROLINE,609,Edgewood,O,33.75674,-84.34619,
LARCENY-NON VEHICLE,152962047,10/23/2015,1275 CAROLINE ST NE ,609,Edgewood,O,33.75674,-84.34619,
LARCENY-NON VEHICLE,152961624,10/23/2015,375 18TH ST NW @TARGET - 18TH,501,Atlantic Station,E,33.79303,-84.39921,
LARCENY-NON VEHICLE,152962692,10/23/2015,3393 PEACHTREE RD NE @LENOX MALL,210,Lenox,B,33.84676,-84.36212,
LARCENY-NON VEHICLE,152962487,10/23/2015,3500 PEACHTREE RD NE,208,North Buckhead,B,33.85302,-84.36278,
LARCENY-NON VEHICLE,152962098,10/23/2015,2615 DONALD LEE HOLLOWELL PKWY NW,109,Center Hill,J,33.7762,-84.47236,
LARCENY-NON VEHICLE,152962376,10/23/2015,3535 PEACHTREE RD NE ,210,Lenox,B,33.85182,-84.3595,
LARCENY-NON VEHICLE,152963487,10/23/2015,180 UNIVERSITY AVE SW,302,Pittsburgh,V,33.72164,-84.39375,
LARCENY-FROM VEHICLE,152963520,10/23/2015,1000 PEACHTREE PARK DR NE,207,,E,33.81348,-84.38955,
LARCENY-FROM VEHICLE,152961713,10/23/2015,826 MARIETTA ST NW,504,Marietta Street Artery,E,33.77477,-84.4067,
LARCENY-FROM VEHICLE,152961731,10/23/2015,1450 DONNELLY AVE SW ,402,West End,T,33.73772,-84.43479,
LARCENY-FROM VEHICLE,152961968,10/23/2015,970 SPRING ST NW,503,Midtown,E,33.78123,-84.38946,
LARCENY-FROM VEHICLE,152962051,10/23/2015,123 LUCKIE ST NE,508,Downtown,M,33.7584,-84.39002,
LARCENY-FROM VEHICLE,152962091,10/23/2015,1036 WILLIS MILL RD SW,406,Audobon Forest,I,33.72753,-84.4701,
LARCENY-FROM VEHICLE,152962360,10/23/2015,880 GLENWOOD AVE SE,606,Grant Park,W,33.74058,-84.35903,
LARCENY-FROM VEHICLE,152962403,10/23/2015,3390 FAIRBURN RD SW,414,Ben Hill,P,33.66311,-84.52345,
LARCENY-FROM VEHICLE,152962435,10/23/2015,467 FLAT SHOALS AVE SE,612,East Atlanta,W,33.74127,-84.34674,
LARCENY-FROM VEHICLE,152962456,10/23/2015,1195 MILTON TER SE,305,Chosewood Park,Y,33.72248,-84.38033,
LARCENY-FROM VEHICLE,152961660,10/23/2015,504 HOLDERNESS ST SW,401,West End,T,33.7413,-84.42688,
LARCENY-FROM VEHICLE,152963226,10/23/2015,3500 PEACHTREE RD NE,208,North Buckhead,B,33.85302,-84.36278,
LARCENY-FROM VEHICLE,152960146,10/23/2015,1231 DRUID PL NE,608,Candler Park,N,33.76876,-84.34707,
LARCENY-FROM VEHICLE,152951996,10/23/2015,3399 COLLIER DRIVE,101,Fairburn Heights,H,33.76931,-84.49871,
LARCENY-FROM VEHICLE,152960149,10/23/2015,100 8TH ST NW,505,Midtown,E,33.77947,-84.39028,
LARCENY-FROM VEHICLE,152960802,10/23/2015,1769 S OLYMPIAN WAY SW,404,Westview,T,33.7356,-84.44567,
LARCENY-FROM VEHICLE,152960847,10/23/2015,1582 WILLOWBROOK DR SW,408,Venetian Hills,S,33.71233,-84.44648,
LARCENY-FROM VEHICLE,152961268,10/23/2015,2861 ELLIOTT CIR NE,211,Peachtree Park,B,33.83364,-84.36679,
LARCENY-FROM VEHICLE,152961427,10/23/2015,1426 W PACES FERRY RD NW,201,Paces,A,33.84692,-84.43447,
LARCENY-FROM VEHICLE,152961543,10/23/2015,2535 CENTER ST NW,113,Carey Park,G,33.79029,-84.4712,
LARCENY-FROM VEHICLE,152963018,10/23/2015,2442 COUNTY LINE RD SW,413,Elmco Estates,P,33.68833,-84.53346,
LARCENY-FROM VEHICLE,152961709,10/23/2015,2125 NORTHSIDE DR NW @GRANT TENNIS CENTER,205,,C,33.81356,-84.40761,
LARCENY-FROM VEHICLE,152963382,10/23/2015,441 16TH ST NW @IKEA,501,Atlantic Station,E,33.78874,-84.40468,
LARCENY-FROM VEHICLE,152963384,10/23/2015,3534 MARTIN L KING JR DR SW,407,Adamsville,H,33.75771,-84.50344,
LARCENY-FROM VEHICLE,152963427,10/23/2015,2225 CHESHIRE BRIDGE RD NE,213,Lindridge/Martin Manor,F,33.81592,-84.35224,
LARCENY-FROM VEHICLE,152963507,10/23/2015,888 3RD ST NW,504,Marietta Street Artery,E,33.77918,-84.40915,
LARCENY-FROM VEHICLE,152962771,10/23/2015,1760 NORTHSIDE DR NW,205,Channing Valley,C,33.80402,-84.40791,
LARCENY-FROM VEHICLE,152963549,10/23/2015,413 NELSON ST SW,507,Castleberry Hill,M,33.75112,-84.4012,
LARCENY-FROM VEHICLE,152962600,10/23/2015,437 MEMORIAL DR SE,605,Grant Park,W,33.74639,-84.37285,
LARCENY-FROM VEHICLE,152963591,10/23/2015,36 JOHN PORTMAN AVE,509,Downtown,M,33.76074,-84.38561,
LARCENY-FROM VEHICLE,152963615,10/23/2015,229 PEACHTREE CENTER AVE NE,509,Downtown,M,33.7603,-84.38633,
LARCENY-FROM VEHICLE,152963651,10/23/2015,380 MARIETTA ST NW,508,Downtown,M,33.76134,-84.39603,
LARCENY-FROM VEHICLE,152963717,10/23/2015,360 MARIETTA ST NW,507,Downtown,M,33.76269,-84.39702,
LARCENY-NON VEHICLE,152961418,10/23/2015,3751 MARTIN L KING JR DR NW,114,Old Gordon,H,33.76749,-84.51004,
LARCENY-FROM VEHICLE,152963068,10/23/2015,1170 VIRGINIA AVE NE,601,Virginia Highland,F,33.7803,-84.34895,
LARCENY-FROM VEHICLE,152962842,10/23/2015,1000 NEW TOWN CIR SE,308,Thomasville Heights,Z,33.70764,-84.36005,
LARCENY-FROM VEHICLE,152961992,10/23/2015,3385 DONALD LEE HOLLOWELL PKWY NW,114,Atlanta Industrial Park,G,33.79239,-84.49716,
LARCENY-FROM VEHICLE,152962352,10/23/2015,551 HOLLY ST NW,107,Grove Park,J,33.76987,-84.43741,
LARCENY-FROM VEHICLE,152961292,10/23/2015,1882 VALLEY RIDGE DR SW,412,Heritage Valley,P,33.70428,-84.50203,
LARCENY-NON VEHICLE,152962006,10/23/2015,383 S BEND AVE SE,307,Lakewood Heights,Y,33.70514,-84.37592,
LARCENY-NON VEHICLE,152962048,10/23/2015,1062 SAINT CHARLES AVE NE,601,Virginia Highland,F,33.7755,-84.35304,
LARCENY-NON VEHICLE,152963405,10/23/2015,1446 OGLETHORPE AVE SW,402,West End,T,33.73662,-84.43497,
LARCENY-NON VEHICLE,152961975,10/23/2015,225 HAMILTON E HOLMES DR NW @APS DOUGLASS HS,108,Center Hill,J,33.76115,-84.4682,
LARCENY-NON VEHICLE,152968032,10/23/2015,8700 SPINE RD,703,,,33.64085,-84.43915,
LARCENY-NON VEHICLE,152961454,10/23/2015,98 ANDERSON AVE NW @APS KIPP COLLEGIATE,108,Dixie Hills,J,33.75633,-84.45114,
LARCENY-NON VEHICLE,152961228,10/23/2015,607 PEACHTREE ST NE,509,Downtown,M,33.77096,-84.3844,
LARCENY-NON VEHICLE,152961334,10/23/2015,1535 NORTHSIDE DR NW,207,Loring Heights,E,33.79693,-84.40773,
LARCENY-NON VEHICLE,152961834,10/23/2015,1025 NAWENCH DR NW,201,Brandon,C,33.83291,-84.4215,
LARCENY-NON VEHICLE,152961919,10/23/2015,4411 NORTHSIDE DR NW,202,Chastain Park,A,33.87533,-84.40963,
LARCENY-NON VEHICLE,152962021,10/23/2015,2045 PEACHTREE RD NE,207,,E,33.81051,-84.39151,
LARCENY-NON VEHICLE,152963480,10/23/2015,80 JESSE HILL JR DR SE,510,Downtown,M,33.75231,-84.38231,
LARCENY-NON VEHICLE,152962039,10/23/2015,715 MIAMI CIR NE,211,Lindbergh/Morosgo,B,33.82958,-84.36391,
LARCENY-NON VEHICLE,152968021,10/23/2015,6000 SOUTH TERMINAL PARKWAY,704,,,33.63751,-84.44824,
LARCENY-NON VEHICLE,152962943,10/23/2015,3380 PEACHTREE RD NE,208,North Buckhead,B,33.84892,-84.36597,
AUTO THEFT,152962877,10/23/2015,222 HAMILTON E HOLMES DR NW,112,Collier Heights,I,33.76037,-84.46987,
AUTO THEFT,152960200,10/23/2015,532 CLEVELAND AVE SW,311,Hammond Park,X,33.67941,-84.40569,
AUTO THEFT,152961647,10/23/2015,1401 W PACES FERRY RD NW,201,Paces,A,33.84869,-84.43182,
AUTO THEFT,152963612,10/23/2015,670 TRABERT AVE NW,207,Berkeley Park,D,33.79492,-84.40988,
AUTO THEFT,152963512,10/23/2015,970 SPRING ST NW,503,Midtown,E,33.78123,-84.38946,
AUTO THEFT,152963406,10/23/2015,2640 MARTIN L KING JR DR SW,405,Harland Terrace,I,33.75381,-84.47425,
AUTO THEFT,152963403,10/23/2015,1801 HOWELL MILL RD NW,204,Berkeley Park,D,33.80388,-84.41278,
AUTO THEFT,152963709,10/23/2015,3030 HEADLAND DR SW,411,Greenbriar,R,33.68841,-84.48742,
AUTO THEFT,152963362,10/23/2015,94 PRYOR ST SW,511,Downtown,M,33.75199,-84.39024,
AUTO THEFT,152963331,10/23/2015,1545 NORTHSIDE DR NW,207,Loring Heights,E,33.79757,-84.40773,
AUTO THEFT,152962897,10/23/2015,98 WILLIAM H BORDERS DR SE @SELENA S BUTLER PARK,604,Sweet Auburn,M,33.75118,-84.37486,
AUTO THEFT,152962599,10/23/2015,I-285 SB EXPY SW / ARTHUR LANGFORD EB PKWY SW,413,,P,33.69012,-84.5002,
AUTO THEFT,152962431,10/23/2015,859 GASTON ST SW,402,Oakland City,S,33.73176,-84.43649,
AUTO THEFT,152961826,10/23/2015,425 CHAPEL ST SW,507,Castleberry Hill,M,33.75203,-84.40158,
AUTO THEFT,152962171,10/23/2015,600 GREENSFERRY AVE SW,101,The Villages at Castleberry Hill,T,33.74662,-84.40755,
AUTO THEFT,152952433,10/22/2015,1371 KIMBERLY WAY SW         ,412,Ashley Courts,P,33.71771,-84.52315,
AUTO THEFT,152951113,10/22/2015,1371 KIMBERLY WAY SW,412,Ashley Courts,P,33.71771,-84.52315,
AUTO THEFT,152950999,10/22/2015,1371 KIMBERLY RD SW,412,Ashley Courts,P,33.71871,-84.52137,
AUTO THEFT,152950594,10/22/2015,345 ARCHER WAY NW,106,Bankhead,K,33.76412,-84.4237,
AUTO THEFT,152943000,10/22/2015,1150 ASTOR AVE SW,306,Sylvan Hills,X,33.70137,-84.42678,
LARCENY-NON VEHICLE,152953223,10/22/2015,1033 HOLLYWOOD RD NW,110,Almond Park,G,33.78308,-84.45882,
LARCENY-NON VEHICLE,152952369,10/22/2015,830 RALPH D ABERNATHY BLVD SW,401,West End,T,33.73792,-84.41492,
LARCENY-NON VEHICLE,152958036,10/22/2015,10700 SPINE RD,703,,,33.64063,-84.43256,
LARCENY-NON VEHICLE,152953296,10/22/2015,186 NORTHSIDE DR SW,507,Castleberry Hill,M,33.74968,-84.40386,
LARCENY-NON VEHICLE,152953244,10/22/2015,887 W MARIETTA ST NW,103,English Avenue,L,33.78265,-84.41698,
LARCENY-NON VEHICLE,152958031,10/22/2015,9700 SPINE RD,703,,,33.64065,-84.43591,
LARCENY-NON VEHICLE,152951526,10/22/2015,3700 MARTIN L KING JR DR SW,407,Adamsville,H,33.76327,-84.5095,
LARCENY-NON VEHICLE,152951487,10/22/2015,55 IVAN ALLEN JR BLVD NW,504,Downtown,M,33.76502,-84.38985,
LARCENY-NON VEHICLE,152852230,10/22/2015,265 PEACHTREE CENTER AVE NE,508,Downtown,M,33.7617,-84.38744,
LARCENY-NON VEHICLE,152958016,10/22/2015,6234 SPINE RD,706,,,33.64072,-84.44435,
LARCENY-FROM VEHICLE,152950024,10/22/2015,300 PEACHTREE ST NE,508,Downtown,M,33.76293,-84.38714,
LARCENY-FROM VEHICLE,152951163,10/22/2015,954 SYLVAN PL SW,306,Sylvan Hills,X,33.70474,-84.41947,
LARCENY-NON VEHICLE,152951961,10/22/2015,2630 MARTIN L KING JR DR SW,405,Harland Terrace,I,33.75377,-84.47405,
LARCENY-NON VEHICLE,152951535,10/22/2015,265 PEACHTREE ST NE ,509,Downtown,M,33.76152,-84.38672,
LARCENY-FROM VEHICLE,152951249,10/22/2015,800 MARCUS ST SE,606,Reynoldstown,N,33.75093,-84.35988,
LARCENY-NON VEHICLE,152951343,10/22/2015,1051 PONCE DE LEON AVE ,602,Poncey-Highland,N,33.77315,-84.35304,
LARCENY-FROM VEHICLE,152953664,10/22/2015,2069 CHESHIRE BRIDGE RD NE,213,Lindridge/Martin Manor,F,33.81148,-84.35523,
LARCENY-FROM VEHICLE,152950755,10/22/2015,140 ALDEN AVE NW,207,Brookwood,E,33.80137,-84.3976,
LARCENY-FROM VEHICLE,152951930,10/22/2015,200 CASANOVA ST SE @APS BENTEEN ES,607,Benteen Park,W,33.71635,-84.36475,
LARCENY-FROM VEHICLE,152950810,10/22/2015,38 ELLIS ST NE,510,Downtown,M,33.7585,-84.38631,
LARCENY-FROM VEHICLE,152950853,10/22/2015,1124 DEKALB AVE NE,602,Inman Park,N,33.75912,-84.35104,
LARCENY-FROM VEHICLE,152951136,10/22/2015,800 W MARIETTA ST NW,103,English Avenue,L,33.78022,-84.41514,
LARCENY-FROM VEHICLE,152951167,10/22/2015,1847 BRANDYWINE ST SW,306,Sylvan Hills,X,33.70443,-84.41736,
LARCENY-FROM VEHICLE,152951389,10/22/2015,1270 CAROLINE ST NE,609,Edgewood,O,33.75859,-84.3473,
LARCENY-FROM VEHICLE,152951392,10/22/2015,112 COURTLAND ST,510,Downtown,M,33.7574,-84.38475,
LARCENY-FROM VEHICLE,152951481,10/22/2015,547 BOULEVARD SE,605,Grant Park,W,33.73953,-84.36826,
LARCENY-FROM VEHICLE,152950741,10/22/2015,56 MARIETTA ST NW ,511,Downtown,M,33.75547,-84.39152,
LARCENY-FROM VEHICLE,152953660,10/22/2015,1391 COLLIER RD NW,204,Underwood Hills,D,33.80989,-84.43402,
LARCENY-FROM VEHICLE,152953372,10/22/2015,2020 PEACHTREE RD NW,207,,E,33.80991,-84.39361,
LARCENY-FROM VEHICLE,152951569,10/22/2015,1213 ALLENE AVE SW,301,Capitol View,X,33.72187,-84.41325,
LARCENY-FROM VEHICLE,152953433,10/22/2015,50 ARTS CENTER WAY NE,502,Midtown,E,33.79016,-84.38679,
LARCENY-FROM VEHICLE,152953499,10/22/2015,1600 ELLSWORTH INDUSTRIAL BLVD NW,203,Blandtown,D,33.79826,-84.42811,
LARCENY-FROM VEHICLE,152953556,10/22/2015,625 SEMINOLE AVE NE,602,Poncey-Highland,N,33.77147,-84.35047,
LARCENY-FROM VEHICLE,152953557,10/22/2015,1330 W PEACHTREE ST NW,502,Midtown,E,33.79091,-84.38816,
LARCENY-FROM VEHICLE,152953593,10/22/2015, 438 EDGEWOOD AVE,604,Sweet Auburn,M,33.75454,-84.37329,
LARCENY-FROM VEHICLE,152953598,10/22/2015,1455 MORELAND AVE SE,607,Custer/McDonough/Guice,W,33.71478,-84.35014,
LARCENY-FROM VEHICLE,152953607,10/22/2015,505 WHITEHALL ST SW,303,Mechanicsville,V,33.74351,-84.40437,
LARCENY-FROM VEHICLE,152953292,10/22/2015,370 NORTHSIDE DR NW,103,English Avenue,L,33.76507,-84.4042,
LARCENY-FROM VEHICLE,152950766,10/22/2015,797 PONCE DE LEON TER NE,601,Virginia Highland,F,33.77843,-84.36116,
LARCENY-FROM VEHICLE,152950208,10/22/2015,800 HARTFORD PL SW,301,Capitol View,X,33.72099,-84.41403,
LARCENY-FROM VEHICLE,152950231,10/22/2015,1017 CUSTER AVE SE,607,Custer/McDonough/Guice,W,33.7166,-84.35554,
LARCENY-FROM VEHICLE,152950290,10/22/2015,57 13TH ST NE,503,Midtown,E,33.78553,-84.38569,
LARCENY-FROM VEHICLE,152950299,10/22/2015,438 EDGEWOOD AVE SE,604,Sweet Auburn,M,33.75454,-84.37329,
LARCENY-FROM VEHICLE,152950423,10/22/2015,3178 PEACHTREE RD NE,208,Buckhead Forest,B,33.84136,-84.37629,
LARCENY-FROM VEHICLE,152950470,10/22/2015,2195 DEFOOR HILLS RD NW,204,Underwood Hills,D,33.8152,-84.43334,
LARCENY-FROM VEHICLE,152950731,10/22/2015,1376 CHATTAHOOCHEE AVE NW,203,Hills Park,D,33.80318,-84.43262,
LARCENY-FROM VEHICLE,152953394,10/22/2015,1860 PEACHTREE RD NW,207,Ardmore,E,33.80586,-84.39439,
LARCENY-FROM VEHICLE,152952072,10/22/2015,620 GLEN IRIS DR NE,603,Old Fourth Ward,M,33.77168,-84.36779,
LARCENY-FROM VEHICLE,152952398,10/22/2015,2669 COLGAN CT SE,611,East Lake,O,33.74781,-84.29969,
LARCENY-FROM VEHICLE,152952400,10/22/2015,3755 CARMIA DR SW,414,Princeton Lakes,P,33.6569,-84.51004,
LARCENY-FROM VEHICLE,152952435,10/22/2015,670 TRABERT AVE NW,207,Berkeley Park,D,33.79492,-84.40988,
LARCENY-FROM VEHICLE,152952855,10/22/2015,1728 CAMPBELLTON RD SW,408,,R,33.711,-84.44453,
LARCENY-FROM VEHICLE,152952964,10/22/2015,3002 IMPERIAL CT SW,409,Southwest,R,33.69925,-84.49457,
LARCENY-FROM VEHICLE,152952989,10/22/2015,3330 PIEDMONT RD,206,Peachtree Park,B,33.83754,-84.36829,
LARCENY-FROM VEHICLE,152950200,10/22/2015,677 ANTONE ST NW,207,Berkeley Park,D,33.79826,-84.4102,
LARCENY-NON VEHICLE,152952506,10/22/2015,3535 PEACHTREE RD NE @TARGET - PEACHTREE,210,Lenox,B,33.85182,-84.3595,
LARCENY-NON VEHICLE,152952085,10/22/2015,835 MLK JR DR,102,Vine City,L,33.75504,-84.41457,
LARCENY-NON VEHICLE,152951942,10/22/2015,3393 PEACHTREE RD NE @LENOX MALL,210,Lenox,B,33.84676,-84.36212,
LARCENY-NON VEHICLE,152953216,10/22/2015,455 NORTH AVE NE,603,Old Fourth Ward,M,33.77066,-84.37225,
BURGLARY-RESIDENCE,152953428,10/22/2015,501 CONNELL AVE SW,309,Perkerson,X,33.68327,-84.40662,
BURGLARY-RESIDENCE,152952984,10/22/2015,1041 EDIE AVE SE,607,Boulevard Heights,W,33.726,-84.36384,
AGG ASSAULT,152953430,10/22/2015,1510B MURPHY AVE SW,306,Sylvan Hills,X,33.71378,-84.42553,
AGG ASSAULT,152943030,10/22/2015,2952 MIDDLETON RD NW,111,,I,33.75265,-84.48793,
AGG ASSAULT,152951036,10/22/2015,2884 DELRAY DR NW,113,Lincoln Homes,G,33.79689,-84.47792,
AGG ASSAULT,152952662,10/22/2015,1115 GREENHAVEN DR SE,611,The Villages at East Lake,O,33.74137,-84.31122,
AGG ASSAULT,152941786,10/22/2015,800 CHEROKEE ST,605,Grant Park,W,33.73267,-84.37352,
AGG ASSAULT,152953441,10/22/2015,751 FAIRBURN RD SW,407,Fairburn Mays,H,33.73454,-84.51059,
AGG ASSAULT,152943070,10/22/2015,414 VINE ST,103,English Avenue,L,33.76587,-84.40784,
AGG ASSAULT,152953443,10/22/2015,1000 WELCH ST SE,607,Custer/McDonough/Guice,W,33.70815,-84.35586,
BURGLARY-RESIDENCE,152952753,10/22/2015,2880 GRAND AVE SW,311,Hammond Park,X,33.67606,-84.40147,
BURGLARY-RESIDENCE,152952790,10/22/2015,2798 PEEK RD NW,112,Collier Heights,I,33.77743,-84.47815,
BURGLARY-RESIDENCE,152952969,10/22/2015,643 FINLEY AVE NW,106,Bankhead,K,33.7724,-84.42189,
BURGLARY-RESIDENCE,152953528,10/22/2015,921 WESTMORELAND CIR NW,110,West Highlands,G,33.78956,-84.44919,
BURGLARY-RESIDENCE,152953480,10/22/2015,1700 NORTHSIDE DR NW,207,Berkeley Park,D,33.80121,-84.40791,
BURGLARY-RESIDENCE,152953263,10/22/2015,1700 NORTHSIDE DR NW,207,Berkeley Park,D,33.80121,-84.40791,
BURGLARY-RESIDENCE,152952131,10/22/2015,2798 PEEK RD NW,112,Collier Heights,I,33.77743,-84.47815,
BURGLARY-RESIDENCE,152952232,10/22/2015,1700 NORTHSIDE DR NW,207,Berkeley Park,D,33.80121,-84.40791,
BURGLARY-RESIDENCE,152952062,10/22/2015,2524 MARTIN L KING JR DR SW,405,Harland Terrace,I,33.75285,-84.47033,
BURGLARY-RESIDENCE,152951929,10/22/2015,2183 PARKVIEW RUN NW,203,Bolton,D,33.81701,-84.46294,
BURGLARY-RESIDENCE,152951602,10/22/2015,113 PINE ST NW,504,Downtown,M,33.76789,-84.39161,
BURGLARY-RESIDENCE,152952451,10/22/2015,747 RALPH MCGILL BLVD NE,603,Old Fourth Ward,M,33.76674,-84.36263,
BURGLARY-RESIDENCE,152952328,10/22/2015,2524 MARTIN L KING JR DR SW,405,Harland Terrace,I,33.75285,-84.47033,
ROBBERY-PEDESTRIAN,152953015,10/22/2015,1745 PEACHTREE ST NW,207,Brookwood Hills,E,33.8018,-84.39187,
ROBBERY-PEDESTRIAN,152950306,10/22/2015,725 PONCE DE LEON AVE NE,602,Poncey-Highland,N,33.77343,-84.36351,
ROBBERY-COMMERCIAL,152953036,10/22/2015,839 OAK ST SW,401,West End,T,33.74074,-84.41556,
AGG ASSAULT,152950719,10/22/2015,1598 BEECHER ST SW,404,Cascade Avenue/Road,S,33.73345,-84.4401,
AGG ASSAULT,152951967,10/22/2015,2784 DONALD LEE HOLLOWELL PKWY NW,112,Collier Heights,I,33.77927,-84.47996,
AGG ASSAULT,152951703,10/22/2015,2222 DONALD LEE HOLLOWELL PKWY NW,109,Carey Park,G,33.78999,-84.47156,
AGG ASSAULT,152953535,10/22/2015,443 HARPER RD SE,310,Lakewood,Z,33.69672,-84.37369,
ROBBERY-PEDESTRIAN,152952402,10/22/2015,2980 JONESBORO RD SE,313,South River Gardens,Z,33.67339,-84.37144,
ROBBERY-PEDESTRIAN,152950219,10/22/2015,102 OLLIE ST NW @WASHINGTON PARK,105,Washington Park,K,33.75735,-84.4214,
ROBBERY-COMMERCIAL,152951452,10/22/2015,491 FLAT SHOALS AVE SE,612,East Atlanta,W,33.74053,-84.3462,
ROBBERY-PEDESTRIAN,152953308,10/22/2015,2456 MARTIN L KING JR DR SW,405,Harland Terrace,I,33.75166,-84.46789,
ROBBERY-PEDESTRIAN,152943034,10/21/2015,55 JOSEPH E LOWERY BLVD NW,102,Vine City,L,33.75616,-84.41742,
ROBBERY-PEDESTRIAN,152942792,10/21/2015,2170 CHESHIRE BRIDGE RD NE,212,Lindridge/Martin Manor,F,33.81407,-84.35433,
ROBBERY-PEDESTRIAN,152942798,10/21/2015,828 MCDONOUGH BLVD SE,607,Benteen Park,W,33.70926,-84.35977,
ROBBERY-RESIDENCE,152941961,10/21/2015,396 PIEDMONT AVE NE,509,Downtown,M,33.76491,-84.3826,
BURGLARY-RESIDENCE,152941674,10/21/2015,894 WELCH ST SW,302,Pittsburgh,V,33.73046,-84.40484,
BURGLARY-RESIDENCE,152941325,10/21/2015,170 CLAY ST SE,610,Kirkwood,O,33.74864,-84.33021,
BURGLARY-RESIDENCE,152942938,10/21/2015,3830 BEECHWOOD DR NW,202,Mt. Paran/Northside,A,33.8601,-84.43369,
BURGLARY-RESIDENCE,152941969,10/21/2015,24 THIRKELD AVE SE,305,South Atlanta,Y,33.71467,-84.38755,
BURGLARY-RESIDENCE,152942581,10/21/2015,946 REBEL FOREST DR SE,308,Rebel Valley Forest,Z,33.68815,-84.35865,
BURGLARY-RESIDENCE,152942532,10/21/2015,1728 BROWNING ST NW,104,Mozley Park,K,33.75239,-84.44373,
BURGLARY-RESIDENCE,152941857,10/21/2015,1869 NORTH AVE NW,107,Grove Park,J,33.76876,-84.4483,
BURGLARY-RESIDENCE,152942346,10/21/2015,370 NORTHSIDE DR NW,103,English Avenue,L,33.76507,-84.4042,
AGG ASSAULT,152941989,10/21/2015,1287 JOSEPH E BOONE BLVD NW,106,Bankhead,K,33.76362,-84.43005,
BURGLARY-RESIDENCE,152941722,10/21/2015,1150 ASTOR AVE SW,306,Sylvan Hills,X,33.70137,-84.42678,
BURGLARY-NONRES,152941338,10/21/2015,627 WHITEHALL ST SW,303,Adair Park,V,33.74228,-84.40904,
BURGLARY-NONRES,152940223,10/21/2015,1056 N HIGHLAND AVE NE,601,Virginia Highland,F,33.78345,-84.35491,
BURGLARY-RESIDENCE,152940841,10/21/2015,180 JACKSON ST NE,604,Sweet Auburn,M,33.75932,-84.37442,
LARCENY-NON VEHICLE,152932888,10/21/2015,3330 PIEDMONT RD,208,Buckhead Forest,B,33.84564,-84.37462,
LARCENY-NON VEHICLE,152940844,10/21/2015,2685 METROPOLITAN PKWY SW,309,Perkerson,X,33.68274,-84.40902,
LARCENY-NON VEHICLE,152941225,10/21/2015,3050 MARTIN L KING JR DR SW,405,Harland Terrace,I,33.75177,-84.4857,
LARCENY-NON VEHICLE,152941440,10/21/2015,2685 METROPOLITAN PKWY SW,309,Perkerson,X,33.68274,-84.40902,
LARCENY-NON VEHICLE,152941491,10/21/2015,2525 PIEDMONT RD NE @HOME DEPOT,211,Lindbergh/Morosgo,B,33.824,-84.36521,
LARCENY-NON VEHICLE,152941517,10/21/2015,1275 CAROLINE ST NE @TARGET - CAROLINE,609,Edgewood,O,33.75674,-84.34619,
LARCENY-NON VEHICLE,152942688,10/21/2015,1801 HOWELL MILL RD NW,204,Berkeley Park,D,33.80388,-84.41278,
LARCENY-FROM VEHICLE,152942607,10/21/2015,888 3RD ST NW,504,Marietta Street Artery,E,33.77918,-84.40915,
LARCENY-FROM VEHICLE,152941177,10/21/2015,1071 CHATTAHOOCHEE AVE NW,204,Underwood Hills,D,33.80147,-84.4223,
LARCENY-FROM VEHICLE,152941189,10/21/2015,54 PEACHTREE ST SW,511,Downtown,M,33.75286,-84.3912,
LARCENY-FROM VEHICLE,152942367,10/21/2015,54 PEACHTREE ST SW,511,Downtown,M,33.75286,-84.3912,
LARCENY-FROM VEHICLE,152941203,10/21/2015,871 WHITE ST SW,401,West End,T,33.73244,-84.41635,
LARCENY-FROM VEHICLE,152942495,10/21/2015,1155 PEACHTREE ST NE,503,Midtown,E,33.78603,-84.38292,
LARCENY-FROM VEHICLE,152942577,10/21/2015,15 PEACHTREE ST NW,511,Downtown,M,33.75409,-84.39054,
LARCENY-FROM VEHICLE,152941079,10/21/2015,947 HANK AARON DR SW,304,Peoplestown,V,33.72873,-84.38831,
LARCENY-FROM VEHICLE,152942037,10/21/2015,1349 PEACHTREE ST NE,502,Midtown,E,33.79148,-84.38557,
LARCENY-FROM VEHICLE,152941170,10/21/2015,75 TURMAN AVE SE,305,South Atlanta,Y,33.70882,-84.38426,
LARCENY-FROM VEHICLE,152942552,10/21/2015,855 W PEACHTREE ST NE,505,Midtown,E,33.77773,-84.38718,
LARCENY-FROM VEHICLE,152942507,10/21/2015,600 PONCE DE LEON AVE NE,506,Midtown,E,33.77376,-84.36722,
LARCENY-FROM VEHICLE,152941574,10/21/2015,4225 ROSWELL RD NE,209,North Buckhead,B,33.86985,-84.38063,
LARCENY-FROM VEHICLE,152941614,10/21/2015,2085 GARRISON WAY NW,203,Whittier Mill Village,D,33.81224,-84.48023,
LARCENY-FROM VEHICLE,152941662,10/21/2015,1025 HOWELL MILL RD NW,501,Home Park,E,33.78285,-84.41126,
LARCENY-FROM VEHICLE,152941686,10/21/2015,2454 DANIEL RD SW,413,,P,33.68829,-84.51559,
LARCENY-FROM VEHICLE,152942541,10/21/2015,659 PEACHTREE ST NE @GEORGIAN TERRACE,505,Midtown,E,33.77258,-84.38449,
LARCENY-FROM VEHICLE,152941469,10/21/2015,565 JOSEPH E LOWERY BLVD SW,401,West End,T,33.7397,-84.4178,
LARCENY-FROM VEHICLE,152941808,10/21/2015,248 OAKRIDGE AVE SE,611,East Lake,O,33.74593,-84.2936,
LARCENY-FROM VEHICLE,152941782,10/21/2015,1625 MARTIN L KING JR DR NW @APS F L STANTON ES,104,Mozley Park,K,33.75344,-84.44213,
LARCENY-NON VEHICLE,152942695,10/21/2015,626 DEKALB AVE SE,604,Old Fourth Ward,M,33.75283,-84.36687,
LARCENY-FROM VEHICLE,152941854,10/21/2015,I-20 EAST/MCDANIEL,303,Downtown,M,33.7514,-84.39098,
LARCENY-FROM VEHICLE,152941694,10/21/2015,3100 NORTHSIDE PKWY NW,201,,C,33.83975,-84.4199,
LARCENY-NON VEHICLE,152901678,10/21/2015,950 MARIETTA ST NW,504,Marietta Street Artery,E,33.77689,-84.40807,
LARCENY-NON VEHICLE,152941080,10/21/2015,1901 PIEDMONT CIRCLE,212,Piedmont Heights,F,33.80868,-84.3664,
LARCENY-NON VEHICLE,152942047,10/21/2015,616 WAYNES CT SE,313,South River Gardens,Z,33.67194,-84.3695,
LARCENY-FROM VEHICLE,152941296,10/21/2015,2090 JONESBORO RD SE,308,Norwood Manor,Z,33.69773,-84.36999,
LARCENY-FROM VEHICLE,152940953,10/21/2015,1001 GARDEN VIEW DR NE,210,Pine Hills,B,33.84895,-84.34904,
LARCENY-FROM VEHICLE,152940008,10/21/2015,2640 MARTIN L KING JR DR SW,405,Harland Terrace,I,33.75381,-84.47425,
LARCENY-FROM VEHICLE,152941467,10/21/2015,140 SIMPSON ST NW,508,Downtown,M,33.76324,-84.39174,
LARCENY-FROM VEHICLE,152942554,10/21/2015,320 WILLIAMS ST NW,508,Downtown,M,33.76341,-84.39061,
LARCENY-FROM VEHICLE,152942736,10/21/2015,267 MARIETTA ST NW,508,Downtown,M,33.76071,-84.39469,
LARCENY-FROM VEHICLE,152942686,10/21/2015,924 GARRETT ST SE,606,Ormewood Park,W,33.74074,-84.35787,
LARCENY-FROM VEHICLE,152941046,10/21/2015,861 MENTELLE DR NE,506,Midtown,E,33.77816,-84.37367,
LARCENY-FROM VEHICLE,152942653,10/21/2015,1730 TAYLOR ST NW,204,Underwood Hills,D,33.80171,-84.42123,
LARCENY-FROM VEHICLE,152942996,10/21/2015,207 PEACHTREE CENTER AVE NE,509,Downtown,M,33.7602,-84.38554,
LARCENY-FROM VEHICLE,152942887,10/21/2015,868 JOSEPH E BOONE BLVD NW,102,Vine City,L,33.76319,-84.41612,
LARCENY-FROM VEHICLE,152942914,10/21/2015,907 MARIETTA ST NW,504,Marietta Street Artery,E,33.77714,-84.40791,
LARCENY-FROM VEHICLE,152942931,10/21/2015,870 NORTHSIDE DR NW,504,Marietta Street Artery,E,33.77859,-84.40794,
LARCENY-FROM VEHICLE,152942965,10/21/2015,360 MARIETTA ST NW,507,Downtown,M,33.76269,-84.39702,
LARCENY-FROM VEHICLE,152942977,10/21/2015,329 MARIETTA ST NW,508,Downtown,M,33.7623,-84.39643,
LARCENY-FROM VEHICLE,152942871,10/21/2015,23 LARKIN PL SW,507,Castleberry Hill,M,33.74749,-84.40414,
LARCENY-FROM VEHICLE,152940091,10/21/2015,299 PETERS ST SW,507,Castleberry Hill,M,33.74667,-84.403,
LARCENY-FROM VEHICLE,152943084,10/21/2015,2 ELLIS ST NE,510,Downtown,M,33.75851,-84.38737,
LARCENY-FROM VEHICLE,152943025,10/21/2015,568 ENGLEWOOD AVE SE,305,Chosewood Park,Y,33.72199,-84.36879,
LARCENY-FROM VEHICLE,152942716,10/21/2015,970 GILBERT ST SE,607,Ormewood Park,W,33.728,-84.35058,
LARCENY-FROM VEHICLE,152942742,10/21/2015,2175 CHESHIRE BRIDGE RD NE,213,Lindridge/Martin Manor,F,33.81414,-84.35285,
LARCENY-FROM VEHICLE,152942832,10/21/2015,1770 RICHMOND CIR SE,307,Lakewood Heights,Y,33.70695,-84.37414,
LARCENY-NON VEHICLE,152942454,10/21/2015,3140 HICKMAN DR NW,111,,I,33.75444,-84.48918,
LARCENY-NON VEHICLE,152941383,10/21/2015,801 GLENWOOD AVE SE @APS JACKSON HS,605,Grant Park,W,33.73958,-84.36161,
LARCENY-NON VEHICLE,152942561,10/21/2015,703 MCDANIEL ST SW,303,Mechanicsville,V,33.7359,-84.40175,
LARCENY-NON VEHICLE,152942655,10/21/2015,255 COURTLAND ST NE,509,Downtown,M,33.76139,-84.38406,
LARCENY-NON VEHICLE,152948033,10/21/2015,8700 SPINE RD,703,,,33.64085,-84.43915,
LARCENY-NON VEHICLE,152941802,10/21/2015,225 HAMILTON E HOLMES DR,108,Center Hill,J,33.76115,-84.4682,
LARCENY-NON VEHICLE,152941333,10/21/2015,1460 LAVENDER DR NW,105,Hunter Hills,K,33.76108,-84.43577,
LARCENY-NON VEHICLE,152940991,10/21/2015,619 FORTUNE PL NE,603,Old Fourth Ward,M,33.7622,-84.36742,
LARCENY-NON VEHICLE,152941010,10/21/2015,378 BILL KENNEDY WAY SE,606,Ormewood Park,W,33.74286,-84.35798,
LARCENY-NON VEHICLE,152941603,10/21/2015,30  IRBY AVE NW,206,South Tuxedo Park,B,33.84124,-84.38057,
AUTO THEFT,152943128,10/21/2015,932 MCDANIEL ST,302,Pittsburgh,V,33.72957,-84.4015,
AUTO THEFT,152942122,10/21/2015,77 SPRINGSIDE DR SE,312,Glenrose Heights,Z,33.67603,-84.38528,
AUTO THEFT,152942231,10/21/2015,929 PEACHTREE ST NE,503,Midtown,E,33.7801,-84.38404,
AUTO THEFT,152940034,10/21/2015,58 6TH ST NE,505,Midtown,E,33.7775,-84.3853,
AUTO THEFT,152940535,10/21/2015,1617 JOSEPH E BOONE BLVD NW,107,Grove Park,J,33.76385,-84.44072,
