UC2_Literal,Report Number,Report Date,Location,Beat,Neigborhood,NPU,Lat,Long,
ROBBERY-PEDESTRIAN,150592901,02/28/2015,519 MAGNOLIA ST NW,102,Vine City,L,33.75812,-84.40453,
ROBBERY-PEDESTRIAN,150592093,02/28/2015,2980 DELMAR LN NW,111,,I,33.75509,-84.48491,
ROBBERY-PEDESTRIAN,150591611,02/28/2015,176 BROWNLEE RD SW,407,Adamsville,H,33.75179,-84.49988,
ROBBERY-COMMERCIAL,150590534,02/28/2015,3566 MARTIN L KING JR DR SW,407,Adamsville,H,33.75869,-84.50476,
ROBBERY-PEDESTRIAN,150592355,02/28/2015,65 ALABAMA ST SW @UNDERGROUND ATLANTA,511,Downtown,M,33.75247,-84.38983,
ROBBERY-PEDESTRIAN,150592853,02/28/2015,218 MARION PL NE,609,Edgewood,O,33.75968,-84.34527,
ROBBERY-PEDESTRIAN,150592020,02/28/2015,652 FOUNDRY ST NW,102,Vine City,L,33.75914,-84.40878,
AGG ASSAULT,150591846,02/28/2015,1988 BREWER BLVD SW ,306,Sylvan Hills,X,33.70015,-84.41164,
AGG ASSAULT,150592515,02/28/2015,3393 PEACHTREE RD NE @LENOX MALL,210,Lenox,B,33.84676,-84.36212,
AGG ASSAULT,150592078,02/28/2015,1370 GRAYMONT DR SW,403,Venetian Hills,S,33.71692,-84.43626,
AGG ASSAULT,150590328,02/28/2015,187 PEYTON PL SW,405,Harland Terrace,I,33.74992,-84.47565,
AGG ASSAULT,150590051,02/28/2015,80 JESSE HILL JR DR SE @GRADY HOSPITAL,510,Downtown,M,33.75168,-84.38198,
AGG ASSAULT,150590808,02/28/2015,1599 KENMORE ST SW,403,Cascade Avenue/Road,S,33.72386,-84.44012,
BURGLARY-RESIDENCE,150591603,02/28/2015,1829 CAMPBELLTON RD SW,408,Venetian Hills,S,33.71,-84.44863,
BURGLARY-RESIDENCE,150591532,02/28/2015,2167 MARTIN L KING JR DR NW,108,Florida Heights,I,33.75167,-84.46093,
BURGLARY-RESIDENCE,150591492,02/28/2015,1945 SYLVAN RD SW,306,Sylvan Hills,X,33.70164,-84.41859,
BURGLARY-RESIDENCE,150591484,02/28/2015,3270 AMHURST DR NW,112,Collier Heights,I,33.77346,-84.49459,
BURGLARY-RESIDENCE,150591531,02/28/2015,3378 GREENBRIAR PKWY SW,413,,P,33.68299,-84.50129,
BURGLARY-RESIDENCE,150591948,02/28/2015,1930 BROWNS MILL RD SE,307,Lakewood Heights,Y,33.70151,-84.37599,
BURGLARY-RESIDENCE,150591880,02/28/2015,3420 SOMERSET TRL SW,414,Huntington,P,33.66099,-84.52627,
BURGLARY-RESIDENCE,150591213,02/28/2015,723 WATERS DR SW,404,Westview,T,33.73502,-84.44406,
BURGLARY-RESIDENCE,150591389,02/28/2015,201 MOURY AVE SW,305,The Villages at Carver,Y,33.71691,-84.39276,
BURGLARY-RESIDENCE,150592685,02/28/2015,1191 WINDSOR ST SW,302,Pittsburgh,V,33.72242,-84.3987,
BURGLARY-RESIDENCE,150592419,02/28/2015,2521 PIEDMONT RD NE,211,Lindbergh/Morosgo,B,33.82412,-84.36713,
BURGLARY-RESIDENCE,150592110,02/28/2015,515 FULTON ST SW,303,Mechanicsville,V,33.741,-84.40447,
BURGLARY-NONRES,150591446,02/28/2015,1067 MEMORIAL DR SE,606,Reynoldstown,N,33.74583,-84.35217,
BURGLARY-RESIDENCE,150591672,02/28/2015,122 LOGAN ST SE,605,Capitol Gateway,V,33.74473,-84.38354,
BURGLARY-RESIDENCE,150591930,02/28/2015,3270 AMHURST DRIVE NW,112,Collier Heights,I,33.77346,-84.49459,
BURGLARY-RESIDENCE,150591311,02/28/2015,3020 DELMAR LN NW,111,,I,33.75527,-84.48577,
BURGLARY-RESIDENCE,150591305,02/28/2015,1746 NORTH AVE NW,107,Grove Park,J,33.76816,-84.44494,
BURGLARY-RESIDENCE,150590230,02/28/2015,183 MOUNT ZION RD SE,312,Glenrose Heights,Z,33.67268,-84.38507,
BURGLARY-RESIDENCE,150591005,02/28/2015,1001 SMITH ST SW,302,Pittsburgh,V,33.72742,-84.401,
LARCENY-NON VEHICLE,150591662,02/28/2015,2429 MARTIN L KING JR DR NW,108,Florida Heights,I,33.75246,-84.46669,
LARCENY-NON VEHICLE,150592058,02/28/2015,1788 ELLSWORTH INDUSTRIAL BLVD NW,204,Underwood Hills,D,33.80415,-84.42757,
LARCENY-NON VEHICLE,150592228,02/28/2015,1275 CAROLINE ST NE,609,Edgewood,O,33.75674,-84.34619,
LARCENY-NON VEHICLE,150592199,02/28/2015,2685 METROPOLITAN PKWY SW,309,Perkerson,X,33.68274,-84.40902,
LARCENY-NON VEHICLE,150592542,02/28/2015,3393 PEACHTREE RD NE @LENOX MALL,210,Lenox,B,33.84676,-84.36212,
LARCENY-NON VEHICLE,150591771,02/28/2015,3393 PEACHTREE RD NE @LENOX MALL,210,Lenox,B,33.84676,-84.36212,
LARCENY-NON VEHICLE,150592608,02/28/2015,3393 PEACHTREE RD NE @LENOX MALL,210,Lenox,B,33.84676,-84.36212,
LARCENY-NON VEHICLE,150591301,02/28/2015,835 MARTIN L KING JR DR NW,102,Vine City,L,33.75504,-84.41457,
LARCENY-NON VEHICLE,150591012,02/28/2015,2690 METROPOLITAN PKWY SW,309,Perkerson,X,33.68169,-84.40737,
LARCENY-FROM VEHICLE,150593093,02/28/2015,342 PEACHTREE ST NE,508,Downtown,M,33.76384,-84.38658,
LARCENY-FROM VEHICLE,150592925,02/28/2015,1544 PIEDMONT AVE NE @ANSLEY MALL,213,Piedmont Heights,F,33.79789,-84.37101,
LARCENY-FROM VEHICLE,150592856,02/28/2015,768 MARIETTA ST NW,504,Marietta Street Artery,E,33.77363,-84.40468,
LARCENY-FROM VEHICLE,150592664,02/28/2015,1990 WELLBOURNE DR NE,213,Morningside/Lenox Park,F,33.80884,-84.36023,
LARCENY-FROM VEHICLE,150592618,02/28/2015,2020 PEACHTREE RD NW,207,,E,33.80991,-84.39361,
LARCENY-FROM VEHICLE,150592435,02/28/2015,1959 METROPOLITAN PKWY SW,306,Sylvan Hills,X,33.7008,-84.41018,
LARCENY-FROM VEHICLE,150591351,02/28/2015,2900 LANDRUM DR SW,409,Southwest,R,33.70495,-84.48299,
LARCENY-FROM VEHICLE,150591799,02/28/2015,360 MARIETTA ST NW,507,Downtown,M,33.76269,-84.39702,
LARCENY-FROM VEHICLE,150591775,02/28/2015,1097 HARWELL RD NW @BLUE FLAME,112,Collier Heights,I,33.7852,-84.4911,
LARCENY-FROM VEHICLE,150591699,02/28/2015,400 17TH ST NW,501,Atlantic Station,E,33.78959,-84.40165,
LARCENY-FROM VEHICLE,150591645,02/28/2015,1551 METROPOLITAN PKWY SW,301,Capitol View,X,33.71274,-84.40824,
LARCENY-FROM VEHICLE,150591560,02/28/2015,1065 PEACHTREE ST NE,503,Midtown,E,33.78363,-84.38295,
LARCENY-FROM VEHICLE,150591533,02/28/2015,1222 MECASLIN ST NW,501,Home Park,E,33.78794,-84.39991,
LARCENY-FROM VEHICLE,150591508,02/28/2015,3443 KINGSBORO RD NE,210,Buckhead Heights,B,33.84984,-84.35795,
LARCENY-FROM VEHICLE,150591473,02/28/2015,433 HIGHLAND AVE NE,604,Old Fourth Ward,M,33.76128,-84.37323,
LARCENY-FROM VEHICLE,150591454,02/28/2015,390 17TH ST NW,501,Atlantic Station,E,33.7902,-84.4003,
LARCENY-FROM VEHICLE,150591404,02/28/2015,1400 GARMON FERRY RD NW,202,Mt. Paran/Northside,A,33.87047,-84.42723,
LARCENY-FROM VEHICLE,150590032,02/28/2015,676 HIGHLAND AVE NE,604,Old Fourth Ward,M,33.76142,-84.36492,
LARCENY-FROM VEHICLE,150591376,02/28/2015,456 HAROLD AVE NE,608,Lake Claire,N,33.76665,-84.33093,
LARCENY-FROM VEHICLE,150590383,02/28/2015,153 ELEANOR ST SE,610,Kirkwood,O,33.74878,-84.32447,
LARCENY-FROM VEHICLE,150590922,02/28/2015,935 MARIETTA ST NW,504,Marietta Street Artery,E,33.7778,-84.40865,
LARCENY-FROM VEHICLE,150590938,02/28/2015,1230 PLAZA AVE SW,402,Bush Mountain,S,33.72795,-84.4281,
LARCENY-FROM VEHICLE,150590962,02/28/2015,759 POLLARD BLVD SW ,304,Summerhill,V,33.73405,-84.39127,
LARCENY-FROM VEHICLE,150591945,02/28/2015,3660 CAMP CREEK PKWY SW,414,Princeton Lakes,P,33.65486,-84.50787,
LARCENY-FROM VEHICLE,150592894,02/28/2015,146 PEACHTREE CENTER AVE NE,510,Downtown,M,33.7586,-84.38618,
LARCENY-FROM VEHICLE,150591544,02/28/2015,3218 ARDEN RD NW,205,Argonne Forest,C,33.84299,-84.39799,
LARCENY-FROM VEHICLE,150591343,02/28/2015,2327 PEACHTREE RD NE,211,Peachtree Hills,B,33.81842,-84.3887,
LARCENY-NON VEHICLE,150591369,02/28/2015,1120 RALPH D ABERNATHY BLVD SW,402,West End,T,33.73801,-84.42451,
LARCENY-NON VEHICLE,150590889,02/28/2015,427 EDGEWOOD AVE SE,604,Sweet Auburn,M,33.75413,-84.37361,
LARCENY-NON VEHICLE,150593018,02/28/2015,1660 JOHNSON RD NW,106,Rockdale,G,33.78533,-84.43909,
LARCENY-NON VEHICLE,150592900,02/28/2015,3566 PIEDMONT RD NE,208,Buckhead Forest,B,33.85134,-84.37963,
LARCENY-NON VEHICLE,150591666,02/28/2015,835 MARTIN L KING JR DR NW,102,Vine City,L,33.75504,-84.41457,
LARCENY-NON VEHICLE,150591918,02/28/2015,3182 ROSWELL RD NW,206,South Tuxedo Park,B,33.84215,-84.37968,
AUTO THEFT,150591407,02/28/2015,1998 FAIRBURN RD SW,412,Briar Glen,P,33.69997,-84.50632,
AUTO THEFT,150590275,02/28/2015,670 MCDANIEL ST SW,303,Mechanicsville,V,33.73657,-84.40153,
AUTO THEFT,150590738,02/28/2015,1303 LAKESIDE VILLAGE DR SE,611,The Villages at East Lake,O,33.74369,-84.31476,
AUTO THEFT,150590819,02/28/2015,3733 PEACHTREE RD NE,210,Ridgedale Park,B,33.85586,-84.35057,
AUTO THEFT,150590957,02/28/2015,445 CLEVELAND AVENUE SE,312,Rosedale Heights,Z,33.68149,-84.37152,
AUTO THEFT,150591625,02/28/2015,3660 CAMP CREEK PKWY SW,414,Princeton Lakes,P,33.65486,-84.50787,
AUTO THEFT,150591357,02/28/2015,815 LYNHURST DR SW @WEST MANOR BAPTIST,406,West Manor,I,33.73375,-84.48896,
AUTO THEFT,150592148,02/28/2015,630 CENTER HILL AVE NW,109,Center Hill,J,33.77226,-84.46451,
AUTO THEFT,150592389,02/28/2015,3526 HIGHWOOD DR SW,412,Briar Glen,P,33.69565,-84.50411,
AUTO THEFT,150592882,02/28/2015,3670 CAMP CREEK PKWY SW,414,Princeton Lakes,P,33.655,-84.50859,
AUTO THEFT,150592566,02/28/2015,48 NORTHSIDE DR NW,102,Vine City,L,33.75584,-84.4029,
AUTO THEFT,150580585,02/27/2015,641 JONES AVE NW,103,English Avenue,L,33.76434,-84.40839,
AUTO THEFT,150581432,02/27/2015,370 NORTHSIDE DR NW,103,English Avenue,L,33.76507,-84.4042,
AUTO THEFT,150581580,02/27/2015,55 MAPLE ST NW,102,Vine City,L,33.75569,-84.40528,
AUTO THEFT,150583257,02/27/2015,2685 METROPOLITAN PKWY SW,309,Perkerson,X,33.68274,-84.40902,
AUTO THEFT,150582356,02/27/2015,2841 GREENBRIAR PKWY SW @GREENBRIAR MALL,411,Greenbriar,R,33.68677,-84.49773,
AUTO THEFT,150582674,02/27/2015,130 W PEACHTREE ST,508,Downtown,M,33.76465,-84.39115,
AUTO THEFT,150582685,02/27/2015,1839 KIMBERLY RD SW,412,Ben Hill Terrace,P,33.70427,-84.52215,
LARCENY-NON VEHICLE,150583348,02/27/2015,931 MONROE DR NE,506,Downtown,M,33.75757,-84.39487,
LARCENY-NON VEHICLE,150582681,02/27/2015,2980 DELMAR LN NW,111,,I,33.75509,-84.48491,
LARCENY-NON VEHICLE,150588031,02/27/2015,6000 S TERMINAL PKWY,704,,,33.63751,-84.44824,
LARCENY-NON VEHICLE,150582656,02/27/2015,1105 EUCLID AVE NE,602,Inman Park,N,33.76403,-84.35081,
LARCENY-NON VEHICLE,150582272,02/27/2015,181 PEACHTREE ST NE @RITZ,510,Downtown,M,33.75861,-84.3872,
LARCENY-NON VEHICLE,150581710,02/27/2015,818 POLLARD BOULEVARD,304,Summerhill,V,33.73249,-84.39017,
LARCENY-NON VEHICLE,150583266,02/27/2015,415 MORELAND AVE SE,606,Ormewood Park,W,33.74265,-84.34963,
LARCENY-NON VEHICLE,150583051,02/27/2015,2685 METROPOLITAN PKWY SW,309,Perkerson,X,33.68274,-84.40902,
LARCENY-NON VEHICLE,150581619,02/27/2015,112 COURTLAND ST NE,510,Downtown,M,33.7574,-84.38475,
LARCENY-NON VEHICLE,150580793,02/27/2015,2069 DODSON DR SW,410,Campbellton Road,R,33.69874,-84.47546,
LARCENY-NON VEHICLE,150582445,02/27/2015,3350 MT GILEAD,409,Southwest,R,33.6982,-84.49859,
LARCENY-FROM VEHICLE,150582931,02/27/2015,3181 DONALD LEE HOLLOWELL PKWY NW @PETRO TRUCK STOP,113,Brookview Heights,G,33.78619,-84.49113,
LARCENY-FROM VEHICLE,150581686,02/27/2015,294 BOULDER PARK DRIVE SW,411,,I,33.75087,-84.4957,
AUTO THEFT,150582572,02/27/2015,1931 CHESHIRE BRIDGE RD NE,213,Morningside/Lenox Park,F,33.80989,-84.35965,
LARCENY-FROM VEHICLE,150583128,02/27/2015,1170 HOWELL MILL RD NW,501,Home Park,E,33.7858,-84.41208,
LARCENY-FROM VEHICLE,150583358,02/27/2015,303 PEACHTREE ST NE,509,Downtown,M,33.76265,-84.38648,
LARCENY-FROM VEHICLE,150583031,02/27/2015,462 SEMINOLE AVE NE,602,Inman Park,N,33.76658,-84.35028,
LARCENY-FROM VEHICLE,150583231,02/27/2015,170 NORTHSIDE DR SW,507,Castleberry Hill,M,33.7499,-84.40371,
LARCENY-FROM VEHICLE,150583232,02/27/2015,128 E ANDREWS DR NW,206,South Tuxedo Park,B,33.84251,-84.38311,
LARCENY-FROM VEHICLE,150583349,02/27/2015,1402 N HIGHLAND AVE NE,213,Morningside/Lenox Park,F,33.79282,-84.35257,
LARCENY-FROM VEHICLE,150582907,02/27/2015,48 MARTIN L KING JR DR SW,512,Downtown,M,33.75033,-84.38958,
LARCENY-FROM VEHICLE,150582857,02/27/2015,1100 AUSTIN AVE NE,602,Inman Park,N,33.76206,-84.35165,
LARCENY-FROM VEHICLE,150582756,02/27/2015,180 JACKSON ST NE,604,Sweet Auburn,M,33.75932,-84.37442,
LARCENY-FROM VEHICLE,150582219,02/27/2015,904 CHARLES ALLEN DR NE,506,Midtown,E,33.77918,-84.37296,
LARCENY-FROM VEHICLE,150582031,02/27/2015,1117 W PEACHTREE ST NE,503,Midtown,E,33.78506,-84.38771,
LARCENY-FROM VEHICLE,150581912,02/27/2015,150 FORSYTH ST SW,512,Downtown,M,33.75055,-84.39517,
LARCENY-FROM VEHICLE,150581548,02/27/2015,1561 MCLENDON AVE NE,608,Candler Park,N,33.76471,-84.33634,
LARCENY-FROM VEHICLE,150581422,02/27/2015,1051 LINDBERGH DR NE,212,Lindridge/Martin Manor,F,33.81881,-84.35372,
LARCENY-FROM VEHICLE,150581215,02/27/2015,410 CANDLER PARK DR NE,608,Candler Park,N,33.7658,-84.34036,
LARCENY-FROM VEHICLE,150580906,02/27/2015,3775 MAYS XING SW,407,Fairburn Mays,H,33.73466,-84.51316,
LARCENY-FROM VEHICLE,150580050,02/27/2015,462 SEMINOLE AVE NE,602,Inman Park,N,33.76658,-84.35028,
LARCENY-FROM VEHICLE,150583229,02/27/2015,50 OLD IVY RD NE,209,North Buckhead,B,33.85469,-84.38105,
LARCENY-NON VEHICLE,150581285,02/27/2015,595 PIEDMONT AVE NE @PUBLIX - PIEDMONT,603,Old Fourth Ward,M,33.77067,-84.38023,
LARCENY-NON VEHICLE,150581928,02/27/2015,2525 PIEDMONT RD NE,211,Lindbergh/Morosgo,B,33.824,-84.36521,
LARCENY-NON VEHICLE,150582914,02/27/2015,1015 W MARIETTA ST NW,106,Knight Park/Howell Station,K,33.78518,-84.42022,
LARCENY-NON VEHICLE,150582379,02/27/2015,3393 PEACHTREE RD NE @LENOX MALL,210,Lenox,B,33.84676,-84.36212,
LARCENY-NON VEHICLE,150582086,02/27/2015,1801 HOWELL MILL RD NW,204,Berkeley Park,D,33.80388,-84.41278,
LARCENY-NON VEHICLE,150580968,02/27/2015,2399 PIEDMONT RD NE,211,Lindbergh/Morosgo,B,33.82039,-84.36744,
BURGLARY-RESIDENCE,150611193,02/27/2015,3280 NORTHSIDE PKWY NW,201,,C,33.84481,-84.42602,
BURGLARY-RESIDENCE,150581889,02/27/2015,855 W PEACHTREE ST NE,505,Midtown,E,33.77773,-84.38718,
BURGLARY-RESIDENCE,150582701,02/27/2015,1631 STANTON RD SW,408,,R,33.71076,-84.4438,
BURGLARY-RESIDENCE,150582703,02/27/2015,4291 NOTTING HILL DR SW,413,Arlington Estates,P,33.6947,-84.5354,
BURGLARY-RESIDENCE,150582024,02/27/2015,4010 PARIAN RIDGE RD NW,201,Pleasant Hill,A,33.86064,-84.44009,
BURGLARY-RESIDENCE,150581623,02/27/2015,1311 WICHITA DR SW,408,Venetian Hills,S,33.72017,-84.44218,
BURGLARY-RESIDENCE,150581684,02/27/2015,1358 PLAZA AVE SW,402,Bush Mountain,S,33.72789,-84.43217,
BURGLARY-RESIDENCE,150581304,02/27/2015,745 FLORENCE PL NW,110,Grove Park,J,33.77572,-84.44178,
BURGLARY-RESIDENCE,150581481,02/27/2015,1572 HARDEE ST NE,609,Edgewood,O,33.75546,-84.33644,
BURGLARY-RESIDENCE,150581885,02/27/2015,460 HARLAN RD SW,406,Peyton Forest,I,33.74474,-84.48157,
BURGLARY-RESIDENCE,150581847,02/27/2015,3280 NORTHSIDE PKWY NW,201,,C,33.84481,-84.42602,
AGG ASSAULT,150582805,02/27/2015,1975 ALISON CT SW,410,Campbellton Road,R,33.70081,-84.45327,
AGG ASSAULT,150583113,02/27/2015,71 CARTER AVE SE,611,East Lake,O,33.74986,-84.30549,
AGG ASSAULT,150583304,02/27/2015,532 CLEVELAND AVE SW,311,Hammond Park,X,33.68116,-84.4059,
ROBBERY-RESIDENCE,150580576,02/27/2015,1944 PIEDMONT CIR NE,212,Piedmont Heights,F,33.81069,-84.36785,
ROBBERY-PEDESTRIAN,150580208,02/27/2015,690 LINDBERGH DR NE,211,Lindbergh/Morosgo,B,33.8209,-84.36534,
ROBBERY-COMMERCIAL,150581554,02/27/2015,1801 HOWELL MILL RD NW,204,Berkeley Park,D,33.80448,-84.41348,
ROBBERY-COMMERCIAL,150581194,02/27/2015,979 VIRGINIA AVENUE,601,,,33.3782,-70.43553,
ROBBERY-PEDESTRIAN,150583195,02/27/2015,768 ATWOOD ST SW,402,West End,T,33.73433,-84.42926,
ROBBERY-PEDESTRIAN,150583037,02/27/2015,3268 CASCADE PARC BLVD SW,409,Southwest,R,33.69958,-84.49611,
ROBBERY-PEDESTRIAN,150583409,02/27/2015,2423 MARTIN L KING JR DR NW,108,Florida Heights,I,33.75183,-84.46623,
ROBBERY-PEDESTRIAN,150572960,02/26/2015,740 COOPER ST SW,303,Mechanicsville,V,33.73479,-84.39671,
ROBBERY-PEDESTRIAN,150571604,02/26/2015,3103 ESPLANADE CIR SW,409,Southwest,R,33.70486,-84.49297,
AGG ASSAULT,150572957,02/26/2015,1798 HADLOCK ST SW,408,,R,33.70615,-84.44611,
AGG ASSAULT,150571512,02/26/2015,675 TARA CIR SE,313,South River Gardens,Z,33.66531,-84.36693,
AGG ASSAULT,150571062,02/26/2015,249 CHAPPELL RD NW,105,Hunter Hills,K,33.76195,-84.43314,
BURGLARY-RESIDENCE,150571542,02/26/2015,214 COLONIAL HOMES DR NW,205,Colonial Homes,C,33.81392,-84.39454,
BURGLARY-RESIDENCE,150570734,02/26/2015,3270 AMHURST DR NW,112,Collier Heights,I,33.77346,-84.49459,
BURGLARY-RESIDENCE,150572534,02/26/2015,2322 1ST AVE NE,610,Kirkwood,O,33.75452,-84.31138,
BURGLARY-RESIDENCE,150571126,02/26/2015,340 LISA CT SW,405,Chalet Woods,I,33.74647,-84.4739,
BURGLARY-RESIDENCE,150570837,02/26/2015,733 PEEPLES ST SW,401,West End,T,33.73496,-84.42072,
BURGLARY-RESIDENCE,150572006,02/26/2015,1620 HOLLYWOOD RD NW,113,Scotts Crossing,G,33.79988,-84.47023,
BURGLARY-RESIDENCE,150572997,02/26/2015,904 SMITH ST SW,302,Pittsburgh,V,33.73025,-84.40056,
BURGLARY-RESIDENCE,150572787,02/26/2015,210 HAYGOOD AVE SE,304,Peoplestown,V,33.72635,-84.38113,
BURGLARY-RESIDENCE,150572867,02/26/2015,960 SELLS AVE SW,104,Harris Chiles,T,33.74528,-84.41973,
BURGLARY-RESIDENCE,150572721,02/26/2015,60 12TH ST NE,503,Midtown,E,33.78483,-84.3857,
BURGLARY-RESIDENCE,150572338,02/26/2015,756 LEXINGTON AVE SW,301,Adair Park,V,33.72482,-84.41237,
BURGLARY-RESIDENCE,150572252,02/26/2015,601 CLIFTON RD NE,608,Lake Claire,N,33.77066,-84.33267,
BURGLARY-NONRES,150570426,02/26/2015,667 11TH ST NW,501,Home Park,E,33.78309,-84.40882,
BURGLARY-NONRES,150570281,02/26/2015,1925 NISKEY LAKE RD SW @APS BUNCHE MS,412,,P,33.70106,-84.53062,
BURGLARY-NONRES,150570915,02/26/2015,1648 MEMORIAL DR SE,610,Kirkwood,O,33.74781,-84.33355,
LARCENY-NON VEHICLE,150571854,02/26/2015,2429 MARTIN L KING JR DR NW,108,Florida Heights,I,33.75246,-84.46669,
LARCENY-NON VEHICLE,150572501,02/26/2015,3440 PEACHTREE RD NE,208,Buckhead Forest,B,33.84281,-84.37299,
LARCENY-NON VEHICLE,150571807,02/26/2015,1225 CAROLINE ST NE,609,Edgewood,O,33.75605,-84.34813,
LARCENY-NON VEHICLE,150572348,02/26/2015,895 RALPH D ABERNATHY BLVD SW,401,West End,T,33.7398,-84.41751,
LARCENY-NON VEHICLE,150571729,02/26/2015,152 DECATUR ST SE,510,Downtown,M,33.7514,-84.38513,
LARCENY-NON VEHICLE,150572166,02/26/2015,2685 METROPOLITAN PKWY SW,309,Perkerson,X,33.68274,-84.40902,
LARCENY-NON VEHICLE,150571635,02/26/2015,950 W PEACHTREE ST NW,503,Midtown,E,33.7805,-84.38752,
LARCENY-NON VEHICLE,150571315,02/26/2015,2720 METROPOLITAN PKWY SW,311,Hammond Park,X,33.68067,-84.4072,
LARCENY-FROM VEHICLE,150570764,02/26/2015,490 GLENN ST SW,303,Mechanicsville,V,33.73805,-84.40262,
LARCENY-FROM VEHICLE,150573309,02/26/2015,25 ELLIS ST NE,510,Downtown,M,33.75833,-84.3867,
LARCENY-FROM VEHICLE,150573302,02/26/2015,470 FLAT SHOALS AVE SE,612,East Atlanta,W,33.74128,-84.34622,
LARCENY-FROM VEHICLE,150573298,02/26/2015,3321 LENOX RD NE,210,Lenox,B,33.84573,-84.35882,
LARCENY-FROM VEHICLE,150572835,02/26/2015,1194 MANSFIELD AVE NE,608,Candler Park,N,33.76788,-84.34874,
LARCENY-FROM VEHICLE,150572821,02/26/2015,1029 PEACHTREE ST NE,503,Midtown,E,33.78264,-84.38382,
LARCENY-FROM VEHICLE,150572396,02/26/2015,1120 ARLINGTON AVE SW,403,Oakland City,S,33.7241,-84.42481,
LARCENY-FROM VEHICLE,150572247,02/26/2015,546 MITCHELL ST SW,101,Atlanta University Center,T,33.7538,-84.40421,
LARCENY-FROM VEHICLE,150572033,02/26/2015,2353 BOLTON RD NW,203,Bolton,D,33.81974,-84.46057,
LARCENY-FROM VEHICLE,150571994,02/26/2015,925 EUCLID AVE NE,602,Inman Park,N,33.75862,-84.35586,
LARCENY-FROM VEHICLE,150571803,02/26/2015,872 PEACHTREE ST NE,505,Midtown,E,33.77868,-84.3844,
LARCENY-FROM VEHICLE,150571733,02/26/2015,529 PEACHTREE ST NE,509,Downtown,M,33.76896,-84.38487,
LARCENY-FROM VEHICLE,150573495,02/26/2015,1889 MCLENDON AVE NE,608,Lake Claire,N,33.76457,-84.32546,
LARCENY-FROM VEHICLE,150573487,02/26/2015,470 16TH ST NW,501,Home Park,E,33.78747,-84.40479,
LARCENY-FROM VEHICLE,150573451,02/26/2015,1700 NORTHSIDE DR NW,207,Berkeley Park,D,33.80077,-84.40869,
AUTO THEFT,150570557,02/26/2015,2524 MARTIN L KING JR DR SW,405,Harland Terrace,I,33.75285,-84.47033,
AUTO THEFT,150570731,02/26/2015,2524 MARTIN L KING JR DR SW,404,Harland Terrace,I,33.75285,-84.47033,
AUTO THEFT,150572506,02/26/2015,2446 BELLVIEW AVE NW,109,Center Hill,J,33.77708,-84.4672,
AUTO THEFT,150570747,02/26/2015,400 FAIRBURN RD SW,407,Fairburn Mays,H,33.74366,-84.50936,
LARCENY-NON VEHICLE,150571399,02/26/2015,40 COURTLAND ST NE,510,Downtown,M,33.7558,-84.38437,
LARCENY-NON VEHICLE,150571213,02/26/2015,470 THOMASVILLE BLVD SE,308,Thomasville Heights,Z,33.70599,-84.35963,
LARCENY-NON VEHICLE,150571710,02/26/2015,340 BOULEVARD NE,604,Old Fourth Ward,M,33.76359,-84.37235,
LARCENY-NON VEHICLE,150571558,02/26/2015,80 JESSE HILL JR DR SE @GRADY,510,Downtown,M,33.75168,-84.38198,
LARCENY-NON VEHICLE,150572229,02/26/2015,415 MEMORIAL DR SE,605,Grant Park,W,33.74652,-84.37423,
LARCENY-NON VEHICLE,150578050,02/26/2015,7700 SPINE ROAD,703,,,33.6416,-84.44189,
LARCENY-NON VEHICLE,150571467,02/26/2015,2086 GENERAL TRUMAN ST NW,203,Bolton,D,33.81307,-84.44686,
LARCENY-NON VEHICLE,150571758,02/26/2015,850 OAK ST SW @WEST END MALL,401,West End,T,33.74053,-84.41671,
LARCENY-NON VEHICLE,150578062,02/26/2015,6000 S TERMINAL PKWY,704,,,33.64184,-84.4477,
AUTO THEFT,150573327,02/26/2015,1090 HOLLYWOOD RD NW,109,Almond Park,G,33.78472,-84.46124,
AUTO THEFT,150573199,02/26/2015,370 NORTHSIDE DR NW,103,English Avenue,L,33.76527,-84.40498,
AUTO THEFT,150571058,02/26/2015,2500 CENTER ST NW,113,Carey Park,G,33.78999,-84.47156,
AUTO THEFT,150570797,02/26/2015,2423 MARTIN L KING JR DR NW,108,Florida Heights,I,33.75183,-84.46623,
AUTO THEFT,150571001,02/26/2015,93 ROCKY FORD RD NE,610,Kirkwood,O,33.7544,-84.31602,
AUTO THEFT,150572620,02/26/2015,921 WESTMORELAND CIR NW,110,West Highlands,G,33.78956,-84.44919,
AUTO THEFT,150563009,02/25/2015,2020 BOLTON RD NW,203,Riverside,D,33.81125,-84.47594,
AUTO THEFT,150562608,02/25/2015,953 EULALIA RD NE,210,Ridgedale Park,B,33.85218,-84.35602,
AUTO THEFT,150562554,02/25/2015,1554 AUSTIN RD SW,412,Old Fairburn Village,P,33.7117,-84.5096,
AUTO THEFT,150560600,02/25/2015,2779 GRAND AVE SW,311,Hammond Park,X,33.67902,-84.40049,
AUTO THEFT,150560626,02/25/2015,2356 COUNTY LINE RD SW,413,Elmco Estates,P,33.6912,-84.53419,
AUTO THEFT,150560992,02/25/2015,595 W LAKE AVE NW,107,Grove Park,J,33.7717,-84.44165,
LARCENY-NON VEHICLE,150561609,02/25/2015,391 17TH ST NW,501,Atlantic Station,E,33.79109,-84.40088,
LARCENY-NON VEHICLE,150561928,02/25/2015,590 W PEACHTREE ST NW ,509,Downtown,M,33.77023,-84.38815,
LARCENY-NON VEHICLE,150562567,02/25/2015,199 14TH ST NE,503,Midtown,E,33.78639,-84.38045,
LARCENY-NON VEHICLE,150562142,02/25/2015,2452 PIEDMONT RD NE,211,Lindbergh/Morosgo,B,33.82264,-84.36743,
LARCENY-NON VEHICLE,150562391,02/25/2015,3181 DONALD LEE HOLLOWELL PKWY NW @PETRO TRUCK STOP,113,Brookview Heights,G,33.78619,-84.49113,
AUTO THEFT,150561795,02/25/2015,183 MOUNT ZION RD SE,312,Glenrose Heights,Z,33.67268,-84.38507,
LARCENY-FROM VEHICLE,150562738,02/25/2015,232 FORSYTH ST SW ,512,Downtown,M,33.74852,-84.39636,
LARCENY-FROM VEHICLE,150561551,02/25/2015,80 JESSE HILL JR DR,510,Downtown,M,33.75187,-84.38083,
LARCENY-FROM VEHICLE,150560902,02/25/2015,965 MYRTLE ST NE,503,Midtown,E,33.78095,-84.3793,
LARCENY-FROM VEHICLE,150560561,02/25/2015,588 WIMBLEDON RD NE,212,Piedmont Heights,F,33.80662,-84.36757,
LARCENY-FROM VEHICLE,150560169,02/25/2015,1360 PEACHTREE ST NE,502,Midtown,E,33.79129,-84.38686,
LARCENY-NON VEHICLE,150562785,02/25/2015,1219 METROPOLITAN PKWY SW,301,Adair Park,V,33.72142,-84.40796,
LARCENY-NON VEHICLE,150562523,02/25/2015,3012 JONESBORO RD SE,313,South River Gardens,Z,33.67225,-84.37156,
LARCENY-NON VEHICLE,150560967,02/25/2015,590 CASCADE AVE SW ,402,West End,T,33.73812,-84.43276,
LARCENY-NON VEHICLE,150562004,02/25/2015,1801 HOWELL MILL RD NW,204,Berkeley Park,D,33.80388,-84.41278,
LARCENY-NON VEHICLE,150561569,02/25/2015,3030 HEADLAND DR SW,411,Greenbriar,R,33.68841,-84.48742,
LARCENY-NON VEHICLE,150562456,02/25/2015,1225 CAROLINE ST NE,609,Edgewood,O,33.75605,-84.34813,
LARCENY-NON VEHICLE,150561241,02/25/2015,897 OAKHILL AVE SW,301,Adair Park,V,33.73049,-84.40942,
BURGLARY-NONRES,150561171,02/25/2015,975 BEECHER ST SW,401,West End,T,33.73348,-84.41978,
BURGLARY-RESIDENCE,150561339,02/25/2015,710 PEACHTREE ST NE,505,Midtown,E,33.77411,-84.38484,
BURGLARY-RESIDENCE,150561692,02/25/2015,174 MOURY AVE SW,305,The Villages at Carver,Y,33.71328,-84.39059,
BURGLARY-RESIDENCE,150561406,02/25/2015,2733 BAKER RIDGE DR NW,112,Collier Heights,I,33.76845,-84.47724,
BURGLARY-RESIDENCE,150561587,02/25/2015,113 DOGWOOD DR NW,112,Collier Heights,I,33.78147,-84.4949,
BURGLARY-RESIDENCE,150562090,02/25/2015,1752 PRYOR RD SW,307,Betmar LaVilla,Y,33.70731,-84.39674,
BURGLARY-RESIDENCE,150562083,02/25/2015,868 DECKNER AVE SW,306,Sylvan Hills,X,33.7141,-84.41659,
BURGLARY-RESIDENCE,150561699,02/25/2015,133 TRINITY AVE SW,512,Downtown,M,33.74899,-84.39215,
AGG ASSAULT,150562477,02/25/2015,86 HOLLY RD NW,105,West Lake,J,33.75738,-84.43804,
BURGLARY-RESIDENCE,150561886,02/25/2015,1120 ALTA AVE NE,602,Inman Park,N,33.76107,-84.3511,
AGG ASSAULT,150562539,02/25/2015,478 PEACHTREE ST NE,509,Downtown,M,33.76791,-84.386,
AGG ASSAULT,150560294,02/25/2015,371 BETSY AVE SW,405,Florida Heights,I,33.74576,-84.45827,
ROBBERY-COMMERCIAL,150562825,02/25/2015,3800 PRINCETON LAKES PKWY SW,414,Princeton Lakes,P,33.65635,-84.51327,
ROBBERY-PEDESTRIAN,150561933,02/25/2015,3400 AROUND LENOX DR NE @AROUND LENOX,210,Lenox,B,33.84578,-84.36489,
ROBBERY-PEDESTRIAN,150560115,02/25/2015,547 BROYLES ST SE,605,Grant Park,W,33.73972,-84.37796,
ROBBERY-PEDESTRIAN,150560329,02/25/2015,374 MACEDONIA RD SE,312,Orchard Knob,Z,33.66403,-84.37786,
ROBBERY-PEDESTRIAN,150562475,02/25/2015,1520 BREWER BLVD SW,306,Sylvan Hills,X,33.71326,-84.41664,
ROBBERY-PEDESTRIAN,150562410,02/25/2015,1220 GUN CLUB RD NW,110,Almond Park,G,33.78792,-84.45877,
ROBBERY-PEDESTRIAN,150562591,02/25/2015,1860 JOSEPH E BOONE BLVD NW,108,Dixie Hills,J,33.76352,-84.44765,
ROBBERY-PEDESTRIAN,150552967,02/24/2015,2640 METROPOLITAN PKWY SW,309,Perkerson,X,33.68263,-84.40744,
ROBBERY-PEDESTRIAN,150552708,02/24/2015,1871 PLAZA LN SW,410,Campbellton Road,R,33.70518,-84.45336,
ROBBERY-PEDESTRIAN,150552857,02/24/2015,510 MUSE ST SW,401,Westview,T,33.74121,-84.43339,
ROBBERY-RESIDENCE,150550483,02/24/2015,508 MAIN ST NE,211,Lindbergh/Morosgo,B,33.8227,-84.37056,
AGG ASSAULT,150542698,02/24/2015,361 17TH STREET,501,Atlantic Station,E,33.79127,-84.39851,
AGG ASSAULT,150550718,02/24/2015,225 FORSYTH ST SW,512,Downtown,M,33.74868,-84.39704,
AGG ASSAULT,150550229,02/24/2015,449 OLIVER ST NW,103,English Avenue,L,33.767,-84.41532,
BURGLARY-RESIDENCE,150552100,02/24/2015,240 N HIGHLAND AVE NE,602,Inman Park,N,33.76183,-84.36026,
BURGLARY-RESIDENCE,150552275,02/24/2015,525 GLEN IRIS DR NE,603,Old Fourth Ward,M,33.76819,-84.36763,
BURGLARY-RESIDENCE,150550895,02/24/2015,1885 GODDARD ST SE,308,Thomasville Heights,Z,33.70163,-84.35724,
BURGLARY-RESIDENCE,150551277,02/24/2015,100 CENTENNIAL OLYMPIC P DR NW ,507,Downtown,M,33.75733,-84.39635,
BURGLARY-RESIDENCE,150550137,02/24/2015,3080 IMPERIAL CIR SW,409,Southwest,R,33.69861,-84.49522,
BURGLARY-RESIDENCE,150551371,02/24/2015,115 SCRUGGS CT NE,609,Edgewood,O,33.75677,-84.33625,
BURGLARY-RESIDENCE,150551525,02/24/2015,657 BOULEVARD NE,603,Old Fourth Ward,M,33.77246,-84.37103,
LARCENY-NON VEHICLE,150552591,02/24/2015,375 18TH ST NW,501,Atlantic Station,E,33.79163,-84.40099,
LARCENY-NON VEHICLE,150551740,02/24/2015,1275 CAROLINE ST NE,609,Edgewood,O,33.75674,-84.34619,
LARCENY-NON VEHICLE,150550609,02/24/2015,590 CASCADE AVE SW @KROGER - CASCADE,402,West End,T,33.73812,-84.43276,
LARCENY-NON VEHICLE,150551773,02/24/2015,30 E ANDREWS DR NW,206,South Tuxedo Park,B,33.84327,-84.38028,
LARCENY-NON VEHICLE,150551823,02/24/2015,3730 CARMIA DR SW,414,Princeton Lakes,P,33.65528,-84.5102,
LARCENY-NON VEHICLE,150552801,02/24/2015,3393 PEACHTREE RD NE @LENOX MALL,210,Lenox,B,33.84676,-84.36212,
LARCENY-NON VEHICLE,150552651,02/24/2015,3393 PEACHTREE RD NE @ NEIMAN MARCUS,210,Lenox,B,33.84676,-84.36212,
LARCENY-NON VEHICLE,150552912,02/24/2015,3393 PEACHTREE RD,210,Lenox,B,33.84676,-84.36212,
LARCENY-FROM VEHICLE,150552924,02/24/2015,3459 BUCKHEAD LOOP NE,208,North Buckhead,B,33.85119,-84.36313,
LARCENY-FROM VEHICLE,150552893,02/24/2015,3030 HEADLAND DR SW,411,Greenbriar,R,33.68841,-84.48742,
LARCENY-FROM VEHICLE,150552750,02/24/2015,660 9TH ST NW,501,Home Park,E,33.78051,-84.40903,
LARCENY-FROM VEHICLE,150552740,02/24/2015,768 MARIETTA ST NW,504,Marietta Street Artery,E,33.77331,-84.40403,
LARCENY-FROM VEHICLE,150550806,02/24/2015,4268 KIMBALL RD SW,413,Elmco Estates,P,33.68721,-84.53225,
LARCENY-FROM VEHICLE,150551960,02/24/2015,539 TERRACE AVE NE,608,Candler Park,N,33.76899,-84.33574,
LARCENY-FROM VEHICLE,150551009,02/24/2015,1605 DONALD LEE HOLLOWELL PKWY NW,110,Grove Park,J,33.773,-84.43982,
LARCENY-FROM VEHICLE,150550650,02/24/2015,145 WELLINGTON ST SW,104,Mozley Park,K,33.75124,-84.43848,
LARCENY-FROM VEHICLE,150550608,02/24/2015,471 PETERS ST SW,101,Atlanta University Center,T,33.74343,-84.40922,
LARCENY-FROM VEHICLE,150550489,02/24/2015,467 W ONTARIO AVE SW,404,Westview,T,33.7425,-84.44,
LARCENY-FROM VEHICLE,150551063,02/24/2015,993 HILBURN DR SE,612,East Atlanta,W,33.72732,-84.32743,
LARCENY-FROM VEHICLE,150551118,02/24/2015,1800 HOWELL MILL RD NW,204,Underwood Hills,D,33.80479,-84.41455,
LARCENY-FROM VEHICLE,150551527,02/24/2015,2719 ARBOR AVE SE,611,East Lake,O,33.74986,-84.29788,
LARCENY-FROM VEHICLE,150551634,02/24/2015,1349 W PEACHTREE ST NE,502,Midtown,E,33.79162,-84.3874,
LARCENY-FROM VEHICLE,150552739,02/24/2015,748 10TH ST NW,501,Home Park,E,33.78136,-84.41176,
LARCENY-FROM VEHICLE,150551741,02/24/2015,95 COLLIER RD NW,207,,E,33.8082,-84.39682,
LARCENY-FROM VEHICLE,150552732,02/24/2015,85 JOHN WESLEY DOBBS AVE NE,510,Downtown,M,33.75684,-84.38475,
LARCENY-FROM VEHICLE,150552044,02/24/2015,436 PEACHTREE ST NE,509,Downtown,M,33.7664,-84.3859,
LARCENY-FROM VEHICLE,150552071,02/24/2015,349 N HIGHLAND AVE NE,602,Inman Park,N,33.76346,-84.35635,
LARCENY-FROM VEHICLE,150552172,02/24/2015,65 HOGUE ST NE,604,Old Fourth Ward,M,33.75614,-84.37087,
LARCENY-FROM VEHICLE,150552296,02/24/2015,285 CENTENNIAL OLYMPIC PARK DR NW,508,Downtown,M,33.76259,-84.39191,
LARCENY-FROM VEHICLE,150552637,02/24/2015,870 NORTHSIDE DR NW,504,Marietta Street Artery,E,33.77859,-84.40794,
LARCENY-FROM VEHICLE,150550864,02/24/2015,1890 MYRTLE DR SW,410,Campbellton Road,R,33.70222,-84.45276,
LARCENY-FROM VEHICLE,150551691,02/24/2015,2000 MARIETTA BLVD NW @CRESTLAWN CEMETARY,203,Hills Park,D,33.80871,-84.43845,
LARCENY-NON VEHICLE,150553039,02/24/2015,1510 PIEDMONT AVE NE,213,Piedmont Heights,F,33.79619,-84.37,
LARCENY-NON VEHICLE,150552978,02/24/2015,180 CARROLL ST SE,606,Cabbagetown,N,33.74962,-84.36791,
LARCENY-NON VEHICLE,150552159,02/24/2015,1801 HOWELL MILL RD,204,Berkeley Park,D,33.80448,-84.41348,
LARCENY-NON VEHICLE,150552713,02/24/2015,1166 RALPH D ABERNATHY BLVD SW,402,West End,T,33.73818,-84.42588,
LARCENY-NON VEHICLE,150551488,02/24/2015,1082 HUFF RD NW,203,Blandtown,D,33.78904,-84.42284,
LARCENY-NON VEHICLE,150551737,02/24/2015,3232 PEACHTREE RD NE,208,Buckhead Forest,B,33.84413,-84.37409,
LARCENY-NON VEHICLE,150551536,02/24/2015,2175 METROPOLITAN PKWY SW,309,Perkerson,X,33.69418,-84.40848,
LARCENY-NON VEHICLE,150551673,02/24/2015,3030 HEADLAND DR SW,411,Greenbriar,R,33.68841,-84.48742,
LARCENY-NON VEHICLE,150552290,02/24/2015,3393 PEACHTREE RD NE @LENOX MALL,210,Lenox,B,33.84676,-84.36212,
LARCENY-NON VEHICLE,150551103,02/24/2015,190 MARIETTA ST NW,507,Downtown,M,33.75757,-84.39487,
LARCENY-NON VEHICLE,150551216,02/24/2015,265 PEACHTREE ST NE,509,Downtown,M,33.76152,-84.38672,
LARCENY-NON VEHICLE,150550256,02/24/2015,446 HOOPER ST SE,611,East Lake,O,33.7404,-84.2911,
LARCENY-NON VEHICLE,150551781,02/24/2015,3730 CARMIA DR SW,414,Princeton Lakes,P,33.65528,-84.5102,
LARCENY-FROM VEHICLE,150552058,02/24/2015,1545 PEACHTREE ST NE,502,Midtown,E,33.79742,-84.38818,
LARCENY-FROM VEHICLE,150552611,02/24/2015,1133 HUFF RD NW,203,Blandtown,D,33.78909,-84.42518,
LARCENY-FROM VEHICLE,150552240,02/24/2015,2025 PEACHTREE RD NE,207,,E,33.80958,-84.39294,
LARCENY-FROM VEHICLE,150551311,02/24/2015,116 PONCE DE LEON AVE NE,505,Midtown,E,33.77248,-84.38382,
LARCENY-FROM VEHICLE,150551717,02/24/2015,3330 MARTIN L KING JR DR SW,407,Adamsville,H,33.75392,-84.49736,
AUTO THEFT,150542932,02/24/2015,3424 PIEDMONT RD,208,Buckhead Forest,B,33.84815,-84.37419,
AUTO THEFT,150550987,02/24/2015,2399 PARKLAND DR NE,211,Lindbergh/Morosgo,B,33.8201,-84.36481,
AUTO THEFT,150551219,02/24/2015,2095 BARGE RD SW,412,Ben Hill Acres,P,33.6973,-84.50664,
AUTO THEFT,150551893,02/24/2015,133 TRINITY AVE SW ,512,Downtown,M,33.74799,-84.39034,
AUTO THEFT,150552059,02/24/2015,720 FULTON INDUSTRIAL BLVD NW,114,Carroll Heights,H,33.77385,-84.51514,
AUTO THEFT,150552836,02/24/2015,1557 JONESBORO RD SE,305,South Atlanta,Y,33.71059,-84.38209,
AUTO THEFT,150552938,02/24/2015,1530 WOODBINE AVE SE,610,Kirkwood,O,33.75192,-84.3365,
AUTO THEFT,150542333,02/23/2015,315 TANNER ST SE,604,Sweet Auburn,M,33.75355,-84.37695,
AUTO THEFT,150542662,02/23/2015,1223 BRIDGES AVE SW,402,Bush Mountain,S,33.72662,-84.42784,
AUTO THEFT,150542785,02/23/2015,2155 VENETIAN DR SW,409,Adams Park,R,33.71561,-84.45876,
AUTO THEFT,150540777,02/23/2015,1886 FELKER WARD ST NW,203,Riverside,D,33.80685,-84.46943,
AUTO THEFT,150540826,02/23/2015,1867 MYRTLE DR SW,410,Campbellton Road,R,33.70394,-84.4551,
AUTO THEFT,150540486,02/23/2015,3011 CAMPBELLTON RD SW,409,Southwest,R,33.69638,-84.48726,
AUTO THEFT,150541079,02/23/2015,2745 VELTRE TER,406,Campbellton Road,R,33.70419,-84.45479,
AUTO THEFT,150541541,02/23/2015,4051 SOUTHWOOD CIR SW,412,Ben Hill Terrace,P,33.69615,-84.52035,
AUTO THEFT,150540732,02/23/2015,1498 SHARON ST NW,105,Hunter Hills,K,33.75482,-84.43656,
AUTO THEFT,150541612,02/23/2015,25 IRBY AVE NW,206,South Tuxedo Park,B,33.84138,-84.37976,
AUTO THEFT,150532400,02/23/2015,75 STAFFORD ST NW,105,Hunter Hills,K,33.757,-84.42551,
LARCENY-FROM VEHICLE,150542314,02/23/2015,341 PONCE DE LEON AVE NE,603,Old Fourth Ward,M,33.77222,-84.37559,
LARCENY-FROM VEHICLE,150541683,02/23/2015,3334 PEACHTREE RD NE @ONE BUCKHEAD LOOP,208,North Buckhead,B,33.84911,-84.37075,
LARCENY-FROM VEHICLE,150540750,02/23/2015,1935 ALISON CT SW,410,Fort Valley,R,33.70055,-84.45149,
LARCENY-FROM VEHICLE,150540755,02/23/2015,2909 CAMPBELLTON RD SW @CASCADE PINES APTS,409,Southwest,R,33.70165,-84.48348,
LARCENY-FROM VEHICLE,150541287,02/23/2015,2025 PEACHTREE RD NE,207,,E,33.80958,-84.39294,
LARCENY-NON VEHICLE,150541457,02/23/2015,3819 JONESBORO RD SE,313,South River Gardens,Z,33.65025,-84.36718,
LARCENY-NON VEHICLE,150541014,02/23/2015,3450 BENJAMIN E MAYS DR SW,407,Mays,H,33.73364,-84.50386,
LARCENY-NON VEHICLE,150542723,02/23/2015,2125 SOUTHWOOD CV SW,412,Ben Hill Terrace,P,33.69613,-84.5194,
LARCENY-NON VEHICLE,150542023,02/23/2015,1275 CAROLINE ST NE,609,Edgewood,O,33.75674,-84.34619,
LARCENY-NON VEHICLE,150541229,02/23/2015,58 MELDON AVE SE,301,Downtown,M,33.75417,-84.3853,
LARCENY-NON VEHICLE,150541188,02/23/2015,89 MANGUM ST SW,507,Castleberry Hill,M,33.75198,-84.40045,
LARCENY-NON VEHICLE,150541701,02/23/2015,818 POLLARD BOULEVARD,304,Summerhill,V,33.73249,-84.39017,
LARCENY-NON VEHICLE,150542339,02/23/2015,1097 HARWELL RD NW,112,Collier Heights,I,33.7852,-84.4911,
AUTO THEFT,150540612,02/23/2015,2798 PEEK RD NW,112,Collier Heights,I,33.77743,-84.47815,
LARCENY-FROM VEHICLE,150543044,02/23/2015,1386 MILLER REED AVE SE,305,Chosewood Park,Y,33.71653,-84.37608,
LARCENY-FROM VEHICLE,150543007,02/23/2015,782 PONCE DE LEON AVE NE,601,Virginia Highland,F,33.77412,-84.36179,
LARCENY-FROM VEHICLE,150542993,02/23/2015,794 N HIGHLAND AVE NE,601,Virginia Highland,F,33.77614,-84.35269,
LARCENY-FROM VEHICLE,150542036,02/23/2015,226 SAMPSON ST NE,604,Old Fourth Ward,M,33.76031,-84.36575,
LARCENY-FROM VEHICLE,150541972,02/23/2015,1237 SHORE DR SW,406,Cascade Heights,I,33.72175,-84.48263,
LARCENY-FROM VEHICLE,150541218,02/23/2015,375 18TH ST NW,501,Atlantic Station,E,33.79163,-84.40099,
LARCENY-FROM VEHICLE,150541044,02/23/2015,450 16TH ST NW,501,Home Park,E,33.78867,-84.40305,
LARCENY-FROM VEHICLE,150540890,02/23/2015,390 17TH ST NW,501,Atlantic Station,E,33.7902,-84.4003,
LARCENY-FROM VEHICLE,150540684,02/23/2015,3707 ROSWELL RD NE,209,North Buckhead,B,33.85661,-84.38226,
LARCENY-NON VEHICLE,150542477,02/23/2015,3050 MARTIN L KING JR DR SW,405,Harland Terrace,I,33.75177,-84.4857,
LARCENY-NON VEHICLE,150542645,02/23/2015,835 MARTIN L KING JR DR NW,102,Vine City,L,33.75504,-84.41457,
LARCENY-NON VEHICLE,150541312,02/23/2015,1801 HOWELL MILL RD NW,204,Berkeley Park,D,33.80388,-84.41278,
LARCENY-NON VEHICLE,150541164,02/23/2015,2685 METROPOLITAN PKWY SW,309,Perkerson,X,33.68274,-84.40902,
LARCENY-NON VEHICLE,150541137,02/23/2015,1225 CAROLINE ST NE,609,Edgewood,O,33.75605,-84.34813,
LARCENY-NON VEHICLE,150531232,02/23/2015,835 MARTIN LUTHER KING JR DR,102,Vine City,L,33.75504,-84.41457,
LARCENY-NON VEHICLE,150541518,02/23/2015,590 CASCADE AVE SW @KROGER - CASCADE,402,West End,T,33.73812,-84.43276,
LARCENY-NON VEHICLE,150542122,02/23/2015,231 18TH ST NW,501,Atlantic Station,E,33.79275,-84.39544,
LARCENY-NON VEHICLE,150541916,02/23/2015,2975 HEADLAND DR SW ,411,Greenbriar,R,33.69168,-84.4872,
LARCENY-NON VEHICLE,150540435,02/23/2015,590 CASCADE AVE SW @KROGER - CASCADE,402,West End,T,33.73812,-84.43276,
LARCENY-NON VEHICLE,150541741,02/23/2015,2561 PIEDMONT RD NE,211,Lindbergh/Morosgo,B,33.82561,-84.36464,
LARCENY-NON VEHICLE,150541406,02/23/2015,1046 FAYETTEVILLE RD SE,612,East Atlanta,W,33.72555,-84.3227,
LARCENY-NON VEHICLE,150541404,02/23/2015,590 CASCADE AVE SW @KROGER - CASCADE,402,West End,T,33.73812,-84.43276,
LARCENY-FROM VEHICLE,150541332,02/23/2015,391 17TH ST NW,501,Atlantic Station,E,33.79146,-84.40053,
LARCENY-FROM VEHICLE,150541384,02/23/2015,400 17TH ST NW,501,Atlantic Station,E,33.78959,-84.40165,
BURGLARY-RESIDENCE,150541973,02/23/2015,576 JOHN WESLEY DOBBS AVE NE,604,Old Fourth Ward,M,33.7595,-84.36844,
BURGLARY-RESIDENCE,150541527,02/23/2015,213 ELVAN AVE NE,610,Kirkwood,O,33.75868,-84.31692,
BURGLARY-RESIDENCE,150542823,02/23/2015,1638 W LAKE CT NW,105,West Lake,J,33.75898,-84.4424,
BURGLARY-RESIDENCE,150543075,02/23/2015,3744 WINFIELD CT SW,412,Cascade Green,P,33.71293,-84.504,
BURGLARY-RESIDENCE,150541333,02/23/2015,129 WESLEY AVE NE,609,Edgewood,O,33.75708,-84.33724,
BURGLARY-NONRES,150541967,02/23/2015,477 WINDSOR ST SW @DUNBAR COMM CENTER,303,Mechanicsville,V,33.74129,-84.39941,
BURGLARY-RESIDENCE,150542727,02/23/2015,955 FOUNDERS DR SW,104,Harris Chiles,T,33.74459,-84.41988,
BURGLARY-RESIDENCE,150542388,02/23/2015,1155 LAVISTA RD NE,212,Lindridge/Martin Manor,F,33.81806,-84.35082,
BURGLARY-RESIDENCE,150542171,02/23/2015,1377 LA FRANCE ST NE,609,Edgewood,O,33.76017,-84.3425,
BURGLARY-RESIDENCE,150542014,02/23/2015,2860 KATHRYN CT SW,414,Deerwood,P,33.67662,-84.5125,
BURGLARY-RESIDENCE,150541841,02/23/2015,3887 BOULDER PARK DR SW,407,Fairburn Road/Wisteria Lane,H,33.74669,-84.51488,
BURGLARY-RESIDENCE,150542733,02/23/2015,333 ANGIER AVE NE,603,Old Fourth Ward,M,33.76685,-84.37662,
BURGLARY-RESIDENCE,150542918,02/23/2015,1137 FORTRESS AVE SW,302,Pittsburgh,V,33.72374,-84.39471,
AGG ASSAULT,150532572,02/23/2015,3450 FORREST PARK RD SE,313,South River Gardens,Z,33.66061,-84.35549,
AGG ASSAULT,150541780,02/23/2015,3049 MIDDLETON RD NW,111,,I,33.75389,-84.48959,
AGG ASSAULT,150541553,02/23/2015,3391 DELMAR LN NW,111,Adamsville,H,33.75713,-84.49873,
AGG ASSAULT,150542839,02/23/2015,714 MAGNOLIA ST NW,102,Vine City,L,33.75791,-84.41085,
ROBBERY-PEDESTRIAN,150542998,02/23/2015,1061 PEEPLES STREET SW,403,Oakland City,S,33.72109,-84.42565,
ROBBERY-PEDESTRIAN,150532543,02/22/2015,532 CLEVELAND AVE SW,311,Hammond Park,X,33.67921,-84.40604,
ROBBERY-PEDESTRIAN,150532360,02/22/2015,831 PIEDMONT AVE NE,505,Midtown,E,33.77742,-84.38119,
ROBBERY-PEDESTRIAN,150530201,02/22/2015,1125 MATHEWS ST SW,402,West End,T,33.73481,-84.42471,
ROBBERY-PEDESTRIAN,150531195,02/22/2015,833 BELFAST ST SW,306,Sylvan Hills,X,33.71366,-84.41592,
ROBBERY-PEDESTRIAN,150531375,02/22/2015,714 SPRING ST NW,505,Midtown,E,33.77425,-84.38922,
AGG ASSAULT,150531996,02/22/2015,20 VANIRA AVE SE,304,Peoplestown,V,33.72971,-84.38722,
AGG ASSAULT,150532547,02/22/2015,2468 PERKERSON RD SW,309,Perkerson,X,33.68729,-84.41005,
AGG ASSAULT,150531658,02/22/2015,597 MARY ST SW,302,Pittsburgh,V,33.72952,-84.40714,
BURGLARY-RESIDENCE,150530002,02/22/2015,626 BLANCHE ST NW,107,Grove Park,J,33.77206,-84.44474,
BURGLARY-RESIDENCE,150532450,02/22/2015,355 NORTH AVE NE,603,Old Fourth Ward,M,33.77111,-84.37571,
BURGLARY-RESIDENCE,150531748,02/22/2015,29 HOWELL MILL PLANTATI NW,201,,C,33.84023,-84.42471,
AGG ASSAULT,150532553,02/22/2015,165 COURTLAND ST NE @SHERATON ATLANTA,510,Downtown,M,33.75895,-84.3834,
BURGLARY-NONRES,150531250,02/22/2015,1067 MEMORIAL DR SE,606,Reynoldstown,N,33.74583,-84.35217,
BURGLARY-RESIDENCE,150532368,02/22/2015,765 MCDANIEL ST SW,302,Pittsburgh,V,33.73396,-84.40177,
BURGLARY-RESIDENCE,150530455,02/22/2015,2989 N FULTON DR,206,Garden Hills,B,33.83634,-84.3774,
BURGLARY-RESIDENCE,150530213,02/22/2015,1057 FAIR ST SW,104,Ashview Heights,T,33.74926,-84.42233,
LARCENY-FROM VEHICLE,150530902,02/22/2015,2028 PRESLEY WAY NE,610,Kirkwood,O,33.76061,-84.32108,
LARCENY-NON VEHICLE,150532202,02/22/2015,1218 JOSEPH E BOONE BLVD NW,105,Hunter Hills,K,33.76324,-84.42748,
LARCENY-FROM VEHICLE,150532491,02/22/2015,211 PETERS ST SW,507,Castleberry Hill,M,33.74892,-84.40045,
LARCENY-FROM VEHICLE,150531446,02/22/2015,782 MARTIN L KING JR DR SW,101,Atlanta University Center,T,33.7546,-84.41307,
LARCENY-FROM VEHICLE,150531417,02/22/2015,75 MARTIN L KING JR DR SW,511,Downtown,M,33.75119,-84.38996,
LARCENY-FROM VEHICLE,150531348,02/22/2015,180 JACKSON ST NE @ATLANTA OVERLOOK AP,604,Sweet Auburn,M,33.75905,-84.37546,
LARCENY-FROM VEHICLE,150531126,02/22/2015,265 PEACHTREE ST NE,509,Downtown,M,33.76152,-84.38672,
LARCENY-FROM VEHICLE,150531056,02/22/2015,49 BOULEVARD NE,604,Old Fourth Ward,M,33.75565,-84.37202,
LARCENY-FROM VEHICLE,150531028,02/22/2015,505 ANGIER AVE NE,603,Old Fourth Ward,M,33.76621,-84.3707,
LARCENY-FROM VEHICLE,150530950,02/22/2015,235 POWELL ST SE,606,Cabbagetown,N,33.74814,-84.36585,
LARCENY-FROM VEHICLE,150530789,02/22/2015,788 INMAN MEWS DR NE,602,Inman Park,N,33.7543,-84.36177,
LARCENY-FROM VEHICLE,150530882,02/22/2015,644 N HIGHLAND AVE NE,602,Poncey-Highland,N,33.77192,-84.35262,
LARCENY-FROM VEHICLE,150530110,02/22/2015,164 SPRING ST SW,512,Downtown,M,33.75072,-84.39683,
AUTO THEFT,150522911,02/22/2015,186 NORTHSIDE DR SW,507,Castleberry Hill,M,33.74952,-84.40352,
AUTO THEFT,150531708,02/22/2015,320 WILLIAMS ST NW,508,Downtown,M,33.76341,-84.39061,
AUTO THEFT,150538067,02/22/2015,6023 N TERMINAL BYWY,705,,,33.64217,-84.447,
LARCENY-NON VEHICLE,150530445,02/22/2015,1125 PONCE DE LEON AVE NE,602,Poncey-Highland,N,33.77374,-84.35039,
LARCENY-NON VEHICLE,150532233,02/22/2015,327 EDGEWOOD AVE SE,604,Sweet Auburn,M,33.75416,-84.3769,
LARCENY-NON VEHICLE,150531652,02/22/2015,3000 CONTINENTAL COLONY PKWY SW,411,Greenbriar,R,33.68077,-84.4937,
LARCENY-NON VEHICLE,150530417,02/22/2015,239 PONCE DE LEON AVE NE @WHITE DOT,505,Midtown,E,33.7725,-84.37952,
LARCENY-NON VEHICLE,150531302,02/22/2015,266 RAWSON ST SW,303,Mechanicsville,V,33.74438,-84.39608,
LARCENY-NON VEHICLE,150531064,02/22/2015,119 PHARR RD NW,206,Peachtree Heights West,B,33.8368,-84.38533,
LARCENY-FROM VEHICLE,150531224,02/22/2015,1436 BENNING PL NE,608,Candler Park,N,33.76869,-84.34035,
AUTO THEFT,150532320,02/22/2015,1935 ALISON CT SW,410,Fort Valley,R,33.70055,-84.45149,
AUTO THEFT,150532397,02/22/2015,955 JUNIPER ST NE,503,Midtown,E,33.78063,-84.38207,
AUTO THEFT,150532462,02/22/2015,305 SKIPPER PL NW,112,Collier Heights,I,33.78206,-84.49139,
AUTO THEFT,150531170,02/22/2015,1793 PIPER CIR SE,612,East Atlanta,W,33.72602,-84.33157,
AUTO THEFT,150531233,02/22/2015,405 FAIRBURN RD SW,407,Wildwood (NPU-H),H,33.74367,-84.50959,
AUTO THEFT,150531553,02/22/2015,1895 PLAZA LN SW,410,Campbellton Road,R,33.70316,-84.45279,
AUTO THEFT,150530663,02/22/2015,192 PEACHTREE CENTER AVE NE,510,Downtown,M,33.75949,-84.38617,
AUTO THEFT,150532184,02/22/2015,687 CASCADE AVE SW,404,Westview,T,33.73682,-84.43647,
AUTO THEFT,150530189,02/22/2015,176 MILLS ST NW,504,Downtown,M,33.76522,-84.39328,
AUTO THEFT,150530422,02/22/2015,2900 LANDRUM DR SW,409,Southwest,R,33.70623,-84.48372,
AUTO THEFT,150530447,02/22/2015,138 12TH ST NE,503,Midtown,E,33.78431,-84.38307,
AUTO THEFT,150530877,02/22/2015,229  WALKER ST SW,507,Castleberry Hill,M,33.74851,-84.40281,
AUTO THEFT,150522468,02/21/2015,345 BLAIR VILLA DR SE,313,Blair Villa/Poole Creek,Z,33.65778,-84.3801,
AUTO THEFT,150520735,02/21/2015,3815 MARTIN L KING JR DR NW,114,Old Gordon,H,33.76918,-84.51471,
AUTO THEFT,150520880,02/21/2015,2909 CAMPBELLTON RD SW,409,Southwest,R,33.69869,-84.48265,
AUTO THEFT,150520940,02/21/2015,520 FULTON ST SW,303,Mechanicsville,V,33.74092,-84.40419,
AUTO THEFT,150521385,02/21/2015,2192 CAMPBELLTON RD SW,410,Campbellton Road,R,33.70517,-84.45995,
AUTO THEFT,150521771,02/21/2015,150 CARNEGIE WAY NW,508,Downtown,M,33.75873,-84.3889,
LARCENY-FROM VEHICLE,150521253,02/21/2015,2841 GREENBRIAR PKWY SW ,411,Greenbriar,R,33.68845,-84.49328,
LARCENY-FROM VEHICLE,150523034,02/21/2015,100 JOHN PORTMAN,509,Downtown,M,33.76103,-84.38445,
LARCENY-FROM VEHICLE,150521550,02/21/2015,514 PARKWAY DR NE,603,Old Fourth Ward,M,33.76836,-84.37322,
LARCENY-NON VEHICLE,150521474,02/21/2015,165 COURTLAND ST NE,510,Downtown,M,33.75892,-84.3841,
LARCENY-FROM VEHICLE,150521517,02/21/2015,344 BIGGERS ST SW,605,Grant Park,W,33.7482,-84.37574,
LARCENY-NON VEHICLE,150522010,02/21/2015,3280 NORTHSIDE PKWY NW,201,,C,33.84481,-84.42602,
LARCENY-NON VEHICLE,150521671,02/21/2015,1465 HOWELL MILL RD NW,207,Berkeley Park,D,33.79481,-84.41501,
LARCENY-NON VEHICLE,150520137,02/21/2015,200 PEACHTREE ST NE,510,Downtown,M,33.74907,-84.39436,
LARCENY-FROM VEHICLE,150523026,02/21/2015,428 PONCE DE LEON AVE NE,506,Midtown,E,33.77333,-84.37336,
LARCENY-FROM VEHICLE,150522288,02/21/2015,921 WHITE ST SW,401,West End,T,33.7299,-84.4163,
LARCENY-FROM VEHICLE,150522162,02/21/2015,1069 WASHITA AVE NE,602,Inman Park,N,33.76341,-84.35289,
LARCENY-FROM VEHICLE,150522108,02/21/2015,471 PETERS ST SW,101,Atlanta University Center,T,33.74343,-84.40922,
LARCENY-FROM VEHICLE,150521811,02/21/2015,290 COURTLAND ST NE,509,Downtown,M,33.76231,-84.38426,
LARCENY-FROM VEHICLE,150521760,02/21/2015,352 WILLIAMS ST NW,508,Downtown,M,33.76467,-84.39038,
LARCENY-FROM VEHICLE,150520008,02/21/2015,191 MITCHELL ST SW,512,Downtown,M,33.75169,-84.39383,
LARCENY-FROM VEHICLE,150520420,02/21/2015,2525 PIEDMONT RD ,211,Lindbergh/Morosgo,B,33.824,-84.36521,
LARCENY-FROM VEHICLE,150520455,02/21/2015,685 11TH ST NW,501,Home Park,E,33.78332,-84.40974,
LARCENY-FROM VEHICLE,150520488,02/21/2015,3160 DONALD LEE HOLLOWELL PKWY NW,112,Collier Heights,I,33.78537,-84.49029,
LARCENY-FROM VEHICLE,150521654,02/21/2015,888 RALPH D ABERNATHY BLVD SW,401,West End,T,33.738,-84.41691,
LARCENY-FROM VEHICLE,150520595,02/21/2015,1132 W PEACHTREE ST NW,503,Midtown,E,33.78562,-84.38824,
LARCENY-FROM VEHICLE,150521543,02/21/2015,800 CHEROKEE AVE SE @ATLANTA ZOO,605,Grant Park,W,33.7338,-84.37184,
LARCENY-FROM VEHICLE,150521050,02/21/2015,1661 LA FRANCE ST NE,609,Edgewood,O,33.76103,-84.33185,
LARCENY-FROM VEHICLE,150521123,02/21/2015,1326 WHITE ST SW,402,West End,T,33.73738,-84.43154,
LARCENY-FROM VEHICLE,150521347,02/21/2015,850 OAK ST SW @WEST END MALL,401,West End,T,33.74053,-84.41671,
LARCENY-FROM VEHICLE,150521438,02/21/2015,1801 HOWELL MILL RD NW,204,Berkeley Park,D,33.80388,-84.41278,
LARCENY-FROM VEHICLE,150521446,02/21/2015,887 JUNIPER ST NE,505,Midtown,E,33.77886,-84.38258,
LARCENY-NON VEHICLE,150521611,02/21/2015,1050 PONCE DE LEON AVE NE,601,Virginia Highland,F,33.77422,-84.353,
LARCENY-NON VEHICLE,150521762,02/21/2015,3160 GREENBRIAR PKWY SW,411,Greenbriar,R,33.68593,-84.49685,
LARCENY-NON VEHICLE,150521907,02/21/2015,1275 CAROLINE ST NE,609,Edgewood,O,33.75674,-84.34619,
LARCENY-NON VEHICLE,150521257,02/21/2015,835 MARTIN LUTHER KING JR DR,102,Vine City,L,33.75504,-84.41457,
LARCENY-NON VEHICLE,150522272,02/21/2015,950 W PEACHTREE ST NW,503,Midtown,E,33.7805,-84.38752,
LARCENY-NON VEHICLE,150522246,02/21/2015,3393 PEACHTREE RD NE @Multiple;,210,Lenox,B,33.84676,-84.36212,
LARCENY-NON VEHICLE,150522937,02/21/2015,3393 PEACHTREE RD NE,210,Lenox,B,33.84676,-84.36212,
LARCENY-NON VEHICLE,150522504,02/21/2015,1801 HOWELL MILL RD NW,204,Berkeley Park,D,33.80388,-84.41278,
LARCENY-NON VEHICLE,150522033,02/21/2015,2034 METROPOLITAN PKWY SW,306,Sylvan Hills,X,33.69873,-84.40798,
LARCENY-FROM VEHICLE,150521495,02/21/2015,1680 RALPH D ABERNATHY BLVD SW @WESTVIEW CEMETARY,404,,I,33.74787,-84.44242,
LARCENY-FROM VEHICLE,150520580,02/21/2015,960 SPRING ST NW,503,Midtown,E,33.78081,-84.38928,
BURGLARY-RESIDENCE,150522705,02/21/2015,3000 STONE HOGAN CONN SW,411,Greenbriar,R,33.67424,-84.49697,
BURGLARY-RESIDENCE,150521233,02/21/2015,3458 LYNFIELD DR SW,406,Green Forest Acres,I,33.7326,-84.50123,
BURGLARY-NONRES,150521496,02/21/2015,1067 MEMORIAL DR SE,606,Reynoldstown,N,33.74583,-84.35217,
BURGLARY-NONRES,150521166,02/21/2015,2788 DEFOORS FERRY RD NW ,201,,C,33.82098,-84.44692,
BURGLARY-NONRES,150521115,02/21/2015,1344 JOSEPH E BOONE BLVD NW,105,Hunter Hills,K,33.76302,-84.43183,
BURGLARY-RESIDENCE,150521094,02/21/2015,1925 KIMBERLY RD SW,412,Ben Hill Terrace,P,33.7018,-84.5225,
BURGLARY-RESIDENCE,150521965,02/21/2015,108 STAFFORD ST SW,104,Mozley Park,K,33.75206,-84.42666,
BURGLARY-RESIDENCE,150521645,02/21/2015,52 MONTCLAIR DR NE,207,Brookwood Hills,E,33.80721,-84.39202,
BURGLARY-RESIDENCE,150522113,02/21/2015,112 SCRUGGS CT NE,609,Edgewood,O,33.75675,-84.33688,
AGG ASSAULT,150522922,02/21/2015,477 PEACHTREE ST NE ,509,Downtown,M,33.76744,-84.38538,
AGG ASSAULT,150520894,02/21/2015,2025 DETROIT AVE NW,107,Grove Park,J,33.76723,-84.45339,
AGG ASSAULT,150520208,02/21/2015,377 MOUNT ZION RD SW,311,Hammond Park,X,33.67316,-84.40192,
AGG ASSAULT,150521267,02/21/2015,2001 SYLVAN RD SW,306,Sylvan Hills,X,33.69981,-84.4184,
AGG ASSAULT,150520664,02/21/2015,425 HOLDERNESS ST,401,West End,T,33.74325,-84.42719,
AGG ASSAULT,150520151,02/21/2015,763 PENN AVE NE,505,Midtown,E,33.77549,-84.37847,
AGG ASSAULT,150522106,02/21/2015,1732 BEECHER ST SW,404,Cascade Avenue/Road,S,33.73348,-84.4442,
AGG ASSAULT,150522843,02/21/2015,1405 SHERRIE LN SW,412,Greenbriar Village,P,33.70417,-84.53875,
AGG ASSAULT,150522929,02/21/2015,2555 DONALD LEE HOLLOWELL PKWY NW,109,Center Hill,J,33.77561,-84.46999,
AGG ASSAULT,150522286,02/21/2015,2328 CAMPBELLTON RD SW,410,Campbellton Road,R,33.70439,-84.4634,
AGG ASSAULT,150521228,02/21/2015,231 18TH ST NW,501,Atlantic Station,E,33.79275,-84.39544,
AGG ASSAULT,150522599,02/21/2015,375 18TH ST NW,501,Atlantic Station,E,33.79163,-84.40099,
ROBBERY-PEDESTRIAN,150522919,02/21/2015,680 NEW TOWN CIR SE,308,Thomasville Heights,Z,33.7067,-84.36412,
ROBBERY-RESIDENCE,150521386,02/21/2015,717 UNIVERSITY AVE SW,301,Adair Park,V,33.72228,-84.4108,
ROBBERY-COMMERCIAL,150522242,02/21/2015,3115 PIEDMONT RD NE,211,Peachtree Park,B,33.84156,-84.36947,
ROBBERY-PEDESTRIAN,150522653,02/21/2015,1040 HUBBARD ST SW,302,Pittsburgh,V,33.72643,-84.4023,
ROBBERY-PEDESTRIAN,150513060,02/20/2015,2929 LANDRUM DR SW,409,Southwest,R,33.70623,-84.48388,
ROBBERY-PEDESTRIAN,150513326,02/20/2015,711 LEE ST SW,401,West End,T,33.73528,-84.41421,
ROBBERY-PEDESTRIAN,150512697,02/20/2015,159 EUHARLEE ST SW,101,Atlanta University Center,T,33.75041,-84.41621,
ROBBERY-PEDESTRIAN,150510249,02/20/2015,176 ELECTRIC AVE NW,102,Vine City,L,33.7595,-84.40443,
ROBBERY-PEDESTRIAN,150513132,02/20/2015,691 PENN AVE NE,505,Midtown,E,33.77338,-84.37856,
ROBBERY-COMMERCIAL,150513055,02/20/2015,74 NORTHSIDE DR SW,507,Castleberry Hill,M,33.75267,-84.40252,
ROBBERY-COMMERCIAL,150513203,02/20/2015,2315 GLENWOOD AVE SE,611,East Lake,O,33.73984,-84.31149,
ROBBERY-COMMERCIAL,150511007,02/20/2015,371 BOULEVARD,603,Old Fourth Ward,M,33.76454,-84.37155,
AGG ASSAULT,150511312,02/20/2015,2637 OLD HAPEVILLE RD SW,310,Browns Mill Park,Z,33.68294,-84.39417,
AGG ASSAULT,150510431,02/20/2015,800 W MARIETTA ST NW @WESTMAR LOFTS,103,English Avenue,L,33.78022,-84.41514,
AGG ASSAULT,150512105,02/20/2015,1483 ARTHUR LANGFORD JR PLACE SW #A9B1,307,Joyland,Y,33.71097,-84.39789,
AGG ASSAULT,150511265,02/20/2015,3200 LATONA DR SW ,312,Glenrose Heights,Z,33.66668,-84.39526,
BURGLARY-RESIDENCE,150512373,02/20/2015,3400 STRATFORD RD NE,208,North Buckhead,B,33.84923,-84.36689,
BURGLARY-RESIDENCE,150511964,02/20/2015,3390 FAIRBURN RD SW,414,Ben Hill,P,33.6632,-84.52404,
BURGLARY-RESIDENCE,150513276,02/20/2015,3728 WINFIELD CT SW,412,Cascade Green,P,33.7129,-84.50279,
BURGLARY-RESIDENCE,150511888,02/20/2015,445 MARKHAM ST SW,507,Castleberry Hill,M,33.75274,-84.40069,
BURGLARY-RESIDENCE,150511718,02/20/2015,1136 METROPOLITAN PKWY SW,302,Pittsburgh,V,33.72389,-84.40755,
BURGLARY-RESIDENCE,150512351,02/20/2015,444 HIGHLAND AVE NE,604,Old Fourth Ward,M,33.76145,-84.3729,
LARCENY-FROM VEHICLE,150513186,02/20/2015,02 13TH STREET,503,Midtown,E,33.78545,-84.38299,
LARCENY-NON VEHICLE,150512416,02/20/2015,1225 CAROLINE ST NE,609,Edgewood,O,33.75605,-84.34813,
LARCENY-NON VEHICLE,150512111,02/20/2015,3393 PEACHTREE RD NE @LENOX MALL,210,Lenox,B,33.84676,-84.36212,
LARCENY-NON VEHICLE,150512181,02/20/2015,1801 HOWELL MILL RD NW,204,Berkeley Park,D,33.80388,-84.41278,
LARCENY-NON VEHICLE,150512439,02/20/2015,835 MARTIN L KING JR DR NW,102,Vine City,L,33.75504,-84.41457,
LARCENY-NON VEHICLE,150512725,02/20/2015,1133 EUCLID AVE NE,602,Inman Park,N,33.76451,-84.35,
LARCENY-NON VEHICLE,150510742,02/20/2015,377 WESTCHESTER BLVD NW,107,Grove Park,J,33.76555,-84.45301,
LARCENY-NON VEHICLE,150511546,02/20/2015,2473 DONALD LEE HOLLOWELL PKWY NW,109,Center Hill,J,33.77659,-84.46625,
LARCENY-NON VEHICLE,150511716,02/20/2015,680 PONCE DE LEON AVE NE,506,Midtown,E,33.77406,-84.36528,
LARCENY-NON VEHICLE,150511514,02/20/2015,2001 JAMES JACKSON PKWY NW,203,Riverside,D,33.81063,-84.47569,
LARCENY-NON VEHICLE,150511806,02/20/2015,3065 PEACHTREE RD NE,206,Buckhead Village,B,33.8387,-84.38004,
LARCENY-NON VEHICLE,150511686,02/20/2015,2685 METROPOLITAN PKWY SW,309,Perkerson,X,33.68274,-84.40902,
LARCENY-NON VEHICLE,150511356,02/20/2015,590 CASCADE AVE SW @KROGER - CASCADE,402,West End,T,33.73812,-84.43276,
LARCENY-NON VEHICLE,150511918,02/20/2015,1801 HOWELL MILL RD ,204,Berkeley Park,D,33.80388,-84.41278,
LARCENY-NON VEHICLE,150511669,02/20/2015,590 CASCADE AVE SW @KROGER - CASCADE,402,West End,T,33.73812,-84.43276,
LARCENY-FROM VEHICLE,150513144,02/20/2015,3101 PIEDMONT RD NE,211,Peachtree Park,B,33.84075,-84.36979,
LARCENY-FROM VEHICLE,150512863,02/20/2015,101 JACKSON ST NE,604,Sweet Auburn,M,33.75692,-84.37422,
LARCENY-FROM VEHICLE,150512453,02/20/2015,3012 JONESBORO RD,313,South River Gardens,Z,33.67225,-84.37156,
LARCENY-FROM VEHICLE,150512252,02/20/2015,469 EDGEWOOD AVE SE,604,Sweet Auburn,M,33.75421,-84.37248,
LARCENY-FROM VEHICLE,150512243,02/20/2015,1061 LEE ST SW,402,Oakland City,S,33.7258,-84.41957,
LARCENY-FROM VEHICLE,150511878,02/20/2015,1821 HOLLYWOOD RD NW,110,Scotts Crossing,G,33.80535,-84.47004,
LARCENY-FROM VEHICLE,150511510,02/20/2015,2341 TERRACE VIEW CIR SW,310,Browns Mill Park,Z,33.68639,-84.39459,
LARCENY-FROM VEHICLE,150511057,02/20/2015,759 POLLARD AVE,304,Summerhill,V,33.73405,-84.39127,
LARCENY-FROM VEHICLE,150510916,02/20/2015,240 N HIGHLAND AVE NE,602,Inman Park,N,33.76191,-84.36039,
LARCENY-NON VEHICLE,150511082,02/20/2015,CHARLES ALLEN DR NE / 9TH ST NE,503,Midtown,E,33.78056,-84.37281,
LARCENY-NON VEHICLE,150510792,02/20/2015,3535 PEACHTREE RD NE,210,Lenox,B,33.85182,-84.3595,
LARCENY-NON VEHICLE,150510856,02/20/2015,2200 MONROE DR NE,212,Piedmont Heights,F,33.81079,-84.36801,
LARCENY-NON VEHICLE,150511574,02/20/2015,1385 ORMEWOOD AVE SE,612,East Atlanta,W,33.73381,-84.34229,
LARCENY-NON VEHICLE,150511741,02/20/2015,1050 LENOX PARK BLVD NE,210,Pine Hills,B,33.85172,-84.34895,
LARCENY-NON VEHICLE,150511444,02/20/2015,1465 NORTHSIDE DR NW,207,Loring Heights,E,33.79436,-84.40774,
LARCENY-NON VEHICLE,150511724,02/20/2015,12 BROAD ST SW,511,Downtown,M,33.7532,-84.39201,
LARCENY-NON VEHICLE,150511530,02/20/2015,1147 HUBBARD ST SW,302,Pittsburgh,V,33.72358,-84.40253,
LARCENY-NON VEHICLE,150512981,02/20/2015,240 N HIGHLAND AVE NE ,602,Inman Park,N,33.76191,-84.36039,
LARCENY-NON VEHICLE,150510292,02/20/2015,56 E ANDREWS DR NW,206,South Tuxedo Park,B,33.84316,-84.38104,
LARCENY-NON VEHICLE,150511672,02/20/2015,1236 BARNES ST NW,501,Home Park,E,33.78837,-84.39463,
LARCENY-FROM VEHICLE,150510874,02/20/2015,590 CASCADE AVE SW ,402,Westview,T,33.73805,-84.43532,
LARCENY-FROM VEHICLE,150512866,02/20/2015,2911 PHARR COURT SOUTH NW,206,Peachtree Heights West,B,33.83486,-84.38568,
LARCENY-FROM VEHICLE,150511898,02/20/2015,2124 CHESHIRE BRIDGE RD NE,212,Lindridge/Martin Manor,F,33.8145,-84.35554,
AUTO THEFT,150510840,02/20/2015,1483 ARTHUR LANGFORD JR PL SW,307,Joyland,Y,33.71097,-84.39789,
AUTO THEFT,150510911,02/20/2015,934 MATHEWS ST SW,401,West End,T,33.73454,-84.4184,
AUTO THEFT,150511037,02/20/2015,698 CONNALLY ST SE,304,Summerhill,V,33.73551,-84.38084,
AUTO THEFT,150511234,02/20/2015,1473 BEECHER ST SW,402,West End,T,33.73358,-84.43588,
AUTO THEFT,150511286,02/20/2015,197 MOURY AVE SW,305,The Villages at Carver,Y,33.71624,-84.39229,
AUTO THEFT,150511335,02/20/2015,230 WESTVIEW PL SW,104,Mozley Park,K,33.74882,-84.43404,
AUTO THEFT,150511319,02/20/2015,3120 CAMPBELLTON RD SW,409,Southwest,R,33.69258,-84.49266,
AUTO THEFT,150512961,02/20/2015,3760 PRINCETON LAKES PKWY SW,414,Princeton Lakes,P,33.65806,-84.51051,
AUTO THEFT,150513230,02/20/2015,405 FAIRBURN RD SW,407,Wildwood (NPU-H),H,33.74367,-84.50959,
AUTO THEFT,150513384,02/20/2015,835 OGLETHORPE AVE SW,401,West End,T,33.73584,-84.4141,
AUTO THEFT,150501883,02/19/2015,2905 SPRINGDALE RD,311,Hammond Park,X,33.67575,-84.41631,
AUTO THEFT,150502624,02/19/2015,411 COLLIER RIDGE DR NW,112,Collier Heights,I,33.76644,-84.4763,
AUTO THEFT,150501358,02/19/2015,3900 CORNELL BLVD SW,407,Baker Hills,H,33.75923,-84.51519,
AUTO THEFT,150500385,02/19/2015,1209 COLLIER RD NW,204,,C,33.81161,-84.42571,
AUTO THEFT,150492278,02/19/2015,801 GLENWOOD AVE SE @  APS JACKSON HS,605,Grant Park,W,33.73958,-84.36161,
LARCENY-FROM VEHICLE,150500965,02/19/2015,3224 VERDANT DR SW,411,Greenbriar,R,33.68461,-84.4963,
LARCENY-NON VEHICLE,150502191,02/19/2015,3300 LENOX RD NE,210,Pine Hills,B,33.84349,-84.35825,
LARCENY-NON VEHICLE,150501144,02/19/2015,80 JESSE HILL JR DR SE @GRADY,510,Downtown,M,33.75168,-84.38198,
LARCENY-NON VEHICLE,150500678,02/19/2015,1559 JOHNSON RD NW,110,Rockdale,G,33.78839,-84.43786,
LARCENY-NON VEHICLE,150501749,02/19/2015,801 GLENWOOD AVE SE @APS JACKSON HS,605,Grant Park,W,33.73958,-84.36161,
LARCENY-NON VEHICLE,150500924,02/19/2015,157 MOURY AVE SW,305,The Villages at Carver,Y,33.71283,-84.3885,
AUTO THEFT,150502263,02/19/2015,488 FLAT SHOALS AVE SE,612,East Atlanta,W,33.74098,-84.34589,
LARCENY-FROM VEHICLE,150503263,02/19/2015,988 CARMEL AVE NE,602,Inman Park,N,33.76437,-84.35526,
LARCENY-NON VEHICLE,150501145,02/19/2015,835 MARTIN LUTHER KING JR DR,102,Vine City,L,33.75504,-84.41457,
LARCENY-NON VEHICLE,150501302,02/19/2015,3393 PEACHTREE RD NE @NEIMAN MARCUS,210,Lenox,B,33.84676,-84.36212,
LARCENY-NON VEHICLE,150501308,02/19/2015,2429 MARTIN L KING JR DR NW,108,Florida Heights,I,33.75246,-84.46669,
LARCENY-NON VEHICLE,150501599,02/19/2015,2429 MARTIN L KING JR DR NW,108,Florida Heights,I,33.75246,-84.46669,
LARCENY-NON VEHICLE,150461126,02/19/2015,835 MARTIN LUTHER KING JR DR,102,Vine City,L,33.75504,-84.41457,
LARCENY-NON VEHICLE,150501728,02/19/2015,2429 MARTIN L KING JR DR NW,108,Florida Heights,I,33.75246,-84.46669,
LARCENY-NON VEHICLE,150502543,02/19/2015,3535 PEACHTREE RD NE,210,Lenox,B,33.85182,-84.3595,
LARCENY-NON VEHICLE,150501731,02/19/2015,2841 GREENBRIAR PKWY SW,411,Greenbriar,R,33.68677,-84.49773,
LARCENY-NON VEHICLE,150502864,02/19/2015,3440 PEACHTREE RD NE,208,North Buckhead,B,33.85166,-84.36235,
LARCENY-NON VEHICLE,150502700,02/19/2015,2429 MARTIN L KING JR DR NW,108,Florida Heights,I,33.75246,-84.46669,
LARCENY-NON VEHICLE,150502750,02/19/2015,3030 HEADLAND DR SW,411,Greenbriar,R,33.68841,-84.48742,
LARCENY-NON VEHICLE,150502250,02/19/2015,595 PIEDMONT AVE NE @PUBLIX - PIEDMONT,603,Old Fourth Ward,M,33.77067,-84.38023,
LARCENY-FROM VEHICLE,150503239,02/19/2015,758 PONCE DE LEON AVE NE,601,Virginia Highland,F,33.77412,-84.36228,
LARCENY-FROM VEHICLE,150503184,02/19/2015,1380 ATLANTIC DR NW,501,Atlantic Station,E,33.79282,-84.39779,
LARCENY-FROM VEHICLE,150503178,02/19/2015,790 NORTH AVE NE,602,Poncey-Highland,N,33.77122,-84.36147,
LARCENY-FROM VEHICLE,150503171,02/19/2015,1920 HOWELL MILL RD NW,205,Wildwood (NPU-C),C,33.80733,-84.41284,
LARCENY-FROM VEHICLE,150502973,02/19/2015,1133 HUFF RD NW,203,Blandtown,D,33.78978,-84.42557,
LARCENY-FROM VEHICLE,150502915,02/19/2015,100 10TH ST NW,503,Midtown,E,33.78095,-84.39033,
LARCENY-FROM VEHICLE,150502839,02/19/2015,737 RALPH MCGILL BLVD NE,603,Old Fourth Ward,M,33.76606,-84.36302,
LARCENY-FROM VEHICLE,150501845,02/19/2015,1599 OLYMPIAN WAY SW,404,Westview,T,33.73644,-84.44011,
BURGLARY-RESIDENCE,150501672,02/19/2015,808 LULLWATER RD NE,608,Druid Hills,N,33.77655,-84.33629,
BURGLARY-RESIDENCE,150501300,02/19/2015,1150 ASTOR AVE SW,306,Sylvan Hills,X,33.70137,-84.42678,
BURGLARY-RESIDENCE,150502631,02/19/2015,82 WESLEY AVE NE,609,Edgewood,O,33.75578,-84.3374,
BURGLARY-RESIDENCE,150502282,02/19/2015,491 LINDBERGH PL NE,211,Lindbergh/Morosgo,B,33.81947,-84.37115,
BURGLARY-RESIDENCE,150501959,02/19/2015,1209 COLMER AVE SE,609,Edgewood,O,33.75089,-84.348,
AGG ASSAULT,150502480,02/19/2015,30 ALABAMA ST SW,511,Downtown,M,33.7521,-84.38955,
AGG ASSAULT,150500348,02/19/2015,568 SPRING ST NW,509,Downtown,M,33.76977,-84.38898,
AGG ASSAULT,150501272,02/19/2015,809 MAGNOLIA WAY NW,102,Vine City,L,33.75823,-84.41411,
AGG ASSAULT,150502665,02/19/2015,656 PRYOR ST SW,303,Mechanicsville,V,33.73699,-84.39438,
AGG ASSAULT,150503275,02/19/2015,987 METROPOLITAN PKWY SW,301,Adair Park,V,33.72798,-84.40828,
AGG ASSAULT,150503213,02/19/2015,114 MOURY AVE SE,305,South Atlanta,Y,33.71261,-84.38808,
AGG ASSAULT,150501913,02/19/2015,1700 LAKEWOOD AVE SE,307,Lakewood Heights,Y,33.70776,-84.37972,
ROBBERY-RESIDENCE,150500880,02/19/2015,1613 JACKSON WAY NW,113,Lincoln Homes,G,33.79871,-84.47566,
ROBBERY-PEDESTRIAN,150502783,02/19/2015,3627 FORREST PARK RD,313,South River Gardens,Z,33.6546,-84.35694,
HOMICIDE,150501512,02/19/2015,1829 CAMPBELLTON RD SW,408,Venetian Hills,S,33.71,-84.44863,
ROBBERY-PEDESTRIAN,150492657,02/18/2015,2244 WINGATE ST SW,405,Florida Heights,I,33.74857,-84.46156,
ROBBERY-COMMERCIAL,150493051,02/18/2015,683 BOULEVARD NE,603,Old Fourth Ward,M,33.7732,-84.37078,
ROBBERY-PEDESTRIAN,150492896,02/18/2015,394 SUSY GRIFFIN RD,312,Orchard Knob,Z,33.67328,-84.3772,
ROBBERY-PEDESTRIAN,150492855,02/18/2015,2841 GREENBRIAR PKWY SW @GREENBRIAR MALL,411,Greenbriar,R,33.68677,-84.49773,
ROBBERY-PEDESTRIAN,150492965,02/18/2015,477 PEACHTREE ST NE,509,Downtown,M,33.76764,-84.38524,
AGG ASSAULT,150492554,02/18/2015,I-75-85 SB EXPY SW / UNIVERSITY AVE SW,302,Pittsburgh,V,33.72201,-84.39509,
AGG ASSAULT,150490251,02/18/2015,446 BILL KENNEDY WAY SE,606,Ormewood Park,W,33.74045,-84.35809,
BURGLARY-RESIDENCE,150490811,02/18/2015,1156 MARTIN L KING JR DR SW,104,Just Us,T,33.75328,-84.42564,
BURGLARY-RESIDENCE,150492725,02/18/2015,213 FAIRBURN RD NW,111,Adamsville,H,33.76136,-84.50424,
BURGLARY-RESIDENCE,150491634,02/18/2015,411 PARKWAY DR NE,603,Old Fourth Ward,M,33.76554,-84.37335,
BURGLARY-RESIDENCE,150492345,02/18/2015,1123 SEABOARD AVE NW,204,Underwood Hills,D,33.80899,-84.42466,
BURGLARY-NONRES,150491803,02/18/2015,1067 MEMORIAL DR SE,606,Reynoldstown,N,33.74583,-84.35217,
BURGLARY-RESIDENCE,150492924,02/18/2015,1488 BOLTON RD NW,114,Atlanta Industrial Park,G,33.79602,-84.49103,
LARCENY-FROM VEHICLE,150491863,02/18/2015,1968 PEACHTREE RD NW,207,,E,33.81,-84.39583,
LARCENY-FROM VEHICLE,150493155,02/18/2015,4279 ROSWELL RD NE,209,North Buckhead,B,33.87121,-84.37931,
LARCENY-FROM VEHICLE,150493043,02/18/2015,60 MARTIN L KING JR DR SW,512,Downtown,M,33.7508,-84.39009,
LARCENY-FROM VEHICLE,150492916,02/18/2015,1135 SHERIDAN DR,212,Lindridge/Martin Manor,F,33.82002,-84.3508,
LARCENY-FROM VEHICLE,150492790,02/18/2015,793 JUNIPER ST NE,505,Midtown,E,33.77615,-84.38262,
LARCENY-FROM VEHICLE,150492562,02/18/2015,1036 WHITE ST SW,401,West End,T,33.73149,-84.42146,
LARCENY-FROM VEHICLE,150492474,02/18/2015,2260 FAIRBURN RD SW,412,Ben Hill Acres,P,33.69265,-84.51049,
LARCENY-FROM VEHICLE,150492448,02/18/2015,3434 PEACHTREE RD NE,213,North Buckhead,B,33.85037,-84.3634,
LARCENY-FROM VEHICLE,150490357,02/18/2015,3050 MARTIN L KING JR DR SW,405,Harland Terrace,I,33.75177,-84.4857,
LARCENY-FROM VEHICLE,150491917,02/18/2015,360 PHARR RD NE,206,Buckhead Village,B,33.8371,-84.37588,
LARCENY-FROM VEHICLE,150490587,02/18/2015,928 HALL ST SW,402,Oakland City,S,33.72978,-84.42542,
LARCENY-FROM VEHICLE,150491748,02/18/2015,2 17TH ST NE,502,Midtown,E,33.79204,-84.38763,
LARCENY-FROM VEHICLE,150491716,02/18/2015,2741 HOWELL MILL RD NW @APS BRANDON ES,205,Castlewood,C,33.83016,-84.41615,
LARCENY-FROM VEHICLE,150491140,02/18/2015,898 OAK ST SW,401,West End,T,33.74057,-84.41738,
LARCENY-FROM VEHICLE,150490943,02/18/2015,1722 CAMPBELLTON RD SW,408,,R,33.71107,-84.44411,
LARCENY-FROM VEHICLE,150490890,02/18/2015,453 STERLING ST NE,608,Candler Park,N,33.76672,-84.34444,
LARCENY-FROM VEHICLE,150490809,02/18/2015,2809 PEACHTREE RD NE,206,Garden Hills,B,33.83157,-84.38498,
LARCENY-FROM VEHICLE,150490732,02/18/2015,3280 NORTHSIDE PKWY NW,201,,C,33.84302,-84.42632,
LARCENY-FROM VEHICLE,150490648,02/18/2015,982 ALLENE AVE SW,301,Adair Park,V,33.72804,-84.41337,
LARCENY-FROM VEHICLE,150492043,02/18/2015,401 GLEN IRIS DR NE,603,Old Fourth Ward,M,33.7653,-84.36721,
LARCENY-NON VEHICLE,150491406,02/18/2015,12 BROAD ST SW,511,Downtown,M,33.7532,-84.39201,
LARCENY-NON VEHICLE,150491627,02/18/2015,1225 CAROLINE ST NE,609,Edgewood,O,33.75605,-84.34813,
LARCENY-NON VEHICLE,150492057,02/18/2015,231 13TH ST SUITE 11000,501,Pittsburgh,V,33.73659,-84.40476,
LARCENY-NON VEHICLE,150492622,02/18/2015,1275 CAROLINE ST NE,609,Edgewood,O,33.75674,-84.34619,
LARCENY-NON VEHICLE,150492865,02/18/2015,2841 GREENBRIAR PKWY SW @Multiple,411,Greenbriar,R,33.68677,-84.49773,
LARCENY-NON VEHICLE,150491594,02/18/2015,3667 CAMPBELLTON RD SW,412,Ben Hill Acres,P,33.69034,-84.50805,
LARCENY-NON VEHICLE,150492139,02/18/2015,2247 HOWELL MILL RD NW,205,Springlake,C,33.81677,-84.41532,
LARCENY-NON VEHICLE,150492540,02/18/2015,200 PEYTON PL SW,405,Harland Terrace,I,33.7499,-84.47534,
LARCENY-NON VEHICLE,150493083,02/18/2015,1341 BEECHER ST SW,402,West End,T,33.7335,-84.43148,
LARCENY-NON VEHICLE,150490798,02/18/2015,3032 STONE HOGAN CONN SW,411,Greenbriar,R,33.67815,-84.49538,
LARCENY-NON VEHICLE,150498033,02/18/2015,9700 SPINE RD,703,,,33.64065,-84.43591,
LARCENY-FROM VEHICLE,150491598,02/18/2015,400 PONCE DE LEON AVE NE @SHRINE TEMPLE,506,Midtown,E,33.77354,-84.37477,
AUTO THEFT,150492155,02/18/2015,997 HUBBARD ST SW,302,Pittsburgh,V,33.7277,-84.40263,
AUTO THEFT,150492141,02/18/2015,811 PARK ST SW,101,Atlanta University Center,T,33.74182,-84.41405,
AUTO THEFT,150491776,02/18/2015,1022 WESTMONT RD SW,402,Bush Mountain,S,33.7274,-84.43728,
AUTO THEFT,150493280,02/18/2015,1411 BOLTON RD NW,114,English Park,G,33.79382,-84.49212,
AUTO THEFT,150490989,02/18/2015,621 N HIGHLAND AVE NE,602,Poncey-Highland,N,33.77144,-84.3524,
AUTO THEFT,150490828,02/18/2015,1223 BRIDGES AVE SW,402,Bush Mountain,S,33.72662,-84.42784,
AUTO THEFT,150490823,02/18/2015,1345 DONNELLY AVE SW,402,West End,T,33.73601,-84.4316,
AUTO THEFT,150490781,02/18/2015,226 LITTLE ST SE,304,Summerhill,V,33.73332,-84.38033,
AUTO THEFT,150490771,02/18/2015,2887 BAKER RIDGE DR NW,112,Collier Heights,I,33.76688,-84.48237,
AUTO THEFT,150491291,02/18/2015,201 PEACHTREE ST SW,512,Downtown,M,33.74917,-84.39454,
AUTO THEFT,150491617,02/18/2015,621 NORTH AVE NE,603,Old Fourth Ward,M,33.77103,-84.36662,
AUTO THEFT,150481330,02/17/2015,89 MANGUM ST SW,507,Castleberry Hill,M,33.75198,-84.40045,
AUTO THEFT,150482147,02/17/2015,4005 CAMPBELLTON RD SW,412,Ben Hill Terrace,P,33.69389,-84.51952,
AUTO THEFT,150481936,02/17/2015,1318 ALMONT DR SW,403,Oakland City,S,33.7257,-84.43104,
AUTO THEFT,150481843,02/17/2015,974 PARSONS ST SW,104,Ashview Heights,T,33.75093,-84.41945,
AUTO THEFT,150481214,02/17/2015,69 HOWELL ST NE,604,Old Fourth Ward,M,33.7562,-84.36971,
AUTO THEFT,150480654,02/17/2015,363 GEORGIA AVE SE,605,Grant Park,W,33.73654,-84.37558,
AUTO THEFT,150480175,02/17/2015,1303 WILLOW TRL SW,408,Venetian Hills,S,33.72002,-84.43999,
AUTO THEFT,150480162,02/17/2015,416 STERLING ST NE,608,Candler Park,N,33.76562,-84.34493,
AUTO THEFT,150481423,02/17/2015,50 MOUNT ZION RD SW,312,Glenrose Heights,Z,33.67273,-84.39067,
LARCENY-NON VEHICLE,150482093,02/17/2015,1101 HARWELL ST NW,105,Washington Park,K,33.756,-84.42415,
AUTO THEFT,150380898,02/17/2015,1811 HONEYSUCKLE LN SW,410,Campbellton Road,R,33.70603,-84.45366,
LARCENY-FROM VEHICLE,150480399,02/17/2015,232 FORSYTH ST SW ,512,Downtown,M,33.74852,-84.39636,
LARCENY-FROM VEHICLE,150480059,02/17/2015,1181 METROPOLITAN PKWY SW,301,Adair Park,V,33.72282,-84.40836,
LARCENY-FROM VEHICLE,150481016,02/17/2015,464 HOLLY ST NW,107,Grove Park,J,33.76788,-84.43788,
LARCENY-FROM VEHICLE,150481049,02/17/2015,3760 CAMP CREEK PKWY SW,414,Princeton Lakes,P,33.6547,-84.50927,
LARCENY-FROM VEHICLE,150481479,02/17/2015,460 THOMASVILLE BLVD SE,308,Thomasville Heights,Z,33.70602,-84.35939,
LARCENY-NON VEHICLE,150461274,02/17/2015,708 SPRING ST NW,505,Midtown,E,33.77402,-84.3892,
LARCENY-NON VEHICLE,150481324,02/17/2015,80 JESSIE HILL JR DR SE,510,Downtown,M,33.75168,-84.38198,
LARCENY-NON VEHICLE,150481706,02/17/2015,55 TRINITY AVENUE SW,512,Downtown,M,33.74799,-84.39034,
LARCENY-NON VEHICLE,150481872,02/17/2015,3735 BOULDER PARK DR SW,407,Fairburn Mays,H,33.7494,-84.5099,
LARCENY-NON VEHICLE,150488063,02/17/2015,6000 SOUTH TERMINAL PARKWAY,702,,,33.63751,-84.44824,
LARCENY-NON VEHICLE,150480988,02/17/2015,991 MAYSON TURNER RD NW,105,Washington Park,K,33.76022,-84.41878,
LARCENY-NON VEHICLE,150481206,02/17/2015,1027 DOVERS ALY SW,402,Bush Mountain,S,33.72704,-84.43073,
LARCENY-NON VEHICLE,150481577,02/17/2015,554 PIEDMONT AVE NE,509,Downtown,M,33.76967,-84.38232,
LARCENY-NON VEHICLE,150482044,02/17/2015,1011 FAIR ST SW,104,Ashview Heights,T,33.74914,-84.42067,
LARCENY-NON VEHICLE,150481196,02/17/2015,30 NORTH AVE NE,505,Midtown,E,33.7716,-84.38643,
AUTO THEFT,150481171,02/17/2015,3280 NORTHSIDE PKWY NW,201,,C,33.84481,-84.42602,
AUTO THEFT,150481621,02/17/2015,3046 WESTMINSTER CIR,201,Westminster/Milmar,C,33.83831,-84.42446,
AUTO THEFT,150481134,02/17/2015,660 RALPH MCGILL BLVD NE,603,Old Fourth Ward,M,33.76462,-84.36561,
LARCENY-NON VEHICLE,150481498,02/17/2015,3334 PEACHTREE RD NE @ONE BUCKHEAD LOOP,208,North Buckhead,B,33.84911,-84.37075,
LARCENY-NON VEHICLE,150481616,02/17/2015,464 MORELAND AVE NE,602,Inman Park,N,33.76686,-84.34915,
LARCENY-NON VEHICLE,150481649,02/17/2015,2630 MARTIN L KING JR DR SW,405,Harland Terrace,I,33.75377,-84.47405,
LARCENY-NON VEHICLE,150481712,02/17/2015,305 JOSEPH E LOWERY BLVD NW,102,Vine City,L,33.763,-84.41736,
LARCENY-NON VEHICLE,150482342,02/17/2015,1801 HOWELL MILL RD NW,204,Berkeley Park,D,33.80388,-84.41278,
LARCENY-NON VEHICLE,150482581,02/17/2015,2001 JAMES JACKON PKY NW,203,Riverside,D,33.81063,-84.47569,
LARCENY-NON VEHICLE,150488045,02/17/2015,9700 SPINE RD,703,,,33.63946,-84.43654,
LARCENY-NON VEHICLE,150481481,02/17/2015,1715 HOWELL MILL RD NW @KROGER - HOWELL MILL,204,Berkeley Park,D,33.80089,-84.4157,
LARCENY-NON VEHICLE,150488009,02/17/2015,8700 SPINE RD,703,,,33.64085,-84.43915,
LARCENY-NON VEHICLE,150481575,02/17/2015,3167 ROSWELL RD NE,208,Buckhead Forest,B,33.84156,-84.37857,
LARCENY-FROM VEHICLE,150480782,02/17/2015,180 JACKSON ST NE,604,Sweet Auburn,M,33.75932,-84.37442,
LARCENY-FROM VEHICLE,150480014,02/17/2015,500 10TH ST NE,502,,E,33.78186,-84.373,
LARCENY-FROM VEHICLE,150451790,02/17/2015,1250 W PACES FERRY ROAD,202,West Paces Ferry/Northside,A,33.84862,-84.42869,
LARCENY-FROM VEHICLE,150481283,02/17/2015,765 MACDANIEL ST SW,302,Pittsburgh,V,33.73365,-84.40221,
LARCENY-FROM VEHICLE,150482724,02/17/2015,550 AMSTERDAM AVE NE,213,Morningside/Lenox Park,F,33.78831,-84.36886,
LARCENY-FROM VEHICLE,150482638,02/17/2015,619 EDGEWOOD AVE SE,604,Old Fourth Ward,M,33.75412,-84.36717,
LARCENY-FROM VEHICLE,150482479,02/17/2015,200 PERMALUME PL NW,204,Underwood Hills,D,33.80266,-84.42924,
LARCENY-FROM VEHICLE,150481796,02/17/2015,3041 LANDRUM DR SW,409,Southwest,R,33.70649,-84.48782,
LARCENY-FROM VEHICLE,150481792,02/17/2015,252 W LAKE DR NW,105,West Lake,J,33.76186,-84.43977,
LARCENY-FROM VEHICLE,150481478,02/17/2015,3393 PEACHTREE RD NE,210,Lenox,B,33.84676,-84.36212,
LARCENY-FROM VEHICLE,150481473,02/17/2015,1200 PONCE DE LEON AVE NE,608,Druid Hills,N,33.77466,-84.34819,
BURGLARY-RESIDENCE,150480821,02/17/2015,3167 FORREST PARK RD SE,313,South River Gardens,Z,33.66663,-84.35577,
BURGLARY-NONRES,150480403,02/17/2015,1250 CAROLINE ST NE,609,Edgewood,O,33.75859,-84.34788,
BURGLARY-NONRES,150481107,02/17/2015,1067 MEMORIAL DR SE,606,Reynoldstown,N,33.74583,-84.35217,
BURGLARY-RESIDENCE,150482072,02/17/2015,213 FAIRBURN RD NW ,111,Adamsville,H,33.76132,-84.50395,
BURGLARY-RESIDENCE,150481296,02/17/2015,2001 SYLVAN RD SW,306,Sylvan Hills,X,33.69981,-84.4184,
AGG ASSAULT,150421279,02/17/2015,2875 NORTHSIDE DR NW,205,Wyngate,C,33.83247,-84.40639,
AGG ASSAULT,150482746,02/17/2015,1695 PRYOR RD SW,307,Betmar LaVilla,Y,33.70894,-84.39374,
AGG ASSAULT,150481767,02/17/2015,3350 MOUNT GILEAD RD SW,409,Southwest,R,33.6982,-84.49859,
AGG ASSAULT,150481991,02/17/2015,377 BLAIR VILLA DR SE,313,Blair Villa/Poole Creek,Z,33.6579,-84.37826,
ROBBERY-PEDESTRIAN,150482507,02/17/2015,1920 HOWELL MILL RD,205,Wildwood (NPU-C),C,33.80733,-84.41284,
ROBBERY-PEDESTRIAN,150482703,02/17/2015,3099 PANTHER TRL SW @APS THERRELL HS,409,Southwest,R,33.69931,-84.48914,
ROBBERY-PEDESTRIAN,150482754,02/17/2015,1890 MYRTLE DR SW,410,Campbellton Road,R,33.70378,-84.4551,
ROBBERY-PEDESTRIAN,150482774,02/17/2015,2909 CAMPBELLTON RD SW @CASCADE PINES APTS,409,Southwest,R,33.70025,-84.48473,
ROBBERY-PEDESTRIAN,150462433,02/16/2015,3194 PARC CT SW,409,Southwest,R,33.70008,-84.49582,
ROBBERY-PEDESTRIAN,150471155,02/16/2015,614 PENN AVE NE,505,Midtown,E,33.77145,-84.37925,
ROBBERY-PEDESTRIAN,150471715,02/16/2015,980 HOLLYWOOD RD NW,109,Grove Park,J,33.78164,-84.45638,
ROBBERY-PEDESTRIAN,150471651,02/16/2015,102 GAMMEN AVE,305,South Atlanta,Y,33.71852,-84.38474,
ROBBERY-PEDESTRIAN,150470689,02/16/2015,215 FORSYTH ST SW,512,Downtown,M,33.74892,-84.3968,
ROBBERY-RESIDENCE,150472062,02/16/2015,320 FAIRBURN RD SW,407,Fairburn Mays,H,33.7451,-84.50858,
ROBBERY-COMMERCIAL,150472389,02/16/2015,630 MOROSGO DRIVE NE,211,Lindbergh/Morosgo,B,33.82361,-84.36727,
AGG ASSAULT,150471815,02/16/2015,3471 ADKINS RD NW,114,Fairburn Heights,H,33.77367,-84.50477,
AGG ASSAULT,150472122,02/16/2015,1400 DONNELLY AVE SW,402,West End,T,33.73586,-84.43137,
AGG ASSAULT,150471426,02/16/2015,966 W PACES FERRY RD NW,202,West Paces Ferry/Northside,A,33.84874,-84.41628,
AGG ASSAULT,150470273,02/16/2015,1575 MORELAND AVE SE,607,Custer/McDonough/Guice,W,33.7118,-84.35004,
AGG ASSAULT,150470307,02/16/2015,761 WOODLAND AVE SE,607,Ormewood Park,W,33.73356,-84.35164,
AGG ASSAULT,150471273,02/16/2015,2496 SPRING GARDEN DR SW,309,Perkerson,X,33.68627,-84.41085,
BURGLARY-RESIDENCE,150471232,02/16/2015,1212 JAMES JACKSON PKWY NW,113,Monroe Heights,G,33.79333,-84.47416,
BURGLARY-RESIDENCE,150470538,02/16/2015,959 HARTE DR SW,306,Sylvan Hills,X,33.70927,-84.41963,
BURGLARY-RESIDENCE,150471248,02/16/2015,240 HARRIETT ST SE,307,South Atlanta,Y,33.71613,-84.3805,
BURGLARY-RESIDENCE,150472049,02/16/2015,114 MARONA ST NE,609,Edgewood,O,33.75673,-84.33573,
BURGLARY-RESIDENCE,150472156,02/16/2015,2637 OLD HAPEVILLE,310,Browns Mill Park,Z,33.68294,-84.39417,
LARCENY-FROM VEHICLE,150470752,02/16/2015,180 JACKSON ST NE @ATLANTA OVERLOOK AP,604,Sweet Auburn,M,33.75905,-84.37546,
LARCENY-FROM VEHICLE,150471375,02/16/2015,499 PEACHTREE ST NE,509,Downtown,M,33.76809,-84.3852,
LARCENY-FROM VEHICLE,150471190,02/16/2015,715 W WHITEHALL ST SW,401,West End,T,33.73402,-84.41303,
LARCENY-FROM VEHICLE,150470968,02/16/2015,171 CARNEGIE WAY NW,508,Downtown,M,33.75903,-84.38906,
LARCENY-FROM VEHICLE,150470836,02/16/2015,1244 DEFOOR VILLAGE CT NW,204,Underwood Hills,D,33.81005,-84.42837,
LARCENY-FROM VEHICLE,150471390,02/16/2015,80 JESSE HILL JR DR NE,510,Downtown,M,33.75657,-84.38034,
LARCENY-FROM VEHICLE,150472222,02/16/2015,2770 LENOX RD NE,210,Pine Hills,B,33.83092,-84.35683,
LARCENY-FROM VEHICLE,150472221,02/16/2015,2809 PEACHTREE RD NE,206,Garden Hills,B,33.83157,-84.38498,
LARCENY-FROM VEHICLE,150472125,02/16/2015,1203 LEE ST SW @FIRE STATION 14,403,Oakland City,S,33.72212,-84.42347,
LARCENY-FROM VEHICLE,150472072,02/16/2015,1000 MARIETTA ST NW,504,Marietta Street Artery,E,33.77914,-84.41116,
LARCENY-FROM VEHICLE,150460536,02/16/2015,43 JESSIE HILL JR DR NE,510,Downtown,M,33.75582,-84.38013,
BURGLARY-NONRES,150471004,02/16/2015,485 GLENN STREET,303,Mechanicsville,V,33.73823,-84.40257,
LARCENY-NON VEHICLE,150471293,02/16/2015,900 METROPOLITAN PKWY SW,302,Pittsburgh,V,33.73041,-84.40777,
LARCENY-NON VEHICLE,150471598,02/16/2015,835 MARTIN L KING JR DR NW,102,Vine City,L,33.75504,-84.41457,
LARCENY-NON VEHICLE,150471405,02/16/2015,1225 CAROLINE ST NE,609,Edgewood,O,33.75605,-84.34813,
LARCENY-NON VEHICLE,150470965,02/16/2015,1241 MORELAND AVE SE,607,Woodland Hills,W,33.72039,-84.34958,
LARCENY-NON VEHICLE,150470151,02/16/2015,1892 HOWELL MILL RD NW,205,Wildwood (NPU-C),C,33.80673,-84.41316,
AUTO THEFT,150470757,02/16/2015,2300 JONESBORO RD SE,308,Leila Valley,Z,33.69226,-84.3644,
AUTO THEFT,150470784,02/16/2015,3625 ZIP INDUSTRIAL BLVD SE,313,Blair Villa/Poole Creek,Z,33.65791,-84.38564,
LARCENY-NON VEHICLE,150471723,02/16/2015,2416 PIEDMONT RD NE,211,Lindbergh/Morosgo,B,33.82098,-84.3685,
LARCENY-NON VEHICLE,150471111,02/16/2015,3535 PEACHTREE RD NE,210,Lenox,B,33.85182,-84.3595,
LARCENY-NON VEHICLE,150471277,02/16/2015,1263 GLENWOOD AVE SE,612,East Atlanta,W,33.74006,-84.34622,
LARCENY-NON VEHICLE,150471482,02/16/2015,574 FAIRBURN RD NW,114,Fairburn Heights,H,33.7709,-84.50049,
LARCENY-NON VEHICLE,150471822,02/16/2015,826 PARSONS ST SW,101,Atlanta University Center,T,33.75077,-84.41451,
LARCENY-FROM VEHICLE,150471553,02/16/2015,186 MOURY AVE SW,305,The Villages at Carver,Y,33.71412,-84.39156,
LARCENY-NON VEHICLE,150471238,02/16/2015,140 CLAIRE DR SE,307,Lakewood Heights,Y,33.70529,-84.38359,
LARCENY-NON VEHICLE,150471445,02/16/2015,336 EUGENIA ST SW,303,Mechanicsville,V,33.74283,-84.39886,
LARCENY-NON VEHICLE,150471026,02/16/2015,149 ELLENDALE LN NW,108,Harvel Homes Community,J,33.75933,-84.46605,
AUTO THEFT,150471048,02/16/2015,970 MERCER ST SE,607,Ormewood Park,W,33.73571,-84.35586,
AUTO THEFT,150471874,02/16/2015,650 PROVIDENCE PL SW,407,Mays,H,33.74241,-84.50461,
AUTO THEFT,150471419,02/16/2015,1145 BOOKER AVE SW,302,Pittsburgh,V,33.72359,-84.39777,
AUTO THEFT,150471174,02/16/2015,1636 S OLYMPIAN WAY SW,404,Westview,T,33.73576,-84.44121,
AUTO THEFT,150471146,02/16/2015,1244 DEFOOR VILLAGE CT NW,204,Underwood Hills,D,33.81018,-84.42837,
AUTO THEFT,150471098,02/16/2015,3150 MIDDLETON RD NW,111,,I,33.7519,-84.49058,
AUTO THEFT,150462117,02/15/2015,751 FAIRBURN RD SW,407,Fairburn Mays,H,33.73454,-84.51059,
AUTO THEFT,150462092,02/15/2015,1217 METROPOLITAN PKWY SW,301,Capitol View,X,33.72039,-84.40796,
AUTO THEFT,150461837,02/15/2015,701 FRANCIS AVE SE,607,Boulevard Heights,W,33.72325,-84.36506,
AUTO THEFT,150461772,02/15/2015,809 CHEROKEE AVE SE,605,Grant Park,W,33.73239,-84.37394,
AUTO THEFT,150461114,02/15/2015,260 ELM ST NW,102,Vine City,L,33.76185,-84.40913,
AUTO THEFT,150460784,02/15/2015,659 AUBURN AVE NE,604,Old Fourth Ward,M,33.75694,-84.36627,
AUTO THEFT,150460136,02/15/2015,2020 CAMPBELLTON RD SW,410,Adams Park,R,33.70646,-84.45738,
LARCENY-NON VEHICLE,150462275,02/15/2015,45 IVAN ALLEN JR BLVD NE,508,Downtown,M,33.76457,-84.38619,
LARCENY-NON VEHICLE,150468004,02/15/2015,6234 SPINE RD,706,,,33.64072,-84.44435,
LARCENY-NON VEHICLE,150461821,02/15/2015,3112 PIEDMONT RD NE,206,Buckhead Village,B,33.84088,-84.37057,
AUTO THEFT,150461208,02/15/2015,2020 CAMPBELLTON RD SW,409,Adams Park,R,33.70653,-84.45745,
AUTO THEFT,150460096,02/15/2015,2841 GREENBRIAR PKWY SW ,411,Greenbriar,R,33.68677,-84.49773,
AUTO THEFT,150421934,02/15/2015,850 OAK ST SW @WEST END MALL,401,West End,T,33.74057,-84.4168,
LARCENY-NON VEHICLE,150461284,02/15/2015,2630 MARTIN L KING JR DR SW,405,Harland Terrace,I,33.75377,-84.47405,
LARCENY-NON VEHICLE,150461510,02/15/2015,3500 PEACHTREE RD NE ,208,North Buckhead,B,33.85302,-84.36278,
LARCENY-NON VEHICLE,150461696,02/15/2015,3393 PEACHTREE RD NE @LENOX MALL,210,Lenox,B,33.84676,-84.36212,
LARCENY-NON VEHICLE,150462191,02/15/2015,2178 CAMPBELLTON RD SW,410,Campbellton Road,R,33.70514,-84.45947,
LARCENY-NON VEHICLE,150462012,02/15/2015,2 JOSEPH E LOWERY BLVD NW,105,Washington Park,K,33.75491,-84.41773,
LARCENY-NON VEHICLE,150461093,02/15/2015,80 JESSE HILL JR DR SE @GRADY HOSPITAL,510,Downtown,M,33.75168,-84.38198,
LARCENY-FROM VEHICLE,150460500,02/15/2015,195 ARIZONA AVE NE,609,Edgewood,O,33.75902,-84.3312,
LARCENY-FROM VEHICLE,150460936,02/15/2015,162 FORSYTH ST SW,512,Downtown,M,33.75,-84.39516,
LARCENY-FROM VEHICLE,150462435,02/15/2015,2107 DEFOORS FERRY RD NW,204,,C,33.81265,-84.42536,
LARCENY-FROM VEHICLE,150462395,02/15/2015,676 Highland Ave NE,602,Old Fourth Ward,M,33.76142,-84.36492,
LARCENY-FROM VEHICLE,150462218,02/15/2015,1874 PEACHTREE RD NW,207,Ardmore,E,33.80624,-84.3944,
LARCENY-FROM VEHICLE,150462119,02/15/2015,660 9TH STREET ,501,Home Park,E,33.78146,-84.40853,
LARCENY-FROM VEHICLE,150461994,02/15/2015,1587 HOWELL MILL RD NW,207,Berkeley Park,D,33.79835,-84.41575,
LARCENY-FROM VEHICLE,150461907,02/15/2015,1090 WHITE ST SW,402,West End,T,33.73321,-84.42428,
LARCENY-FROM VEHICLE,150461707,02/15/2015,112 ATLANTA AVE SW,304,Peoplestown,V,33.73032,-84.39155,
LARCENY-FROM VEHICLE,150461617,02/15/2015,1919 METROPOLITAN PKWY SW,306,Sylvan Hills,X,33.70278,-84.41017,
LARCENY-FROM VEHICLE,150461488,02/15/2015,683 PRYOR ST SW,303,Mechanicsville,V,33.73622,-84.39471,
LARCENY-FROM VEHICLE,150461387,02/15/2015,190 MARIETTA ST NW @OMNI HOTEL,507,Downtown,M,33.75757,-84.39487,
LARCENY-FROM VEHICLE,150461382,02/15/2015,800 CHEROKEE AVE SE ,605,Grant Park,W,33.73267,-84.37352,
LARCENY-FROM VEHICLE,150461328,02/15/2015,85 HOWARD ST NE,610,Kirkwood,O,33.75411,-84.32309,
LARCENY-FROM VEHICLE,150461318,02/15/2015,1500 MCLENDON AVE NE @CANDLER PARK,608,Candler Park,N,33.76879,-84.33785,
LARCENY-FROM VEHICLE,150462462,02/15/2015,2285 PALMETTO ST SW,413,Fairburn,P,33.69229,-84.52537,
BURGLARY-RESIDENCE,150461043,02/15/2015,1660 STANTON RD SW,408,,R,33.70988,-84.44361,
BURGLARY-RESIDENCE,150460712,02/15/2015,1171 OAKLAND LN SW,403,Oakland City,S,33.71965,-84.42684,
BURGLARY-RESIDENCE,150461501,02/15/2015,1067 MEMORIAL DR SE,606,Reynoldstown,N,33.74583,-84.35217,
BURGLARY-NONRES,150461017,02/15/2015,1616 JOSEPH E BOONE BLVD NW,105,West Lake,J,33.76348,-84.44069,
BURGLARY-RESIDENCE,150461886,02/15/2015,112 SCRUGGS CT NE,609,Edgewood,O,33.75675,-84.33688,
AGG ASSAULT,150460953,02/15/2015,213 FAIRBURN RD NW,111,Adamsville,H,33.76136,-84.50424,
AGG ASSAULT,150460570,02/15/2015,CAMPBELLTON RD SW / MYRTLE DR SW,410,Campbellton Road,R,33.70101,-84.45527,
AGG ASSAULT,150460223,02/15/2015,2555 DONALD LEE HOLLOWELL PKWY NW,109,Center Hill,J,33.77561,-84.46999,
AGG ASSAULT,150460438,02/15/2015,2050 SYLVAN RD SW,306,Sylvan Hills,X,33.69852,-84.41798,
ROBBERY-PEDESTRIAN,150461534,02/15/2015,850 OAK ST SW @WEST END MALL,401,West End,T,33.74057,-84.4168,
AGG ASSAULT,150461108,02/15/2015,2900 GRAND AVE SW,311,Hammond Park,X,33.6754,-84.40207,
ROBBERY-RESIDENCE,150460120,02/15/2015,930 NEW TOWN CIR SE,308,Thomasville Heights,Z,33.7084,-84.35933,
ROBBERY-PEDESTRIAN,150461281,02/15/2015,188 14TH ST NE @COLONY SQUARE,502,Midtown,E,33.78663,-84.38139,
ROBBERY-PEDESTRIAN,150462032,02/15/2015,1488 BEECHER ST SW,402,Oakland City,S,33.73316,-84.43636,
ROBBERY-PEDESTRIAN,150462261,02/15/2015,2640 MARTIN L KING JR DR SW,405,Harland Terrace,I,33.75381,-84.47425,
ROBBERY-PEDESTRIAN,150461351,02/15/2015,900 NEW TOWN CIR SE,308,Thomasville Heights,Z,33.70837,-84.36007,
ROBBERY-PEDESTRIAN,150460222,02/15/2015,1400 MURPHY AVE SW,306,Sylvan Hills,X,33.71572,-84.42279,
ROBBERY-PEDESTRIAN,150460190,02/15/2015,1021 FAIR ST SW,104,Ashview Heights,T,33.74929,-84.4213,
ROBBERY-PEDESTRIAN,150462155,02/15/2015,2980 DELMAR LN NW,111,,I,33.75517,-84.48481,
HOMICIDE,150450355,02/14/2015,2323 DANIEL ROAD,413,Fairburn,P,33.69192,-84.51854,
HOMICIDE,150450853,02/14/2015,1586 MIMS ST SW,104,Mozley Park,K,33.74951,-84.43943,
ROBBERY-PEDESTRIAN,150452302,02/14/2015,232 FORSYTH ST SW,512,Downtown,M,33.74686,-84.39388,
ROBBERY-PEDESTRIAN,150451475,02/14/2015,76 FORSYTH ST SW,512,Downtown,M,33.75244,-84.39346,
ROBBERY-PEDESTRIAN,150452658,02/14/2015,15 PEACHTREE ST SE,511,Downtown,M,33.75399,-84.38986,
ROBBERY-PEDESTRIAN,150451365,02/14/2015,537  BOULEVARD NE,603,Old Fourth Ward,M,33.76891,-84.37156,
ROBBERY-PEDESTRIAN,150451497,02/14/2015,73 PEACHTREE ST SW,511,Downtown,M,33.75251,-84.3901,
ROBBERY-COMMERCIAL,150452294,02/14/2015,1253 CAROLINE ST NE,609,Edgewood,O,33.75823,-84.3474,
ROBBERY-RESIDENCE,150451678,02/14/2015,886 STALLINGS AVE SE,612,East Atlanta,W,33.73,-84.33211,
ROBBERY-COMMERCIAL,150451175,02/14/2015,1088 PEACHTREE ST NE,503,Midtown,E,33.78421,-84.3835,
AGG ASSAULT,150450503,02/14/2015,1569 JONESBORO RD SE,305,South Atlanta,Y,33.71003,-84.38177,
AGG ASSAULT,150450734,02/14/2015,3249 TELFORD TER SW,414,Princeton Lakes,P,33.6644,-84.51547,
AGG ASSAULT,150451855,02/14/2015,800 PEACHTREE ST NE,505,Midtown,E,33.77659,-84.38459,
ROBBERY-COMMERCIAL,150452437,02/14/2015,235 PEACHTREE ST NE,509,Downtown,M,33.76044,-84.38702,
AGG ASSAULT,150451787,02/14/2015,177 HOLDERNESS ST SW,104,Ashview Heights,T,33.74988,-84.42651,
AGG ASSAULT,150451808,02/14/2015,1829 CAMPBELLTON RD SW,408,Venetian Hills,S,33.71,-84.44863,
AGG ASSAULT,150452733,02/14/2015,1177 CONSTITUTION RD SE,308,Leila Valley,Z,33.69242,-84.35248,
AGG ASSAULT,150450013,02/14/2015,1075 HILL ST SE,304,Peoplestown,V,33.72506,-84.37888,
AGG ASSAULT,150443002,02/14/2015,188 14TH ST NE,502,Midtown,E,33.78657,-84.3812,
BURGLARY-RESIDENCE,150452320,02/14/2015,360 THOMASVILLE BLVD SE,308,Thomasville Heights,Z,33.70571,-84.35714,
BURGLARY-RESIDENCE,150452686,02/14/2015,130 MAYSON AVENUE,609,Kirkwood,O,33.75341,-84.33862,
BURGLARY-RESIDENCE,150452604,02/14/2015,950 HARTE DR SW,306,Sylvan Hills,X,33.7089,-84.41937,
BURGLARY-RESIDENCE,150450201,02/14/2015,1709 RIDGEWAY AVE NW,204,Underwood Hills,D,33.80386,-84.41633,
BURGLARY-RESIDENCE,150451356,02/14/2015,640 NEW TOWN CIR SE,308,Thomasville Heights,Z,33.70652,-84.36352,
BURGLARY-RESIDENCE,150451424,02/14/2015,364 PEYTON RD SW,406,Peyton Forest,I,33.74599,-84.47803,
BURGLARY-RESIDENCE,150451011,02/14/2015,490 N HIGHLAND AVE NE,602,Inman Park,N,33.76734,-84.35287,
LARCENY-FROM VEHICLE,150451639,02/14/2015,248 OAKLAND AVE SE,605,Grant Park,W,33.74783,-84.37503,
LARCENY-FROM VEHICLE,150451518,02/14/2015,840 MARIETTA ST NW,504,Marietta Street Artery,E,33.77522,-84.40691,
LARCENY-FROM VEHICLE,150451484,02/14/2015,349 DECATUR ST SE,604,Sweet Auburn,M,33.74993,-84.37706,
LARCENY-FROM VEHICLE,150451389,02/14/2015,685 11TH ST NW,501,Home Park,E,33.78332,-84.40974,
LARCENY-FROM VEHICLE,150451380,02/14/2015,44 PRYOR ST SE,511,Downtown,M,33.75332,-84.38931,
LARCENY-FROM VEHICLE,150451023,02/14/2015,655 HIGHLAND AVE NE,604,Old Fourth Ward,M,33.76094,-84.36599,
LARCENY-FROM VEHICLE,150450919,02/14/2015,227 COURTLAND ST NE,509,Downtown,M,33.76067,-84.38354,
LARCENY-FROM VEHICLE,150450887,02/14/2015,1106 OGLETHORPE AVE SW,402,West End,T,33.73559,-84.42402,
LARCENY-FROM VEHICLE,150450822,02/14/2015,400 BRICKWORKS CIR NE,602,Inman Park,N,33.75887,-84.36285,
LARCENY-FROM VEHICLE,150451955,02/14/2015,44 PRYOR ST SE ,511,Downtown,M,33.75328,-84.38948,
LARCENY-FROM VEHICLE,150452689,02/14/2015,2161 COLLEGE AVE NE,610,Kirkwood,O,33.76408,-84.31645,
LARCENY-FROM VEHICLE,150452528,02/14/2015,257 FLAT SHOALS AVE SE,606,Reynoldstown,N,33.74648,-84.34975,
LARCENY-FROM VEHICLE,150452466,02/14/2015,815 LYNHURST DR SW @WEST MANOR BAPTIST,406,West Manor,I,33.73375,-84.48896,
LARCENY-FROM VEHICLE,150452340,02/14/2015,260 FULTON ST SW,303,Mechanicsville,V,33.74182,-84.39633,
LARCENY-FROM VEHICLE,150452268,02/14/2015,795 POLLARD BLVD SW,304,Summerhill,V,33.73328,-84.391,
LARCENY-FROM VEHICLE,150452255,02/14/2015,441 16TH ST NW @IKEA,501,Atlantic Station,E,33.78874,-84.40468,
LARCENY-FROM VEHICLE,150450523,02/14/2015,1700 NORTHSIDE DR NW,207,Berkeley Park,D,33.80077,-84.40869,
LARCENY-FROM VEHICLE,150450652,02/14/2015,1905 PIEDMONT CIR NE,212,Piedmont Heights,F,33.80885,-84.36635,
LARCENY-FROM VEHICLE,150440767,02/14/2015,943 CONFEDERATE AVE SE,605,Grant Park,W,33.72874,-84.3645,
LARCENY-FROM VEHICLE,150450257,02/14/2015,250 10TH ST NE,502,Midtown,E,33.78218,-84.37867,
BURGLARY-RESIDENCE,150451195,02/14/2015,3871 REDWINE RD SW,414,Princeton Lakes,P,33.66005,-84.50994,
LARCENY-NON VEHICLE,150452129,02/14/2015,3393 PEACHTREE RD NE @LENOX MALL,210,Lenox,B,33.84676,-84.36212,
LARCENY-NON VEHICLE,150451181,02/14/2015,1275 CAROLINE ST NE,609,Edgewood,O,33.75674,-84.34619,
LARCENY-NON VEHICLE,150451348,02/14/2015,231 18TH ST NW,501,Atlantic Station,E,33.79275,-84.39544,
LARCENY-NON VEHICLE,150451471,02/14/2015,3500 PEACHTREE RD NE @Multiple,208,North Buckhead,B,33.85302,-84.36278,
LARCENY-NON VEHICLE,150451583,02/14/2015,835 MARTIN L KING JR DR NW,102,Vine City,L,33.75504,-84.41457,
LARCENY-NON VEHICLE,150452227,02/14/2015,1029 EDGEWOOD AVE NE,602,Inman Park,N,33.75666,-84.35499,
LARCENY-NON VEHICLE,150451303,02/14/2015,513 ROY ST SW,302,Pittsburgh,V,33.72431,-84.40444,
LARCENY-FROM VEHICLE,150451055,02/14/2015,362 NELSON ST SW,507,Castleberry Hill,M,33.75128,-84.39918,
LARCENY-FROM VEHICLE,150451758,02/14/2015,6207 PINE HEIGHTS DR NE,210,Pine Hills,B,33.83039,-84.35626,
LARCENY-FROM VEHICLE,150451990,02/14/2015,3393 PEACHTREE RD NE @LENOX MALL,210,Lenox,B,33.84676,-84.36212,
LARCENY-NON VEHICLE,150450835,02/14/2015,2089 COUNTY LINE RD SW,412,,P,33.698,-84.536,
LARCENY-NON VEHICLE,150450942,02/14/2015,50 MOUNT ZION RD SE,312,Glenrose Heights,Z,33.67286,-84.38706,
LARCENY-NON VEHICLE,150451051,02/14/2015,2595 NISKEY LAKE RD SW,413,Butner/Tell,P,33.68397,-84.52753,
LARCENY-NON VEHICLE,150452752,02/14/2015,3000 CONTINENTAL COLONY PKWY SW,411,Greenbriar,R,33.68077,-84.4937,
AUTO THEFT,150451848,02/14/2015,562 CHEROKEE AVE SE,605,Grant Park,W,33.73931,-84.37352,
AUTO THEFT,150451377,02/14/2015,771 LINDBERGH DR NE,211,Lindbergh/Morosgo,B,33.82055,-84.36241,
AUTO THEFT,150450937,02/14/2015,2800 MARTIN L KING JR DR SW,405,Harland Terrace,I,33.75431,-84.4793,
AUTO THEFT,150450847,02/14/2015,348 BEREAN AVE SE,606,Grant Park,W,33.74504,-84.36654,
AUTO THEFT,150450354,02/14/2015,2110 PEACHTREE RD NW ,207,,C,33.81203,-84.39274,
AUTO THEFT,150443042,02/13/2015,2929 LANDRUM DR SW,409,Southwest,R,33.70623,-84.48388,
AUTO THEFT,150442969,02/13/2015,316 SIMCA ST SE,313,Blair Villa/Poole Creek,Z,33.66227,-84.37971,
AUTO THEFT,150442795,02/13/2015,576 ROSALIA ST SE,605,Grant Park,W,33.73865,-84.36895,
AUTO THEFT,150442587,02/13/2015,17 BAKER ST NW,508,Downtown,M,33.76235,-84.38819,
AUTO THEFT,150441225,02/13/2015,180 HARRIETT ST SE,305,South Atlanta,Y,33.71601,-84.38265,
AUTO THEFT,150441066,02/13/2015,2636 MARTIN L KING JR DR SW,405,Harland Terrace,I,33.75277,-84.47429,
AUTO THEFT,150440961,02/13/2015,740 SIDNEY MARCUS BLVD NE,211,Lindbergh/Morosgo,B,33.82598,-84.36335,
AUTO THEFT,150440824,02/13/2015,880 CHEROKEE AVE SE,605,Grant Park,W,33.73056,-84.37352,
AUTO THEFT,150440751,02/13/2015,176 PEACHTREE ST NW,508,Downtown,M,33.75827,-84.38785,
AUTO THEFT,150440656,02/13/2015,3465 NORTHSIDE PKWY NW,202,Randall Mill,A,33.84958,-84.42962,
LARCENY-NON VEHICLE,150442810,02/13/2015,74 NORTHSIDE DR SW,507,Castleberry Hill,M,33.75267,-84.40252,
LARCENY-NON VEHICLE,150441198,02/13/2015,979 HOWELL PL SW,401,Cascade Avenue/Road,S,33.72518,-84.45013,
LARCENY-NON VEHICLE,150441273,02/13/2015,604 FEDERAL TER SE,607,Benteen Park,W,33.71483,-84.36773,
LARCENY-NON VEHICLE,150441478,02/13/2015,682 CASCADE AVE SW,403,Cascade Avenue/Road,S,33.72518,-84.45013,
LARCENY-NON VEHICLE,150442114,02/13/2015,3650 JONESBORO RD SE,313,South River Gardens,Z,33.6558,-84.36612,
LARCENY-NON VEHICLE,150448043,02/13/2015,8700 SPINE RD,703,,,33.64085,-84.43915,
LARCENY-FROM VEHICLE,150442793,02/13/2015,194 BROWNLEE RD SW,407,Adamsville,H,33.75128,-84.49975,
LARCENY-FROM VEHICLE,150442621,02/13/2015,2256 BEECHER RD SW,406,Beecher Hills,I,33.7276,-84.46243,
LARCENY-NON VEHICLE,150442986,02/13/2015,1580 FLAT SHOALS RD SE,612,East Atlanta,W,33.73126,-84.33588,
LARCENY-FROM VEHICLE,150402664,02/13/2015,3368 PEACHTREE RD,208,Lenox,B,33.84862,-84.36634,
LARCENY-NON VEHICLE,150442805,02/13/2015,396 PIEDMONT AVE NE,509,Downtown,M,33.76491,-84.3826,
LARCENY-NON VEHICLE,150441577,02/13/2015,100 CENTENNIAL OLYMPIC P DR NW ,507,Downtown,M,33.75733,-84.39635,
LARCENY-NON VEHICLE,150441231,02/13/2015,1350 HOWELL MILL RD NW ,207,Blandtown,D,33.79189,-84.41328,
LARCENY-NON VEHICLE,150448017,02/13/2015,10700 SPINE RD,703,,,33.64365,-84.43237,
AUTO THEFT,150442024,02/13/2015,3130 PIEDMONT RD NE,206,Buckhead Village,B,33.84151,-84.37101,
AUTO THEFT,150442376,02/13/2015,118 IVAN ALLEN JR BLVD NW,508,Downtown,M,33.76456,-84.39102,
AUTO THEFT,150442080,02/13/2015,180 TRINITY AVE SW,512,Downtown,M,33.74964,-84.39372,
AUTO THEFT,150441000,02/13/2015,3550 SOUTHSIDE INDUSTRIAL PKWY SE,313,Blair Villa/Poole Creek,Z,33.65724,-84.37388,
AUTO THEFT,150440967,02/13/2015,1217 RENAISSANCE WAY NE,603,Old Fourth Ward,M,33.76656,-84.37851,
AUTO THEFT,150441275,02/13/2015,1154 LUCILE AVE SW,401,West End,T,33.74207,-84.42548,
LARCENY-NON VEHICLE,150441875,02/13/2015,2690 METROPOLITAN PKWY SW,309,Perkerson,X,33.68169,-84.40737,
LARCENY-NON VEHICLE,150441213,02/13/2015,2685 METRO,309,Perkerson,X,33.68274,-84.40902,
LARCENY-NON VEHICLE,150441608,02/13/2015,1919 METROPOLITAN PKWY SW,306,Sylvan Hills,X,33.70278,-84.41017,
LARCENY-NON VEHICLE,150442208,02/13/2015,3500 PEACHTREE RD NE ,208,North Buckhead,B,33.85302,-84.36278,
LARCENY-NON VEHICLE,150442710,02/13/2015,3393 PEACHTREE RD NE @LENOX MALL,210,Lenox,B,33.84676,-84.36212,
BURGLARY-RESIDENCE,150441878,02/13/2015,855 W PEACHTREE ST NE,505,Midtown,E,33.77773,-84.38718,
LARCENY-NON VEHICLE,150441835,02/13/2015,3330 PIEDMONT RD NE @CALL BOX 19,208,Buckhead Forest,B,33.84564,-84.37462,
LARCENY-FROM VEHICLE,150443046,02/13/2015,236 WILLIAMS ST NW ,508,Downtown,M,33.76098,-84.39055,
LARCENY-FROM VEHICLE,150442776,02/13/2015,180 JACKSON ST NE @ATLANTA OVERLOOK AP,604,Sweet Auburn,M,33.75905,-84.37546,
LARCENY-FROM VEHICLE,150442735,02/13/2015,132 MARTIN L KING JR DR SW,511,Downtown,M,33.75207,-84.39214,
LARCENY-FROM VEHICLE,150442729,02/13/2015,850 OAK ST SW @WESTEND MALL,401,West End,T,33.74053,-84.41671,
LARCENY-FROM VEHICLE,150442712,02/13/2015,888 3RD ST NW,504,Marietta Street Artery,E,33.77918,-84.40915,
LARCENY-FROM VEHICLE,150442617,02/13/2015,500 BISHOP ST NW,207,Loring Heights,E,33.79204,-84.40415,
LARCENY-FROM VEHICLE,150440724,02/13/2015,2055 BENT CREEK WAY SW,410,Campbellton Road,R,33.70102,-84.46612,
LARCENY-FROM VEHICLE,150440763,02/13/2015,23 LARKIN PL SW,507,Castleberry Hill,M,33.74749,-84.40414,
LARCENY-FROM VEHICLE,150440750,02/13/2015,594 WILLARD AVE SW,404,Westview,T,33.73905,-84.43683,
LARCENY-FROM VEHICLE,150441606,02/13/2015,935 MARIETTA ST NW,504,Marietta Street Artery,E,33.77795,-84.40849,
LARCENY-FROM VEHICLE,150441993,02/13/2015,633 ATLANTA AVE SE,605,Grant Park,W,33.73017,-84.36663,
LARCENY-FROM VEHICLE,150440722,02/13/2015,607 ROBINSON AVE SE,606,Grant Park,W,33.72822,-84.36756,
LARCENY-FROM VEHICLE,150441573,02/13/2015,513 MITCHELL ST SW,101,Atlanta University Center,T,33.75397,-84.40371,
LARCENY-FROM VEHICLE,150441336,02/13/2015,206 EDGEWOOD AVE NE,510,Downtown,M,33.75451,-84.38079,
LARCENY-FROM VEHICLE,150440958,02/13/2015,851 COMMONWEALTH AVE SE,605,Grant Park,W,33.72992,-84.36247,
BURGLARY-RESIDENCE,150441025,02/13/2015,26 ROGERS ST SE,610,Kirkwood,O,33.75279,-84.32895,
BURGLARY-RESIDENCE,150441444,02/13/2015,1375 NORTHSIDE DR NW,207,Loring Heights,E,33.79215,-84.40774,
BURGLARY-NONRES,150441398,02/13/2015,1380 DONALD LEE HOLLOWELL PKWY NW,106,Bankhead,K,33.77116,-84.43292,
BURGLARY-RESIDENCE,150441242,02/13/2015,3871 REDWINE RD SW,414,Princeton Lakes,P,33.66005,-84.50994,
BURGLARY-RESIDENCE,150442159,02/13/2015,1632 JOBETH AVE SE,612,East Atlanta,W,33.73305,-84.33415,
BURGLARY-RESIDENCE,150441381,02/13/2015,415 FAIRBURN RD SW,407,Fairburn Mays,H,33.74349,-84.50968,
BURGLARY-RESIDENCE,150441805,02/13/2015,2399 PARKLAND DR NE,211,Lindbergh/Morosgo,B,33.8201,-84.36481,
BURGLARY-RESIDENCE,150442520,02/13/2015,1155 LAVISTA RD NE,212,Lindridge/Martin Manor,F,33.81806,-84.35082,
BURGLARY-RESIDENCE,150442385,02/13/2015,1536 MARONA ST NE,609,Edgewood,O,33.75652,-84.33684,
BURGLARY-RESIDENCE,150441490,02/13/2015,79 MOURY AVE SE,305,South Atlanta,Y,33.71297,-84.38667,
BURGLARY-RESIDENCE,150441555,02/13/2015,123 CLAIRE DR SE,307,Lakewood Heights,Y,33.70486,-84.38421,
BURGLARY-RESIDENCE,150442375,02/13/2015,1685 ROGERS AVE SW,404,Westview,T,33.73753,-84.44284,
BURGLARY-RESIDENCE,150442044,02/13/2015,1155 LAVISTA RD NE,212,Lindridge/Martin Manor,F,33.81806,-84.35082,
BURGLARY-RESIDENCE,150441126,02/13/2015,1439 RICHLAND RD SW,402,Oakland City,S,33.73108,-84.43483,
BURGLARY-RESIDENCE,150442721,02/13/2015,828 CELESTE LN SW,407,Mays,H,33.73976,-84.50745,
AGG ASSAULT,150442783,02/13/2015,3175 MIDDLETON RD NW,111,,I,33.75191,-84.49116,
AGG ASSAULT,150442481,02/13/2015,1694 OAK KNOLL CIR SE,307,Lakewood Heights,Y,33.7097,-84.37688,
AGG ASSAULT,150440520,02/13/2015,1732 PRYOR RD SW,307,Betmar LaVilla,Y,33.70782,-84.39597,
AGG ASSAULT,150440395,02/13/2015,467 EDGEWOOD AVE,604,Sweet Auburn,M,33.75421,-84.37254,
AGG ASSAULT,150441991,02/13/2015,830 BOULEVARD SE,605,Grant Park,W,33.73182,-84.36795,
ROBBERY-PEDESTRIAN,150441048,02/13/2015,2325 MARIETTA BLVD NW,201,,C,33.82065,-84.45274,
ROBBERY-PEDESTRIAN,150440696,02/13/2015,1209 COLLIER RD NW,204,,C,33.81161,-84.42571,
ROBBERY-PEDESTRIAN,150440056,02/13/2015,1572 HARDEE ST NE @EDGEWOOD COURT APT,609,Edgewood,O,33.75589,-84.33647,
ROBBERY-PEDESTRIAN,150433172,02/12/2015,476 WILMER ST NE,603,Old Fourth Ward,M,33.76741,-84.36652,
HOMICIDE,150433050,02/12/2015,642 JONES AVE NW,103,English Avenue,L,33.76407,-84.40854,
ROBBERY-RESIDENCE,150433266,02/12/2015,833 BELFAST ST SW,306,Sylvan Hills,X,33.71366,-84.41592,
AGG ASSAULT,150431441,02/12/2015,545 BURROUGHS ST SE,305,Chosewood Park,Y,33.71767,-84.36999,
AGG ASSAULT,150432706,02/12/2015,340 THOMASVILLE BLVD SE,308,Thomasville Heights,Z,33.70596,-84.35669,
AGG ASSAULT,150432634,02/12/2015,131 GRAPE ST SE,604,Old Fourth Ward,M,33.75786,-84.37103,
AGG ASSAULT,150430996,02/12/2015,66 GAMMON AVE SE,305,South Atlanta,Y,33.71846,-84.38603,
AGG ASSAULT,150431662,02/12/2015,624 S GRAND AVE NW,109,Center Hill,J,33.772,-84.46301,
AGG ASSAULT,150431622,02/12/2015,1177 CONSTITUTION RD SE,308,Leila Valley,Z,33.69298,-84.35166,
BURGLARY-RESIDENCE,150431259,02/12/2015,824 BOLTON RD NW,114,Carroll Heights,H,33.77764,-84.50133,
BURGLARY-RESIDENCE,150432179,02/12/2015,835 OGLETHORPE AVE SW,401,West End,T,33.73592,-84.41564,
BURGLARY-RESIDENCE,150433036,02/12/2015,1015 VALLEY VIEW RD SE,308,Leila Valley,Z,33.69075,-84.35438,
BURGLARY-RESIDENCE,150432547,02/12/2015,1536 MARONA ST NE,609,Edgewood,O,33.75652,-84.33684,
BURGLARY-RESIDENCE,150432991,02/12/2015,4005 CAMPBELLTON RD SW,412,Ben Hill Terrace,P,33.69389,-84.51952,
BURGLARY-RESIDENCE,150431822,02/12/2015,264 BOOKER ST SW,307,Joyland,Y,33.7122,-84.39763,
BURGLARY-RESIDENCE,150432068,02/12/2015,1706 CAHOON ST SW,306,Sylvan Hills,X,33.70919,-84.41436,
BURGLARY-RESIDENCE,150432360,02/12/2015,2996 JONESBORO RD SE,313,South River Gardens,Z,33.67315,-84.37161,
BURGLARY-RESIDENCE,150431894,02/12/2015,2891 4TH ST SW,311,Hammond Park,X,33.67603,-84.40392,
BURGLARY-RESIDENCE,150431857,02/12/2015,919 WOODMERE DR NW,112,Collier Heights,I,33.78034,-84.48475,
