UC2_Literal,Report Number,Report Date,Location,Beat,Neigborhood,NPU,Lat,Long,
ROBBERY-PEDESTRIAN,152121987,07/31/2015,2300 CARVER DR NW,108,Dixie Hills,J,33.75973,-84.46293,
ROBBERY-PEDESTRIAN,152123062,07/31/2015,1073 PIEDMONT AVENUE,502,Midtown,E,33.78381,-84.37904,
ROBBERY-PEDESTRIAN,152120445,07/31/2015,2110 DONALD LEE HOLLOWELL PKWY NW,107,Grove Park,J,33.77642,-84.45469,
ROBBERY-COMMERCIAL,152120981,07/31/2015,132 JOSEPH E LOWERY BLVD NW,105,Washington Park,K,33.75871,-84.41774,
ROBBERY-COMMERCIAL,152121915,07/31/2015,1892 HOWELL MILL RD NW,205,Wildwood (NPU-C),C,33.80673,-84.41316,
ROBBERY-RESIDENCE,152120513,07/31/2015,2909 CAMPBELLTON RD SW,409,Southwest,R,33.69869,-84.48265,
ROBBERY-RESIDENCE,152122991,07/31/2015,468 GREENWOOD AVE NE,506,Midtown,E,33.77725,-84.37191,
ROBBERY-COMMERCIAL,152121567,07/31/2015,411 FLAT SHOALS AVE,612,East Atlanta,W,33.74253,-84.34852,
ROBBERY-PEDESTRIAN,152122820,07/31/2015,1175 MORELAND AVE SE,607,Woodland Hills,W,33.72241,-84.34972,
ROBBERY-PEDESTRIAN,152122847,07/31/2015,339 WINDSOR ST SW,303,Castleberry Hill,M,33.74506,-84.39802,
ROBBERY-PEDESTRIAN,152122673,07/31/2015,900 JOSEPH E BOONE BLVD NW ,105,Vine City,L,33.76337,-84.41688,
ROBBERY-PEDESTRIAN,152120171,07/31/2015,1091 EUCLID AVE NE,602,Inman Park,N,33.7636,-84.35097,
ROBBERY-PEDESTRIAN,152122191,07/31/2015,1634 LAKEWOOD AVE SE,307,Lakewood Heights,Y,33.70965,-84.37962,
ROBBERY-PEDESTRIAN,152122491,07/31/2015,180 RALPH D ABERNATHY BLVD SW,303,Mechanicsville,V,33.73656,-84.39376,
AGG ASSAULT,152122086,07/31/2015,3622 HAMPSHIRE PARK WAY SW;,413,Ben Hill Pines,P,33.68265,-84.5072,
AGG ASSAULT,152121423,07/31/2015,433 HIGHLAND AVE NE,604,Old Fourth Ward,M,33.76128,-84.37323,
AGG ASSAULT,152121798,07/31/2015,1870 CAMPBELLTON RD SW @QUALITY LIVING SERV,408,,R,33.7081,-84.4485,
AGG ASSAULT,152120373,07/31/2015,CAMPBELLTON RD SW / VENETIAN DR SW,403,Fort McPherson,S,33.7145,-84.4341,
AGG ASSAULT,152120295,07/31/2015,684 SMITH ST SW,303,Mechanicsville,V,33.73626,-84.40061,
AGG ASSAULT,152122131,07/31/2015,220 TROY ST NW,105,Hunter Hills,K,33.76087,-84.42639,
AGG ASSAULT,152121517,07/31/2015,650 IRA ST SW,303,Mechanicsville,V,33.73719,-84.39971,
BURGLARY-RESIDENCE,152121485,07/31/2015,1886 NORTHSIDE DR NW,205,Channing Valley,C,33.80633,-84.40823,
BURGLARY-RESIDENCE,152122322,07/31/2015,1700 NORTHSIDE DR NW,207,Berkeley Park,D,33.80121,-84.40791,
BURGLARY-RESIDENCE,152121827,07/31/2015,960 E PACES FERRY RD NE,210,Buckhead Heights,B,33.84691,-84.35618,
BURGLARY-NONRES,152120648,07/31/2015,1017 WESTVIEW DR SW,104,Ashview Heights,T,33.7482,-84.42039,
BURGLARY-NONRES,152120742,07/31/2015,1888 HOLLYWOOD RD NW,203,Riverside,D,33.80726,-84.47158,
BURGLARY-NONRES,152122187,07/31/2015,1256 SYLVAN RD SW,301,Capitol View,X,33.72067,-84.41773,
BURGLARY-RESIDENCE,152121947,07/31/2015,3243 WELMINGHAM DR SW,414,Princeton Lakes,P,33.66248,-84.51879,
LARCENY-NON VEHICLE,152121462,07/31/2015,1641 PINEHURST DR SW,408,Venetian Hills,S,33.71078,-84.45228,
LARCENY-NON VEHICLE,152120970,07/31/2015,1850 METROPOLITAN PKWY SW,306,Sylvan Hills,X,33.70369,-84.40795,
LARCENY-NON VEHICLE,152121033,07/31/2015,100 PEACHTREE ST NW,508,Downtown,M,33.75685,-84.3886,
LARCENY-NON VEHICLE,152121105,07/31/2015,2615 DONALD LEE HOLLOWELL PKWY NW,109,Center Hill,J,33.7762,-84.47236,
LARCENY-NON VEHICLE,152121437,07/31/2015,20 BROAD ST SW,511,Downtown,M,33.75312,-84.39208,
LARCENY-NON VEHICLE,152121688,07/31/2015,590 CASCADE AVE SW @KROGER - CASCADE,402,West End,T,33.73812,-84.43276,
LARCENY-NON VEHICLE,152121723,07/31/2015,3393 PEACHTREE RD NE @LENOX MALL,210,Lenox,B,33.84676,-84.36212,
LARCENY-NON VEHICLE,152122358,07/31/2015,261 14TH ST NW,501,Home Park,E,33.78647,-84.39544,
LARCENY-FROM VEHICLE,152120857,07/31/2015,1876 DEFOOR AVE NW,204,Underwood Hills,D,33.80645,-84.42495,
LARCENY-FROM VEHICLE,152120921,07/31/2015,3725 PRINCETON LAKES PKWY SW,414,Princeton Lakes,P,33.65777,-84.50877,
LARCENY-FROM VEHICLE,152120299,07/31/2015,680 REED ST SE,304,Summerhill,V,33.7361,-84.38542,
LARCENY-FROM VEHICLE,152121421,07/31/2015,300 MARTIN L KING JR DR SE,605,Oakland,W,33.74803,-84.37875,
LARCENY-FROM VEHICLE,152121317,07/31/2015,2170 CAMPBELLTON RD SW,410,Campbellton Road,R,33.70551,-84.45978,
LARCENY-FROM VEHICLE,152121308,07/31/2015,501 PULLIAM ST SW,303,Mechanicsville,V,33.74038,-84.39273,
LARCENY-FROM VEHICLE,152120995,07/31/2015,265 PEACHTREE CENTER AVE NE @MARIOTT MARQUIS,509,Downtown,M,33.76158,-84.38496,
LARCENY-FROM VEHICLE,152120952,07/31/2015,710 PROVINCE PL SE,605,Grant Park,W,33.73053,-84.36389,
LARCENY-FROM VEHICLE,152121196,07/31/2015,3534 MARTIN L KING JR DR SW,407,Adamsville,H,33.75771,-84.50344,
LARCENY-FROM VEHICLE,152122837,07/31/2015,2525 PIEDMONT RD NE @HOME DEPOT,211,Lindbergh/Morosgo,B,33.8245,-84.366,
LARCENY-FROM VEHICLE,152122890,07/31/2015,3660 CAMP CREEK PKWY SW,414,Princeton Lakes,P,33.65486,-84.50787,
LARCENY-FROM VEHICLE,152122852,07/31/2015,158 SAMPSON ST NE,604,Old Fourth Ward,M,33.75842,-84.36571,
LARCENY-FROM VEHICLE,152122831,07/31/2015,608 EDGEWOOD AVE NE,604,Old Fourth Ward,M,33.75457,-84.36741,
LARCENY-FROM VEHICLE,152122791,07/31/2015,3232 PEACHTREE RD NE,208,Buckhead Forest,B,33.84413,-84.37409,
LARCENY-FROM VEHICLE,152122785,07/31/2015,498 SINCLAIR AVE NE,602,Inman Park,N,33.76741,-84.35079,
LARCENY-FROM VEHICLE,152122692,07/31/2015,465 BOULEVARD SE,605,Grant Park,W,33.74183,-84.3685,
LARCENY-FROM VEHICLE,152123017,07/31/2015,924 GARRETT ST SE,606,Ormewood Park,W,33.74074,-84.35787,
LARCENY-FROM VEHICLE,152121677,07/31/2015,1006 WESTMONT RD SW,402,Bush Mountain,S,33.72782,-84.43729,
LARCENY-FROM VEHICLE,152121956,07/31/2015,3565 MARTIN L KING JR DR NW @Multiple,111,Adamsville,H,33.7601,-84.50466,
LARCENY-FROM VEHICLE,152121512,07/31/2015,2964 PEACHTREE RD NW,206,Peachtree Heights West,B,33.8358,-84.38339,
LARCENY-FROM VEHICLE,152121481,07/31/2015,182 SPENCE AVE SE,611,East Lake,O,33.74775,-84.29592,
LARCENY-FROM VEHICLE,152121692,07/31/2015,2143 PEACHTREE RD NE,207,,E,33.81262,-84.39195,
LARCENY-FROM VEHICLE,152122666,07/31/2015,610 ROSALIA ST SE,605,Grant Park,W,33.73907,-84.36767,
LARCENY-FROM VEHICLE,152122595,07/31/2015,830 WILLOUGHBY WAY,603,Old Fourth Ward,M,33.76466,-84.36061,
LARCENY-FROM VEHICLE,152122522,07/31/2015,1700 NORTHSIDE DR NW,207,Berkeley Park,D,33.80121,-84.40791,
LARCENY-FROM VEHICLE,152122409,07/31/2015,1155 LAVISTA RD NE,212,Lindridge/Martin Manor,F,33.81806,-84.35082,
LARCENY-FROM VEHICLE,152121661,07/31/2015,501 PULLIAM ST SW,303,Mechanicsville,V,33.74038,-84.39273,
LARCENY-FROM VEHICLE,152122039,07/31/2015,2325 MARIETTA BLVD,203,,C,33.82065,-84.45274,
LARCENY-FROM VEHICLE,152120644,07/31/2015,3074 WATERS RD SW,312,Glenrose Heights,Z,33.67069,-84.39683,
LARCENY-FROM VEHICLE,152120777,07/31/2015,972 LAWTON ST SW,402,Oakland City,S,33.72836,-84.42308,
LARCENY-FROM VEHICLE,152120810,07/31/2015,840 MARIETTA ST NW,504,Marietta Street Artery,E,33.77522,-84.40691,
LARCENY-FROM VEHICLE,152120759,07/31/2015,3385 DONALD LEE HOLLOWELL PKWY NW,114,Atlanta Industrial Park,G,33.79239,-84.49716,
LARCENY-NON VEHICLE,152122214,07/31/2015,3393 PEACHTREE RD NE,210,Lenox,B,33.84676,-84.36212,
LARCENY-NON VEHICLE,152121472,07/31/2015,1876 DEFOOR AVE NW,204,Underwood Hills,D,33.80645,-84.42495,
LARCENY-NON VEHICLE,152121213,07/31/2015,3485 NORTHSIDE PKWY NW,202,Randall Mill,A,33.85007,-84.42969,
LARCENY-NON VEHICLE,152121115,07/31/2015,265 PEACHTREE CENTER AVE NE ,509,Downtown,M,33.76158,-84.38496,
LARCENY-NON VEHICLE,152122279,07/31/2015,552 FLAT SHOALS AVE SE,612,East Atlanta,W,33.73932,-84.34418,
LARCENY-NON VEHICLE,152122915,07/31/2015,2150 SOUTHWOOD CV,412,Ben Hill Terrace,P,33.69518,-84.51856,
LARCENY-NON VEHICLE,152121346,07/31/2015,OLD HAPEVILLE RD SW / CLEVELAND AVE SW,311,Browns Mill Park,Z,33.68111,-84.39373,
LARCENY-NON VEHICLE,152121227,07/31/2015,200 MARIETTA ST NE,507,Downtown,M,33.75908,-84.39451,
LARCENY-NON VEHICLE,152121224,07/31/2015,2355 BOLTON RD NW @BOLTON ROAD HOSP,203,Bolton,D,33.81998,-84.45941,
LARCENY-NON VEHICLE,152120994,07/31/2015,259 RICHARDSON ST SW,303,Mechanicsville,V,33.74083,-84.39654,
LARCENY-NON VEHICLE,152121972,07/31/2015,78 BROAD ST NW,508,Downtown,M,33.75221,-84.39284,
LARCENY-NON VEHICLE,152122742,07/31/2015,432 ANDREW J HAIRSTON PL NW,103,English Avenue,L,33.76655,-84.41393,
LARCENY-NON VEHICLE,152122868,07/31/2015,255 COURTLAND ST NE @HILTON HOTEL,509,Downtown,M,33.76157,-84.38314,
AUTO THEFT,152122984,07/31/2015,2900 LANDRUM DR SW,409,Southwest,R,33.70623,-84.48372,
AUTO THEFT,152122928,07/31/2015,3760 PRINCETON LAKES PKWY SW,414,Princeton Lakes,P,33.65806,-84.51051,
AUTO THEFT,152123009,07/31/2015,157 LUCKIE ST NW,508,Downtown,M,33.75913,-84.39141,
AUTO THEFT,152120905,07/31/2015,1768 NOBLE DR NE,213,Morningside/Lenox Park,F,33.80304,-84.34284,
AUTO THEFT,152120765,07/31/2015,1700 NORTHSIDE DR NW,207,Berkeley Park,D,33.80121,-84.40791,
AUTO THEFT,152120700,07/31/2015,3456 MEADOWLANE PL SW,412,Meadowbrook Forest,P,33.69304,-84.5009,
AUTO THEFT,152120474,07/31/2015,808 MAGNOLIA WAY NW,102,Vine City,L,33.75805,-84.41411,
AUTO THEFT,152122653,07/31/2015,387 HILL ST SE,605,Grant Park,W,33.74436,-84.37974,
AUTO THEFT,152121917,07/31/2015,1734 MARCEL AVE SW,408,,R,33.7082,-84.44482,
AUTO THEFT,152121014,07/31/2015,147 CLAIRE DR SW,307,Lakewood Heights,Y,33.70489,-84.3834,
AUTO THEFT,152121006,07/31/2015,1465 HOWELL MILL RD NW,207,Berkeley Park,D,33.79501,-84.41465,
AUTO THEFT,152121747,07/31/2015,2900 LANDRUM DR SW,409,Southwest,R,33.70623,-84.48372,
AUTO THEFT,152122667,07/31/2015,1919 METROPOLITAN PKWY,306,Sylvan Hills,X,33.70278,-84.41017,
AUTO THEFT,152121608,07/31/2015,339 TEMPLE ST NW,106,Bankhead,K,33.76396,-84.4218,
AUTO THEFT,152111183,07/30/2015,490 GLENN,301,Mechanicsville,V,33.73805,-84.40262,
AUTO THEFT,152111933,07/30/2015,2497 FORREST PARK RD SE,308,Leila Valley,Z,33.68641,-84.36054,
AUTO THEFT,151911134,07/30/2015,196 BURBANK DR SW,104,Mozley Park,K,33.74958,-84.42841,
AUTO THEFT,152112527,07/30/2015,699 CUMBERLAND RD NE,213,Morningside/Lenox Park,F,33.79597,-84.36419,
AUTO THEFT,152112324,07/30/2015,243 ALTOONA PL SW,104,Mozley Park,K,33.74854,-84.43557,
AUTO THEFT,152112124,07/30/2015,445 CLEVELAND AVE SW,309,Rosedale Heights,Z,33.68013,-84.37757,
AUTO THEFT,152111813,07/30/2015,3170 ABBEY DR SW,414,Princeton Lakes,P,33.66746,-84.51237,
AUTO THEFT,152111390,07/30/2015,1681 ALVARADO TER SW,404,Cascade Avenue/Road,S,33.73076,-84.44305,
AUTO THEFT,152110600,07/30/2015,1688 AUDREY PL NW,113,Lincoln Homes,G,33.80125,-84.47658,
AUTO THEFT,152110457,07/30/2015,167 16TH ST NW @FS11,501,Atlantic Station,E,33.79026,-84.39286,
LARCENY-NON VEHICLE,152091059,07/30/2015,2002 LAKEWOOD WAY,307,Lakewood Heights,Y,33.70226,-84.39452,
LARCENY-NON VEHICLE,152091197,07/30/2015,765 PLAINVILLE DR SW,407,Wildwood (NPU-H),H,33.74031,-84.51967,
LARCENY-NON VEHICLE,152111772,07/30/2015,2707 DONALD LEE HOLLOWELL PKWY NW,113,Brookview Heights,G,33.77774,-84.47583,
LARCENY-NON VEHICLE,152112624,07/30/2015,763 CASCADE AVE SW,404,Westview,T,33.73456,-84.43788,
LARCENY-NON VEHICLE,152111345,07/30/2015,3041 LANDRUM DR SW,409,Southwest,R,33.70846,-84.48783,
LARCENY-NON VEHICLE,152111139,07/30/2015,270 17TH ST NW,501,Atlantic Station,E,33.79109,-84.39761,
LARCENY-NON VEHICLE,152112388,07/30/2015,280 ORMOND ST SE,605,Grant Park,W,33.73174,-84.37864,
LARCENY-NON VEHICLE,152111502,07/30/2015,2292 FAIRBURN RD SW,412,Ben Hill Acres,P,33.69129,-84.51099,
LARCENY-NON VEHICLE,152110311,07/30/2015,1150 ASTOR AVE SW,306,Sylvan Hills,X,33.70137,-84.42678,
LARCENY-NON VEHICLE,152111016,07/30/2015,585 MCDANIEL ST SW,303,Mechanicsville,V,33.73886,-84.40246,
LARCENY-NON VEHICLE,152110795,07/30/2015,105 COLLIER RD,207,,E,33.80821,-84.39686,
LARCENY-NON VEHICLE,152111600,07/30/2015,2951 PIEDMONT RD NE,211,Peachtree Park,B,33.8352,-84.3679,
LARCENY-NON VEHICLE,152112661,07/30/2015,150 ADAIR AVE SE,307,Lakewood Heights,Y,33.7064,-84.38321,
LARCENY-NON VEHICLE,152112590,07/30/2015,2054 HOWARD CIR NE,608,Lake Claire,N,33.76417,-84.32023,
LARCENY-FROM VEHICLE,152110746,07/30/2015,2730 BROWNS MILL RD SE,312,Rosedale Heights,Z,33.68001,-84.38352,
LARCENY-FROM VEHICLE,152112893,07/30/2015,2102 MACON DR SW,310,Polar Rock,Z,33.69695,-84.38907,
LARCENY-FROM VEHICLE,152110706,07/30/2015,692 HORTENSE PL NW,110,Grove Park,J,33.77368,-84.44116,
LARCENY-FROM VEHICLE,152110647,07/30/2015,64 14TH ST ,503,Midtown,E,33.78658,-84.38903,
LARCENY-NON VEHICLE,152111221,07/30/2015,740 BONAVENTURE AVE NE,601,Virginia Highland,F,33.77482,-84.36107,
LARCENY-NON VEHICLE,152112149,07/30/2015,340 SUTHERLAND PL NE,608,Lake Claire,N,33.76313,-84.3264,
LARCENY-FROM VEHICLE,152110083,07/30/2015,346 COPENHILL AVE NE,602,Inman Park,N,33.76382,-84.3574,
LARCENY-FROM VEHICLE,152112489,07/30/2015,3009 RHODENHAVEN DR NW,205,Castlewood,C,33.83732,-84.41086,
LARCENY-FROM VEHICLE,152112189,07/30/2015,923 LEE ST SW,401,West End,T,33.72991,-84.41607,
LARCENY-FROM VEHICLE,152112175,07/30/2015,692 PENN AVE NE,505,Midtown,E,33.77349,-84.37905,
LARCENY-FROM VEHICLE,152112116,07/30/2015,1190 FOSTER ST NW,203,Blandtown,D,33.78692,-84.41424,
LARCENY-FROM VEHICLE,152112523,07/30/2015,500 10TH ST NE,502,,E,33.78223,-84.36922,
LARCENY-FROM VEHICLE,152111725,07/30/2015,2500 CENTER ST NW,113,Carey Park,G,33.78999,-84.47156,
LARCENY-FROM VEHICLE,152111670,07/30/2015,1425 ELLSWORTH INDUSTRIAL BLVD NW,203,Blandtown,D,33.79388,-84.42575,
LARCENY-FROM VEHICLE,152111606,07/30/2015,1325 LOGAN CIR NW,204,Underwood Hills,D,33.80567,-84.43066,
LARCENY-FROM VEHICLE,152112065,07/30/2015,3232 PEACHTREE RD,206,Peachtree Park,B,33.83754,-84.36829,
LARCENY-FROM VEHICLE,152111589,07/30/2015,1919 METROPOLITAN PKWY SW,306,Sylvan Hills,X,33.70278,-84.41017,
LARCENY-FROM VEHICLE,152111574,07/30/2015,1025 DAWN VIEW LN NW,201,Brandon,C,33.83052,-84.4188,
LARCENY-FROM VEHICLE,152110667,07/30/2015,3727 PEACHTREE RD NE,210,Ridgedale Park,B,33.85572,-84.35086,
LARCENY-FROM VEHICLE,152110673,07/30/2015,99 UNIVERSITY AVE SW,304,Peoplestown,V,33.72181,-84.39107,
LARCENY-FROM VEHICLE,152110684,07/30/2015,560 TIFT ST SW,303,Adair Park,V,33.73961,-84.41026,
LARCENY-FROM VEHICLE,152110687,07/30/2015,2 12TH ST NE,503,Midtown,E,33.78466,-84.38759,
LARCENY-FROM VEHICLE,152110038,07/30/2015,175 MEMORIAL DR SE,605,Capitol Gateway,V,33.74679,-84.382,
LARCENY-FROM VEHICLE,152110119,07/30/2015,945 MARTIN ST SE,304,Peoplestown,V,33.72869,-84.3835,
LARCENY-FROM VEHICLE,152110866,07/30/2015,988 ROSEDALE RD NE,601,Virginia Highland,F,33.7815,-84.34847,
LARCENY-FROM VEHICLE,152111343,07/30/2015,3730 CARMIA DR SW @PUBLIX - CARMIA,414,Princeton Lakes,P,33.65573,-84.5109,
LARCENY-FROM VEHICLE,152111106,07/30/2015,220 26TH ST NW,207,Brookwood,E,33.80312,-84.4011,
LARCENY-FROM VEHICLE,152110911,07/30/2015,1500 SOUTHLAND CIR NW,203,Hills Park,D,33.79918,-84.43166,
LARCENY-FROM VEHICLE,152110707,07/30/2015,2775 N HILLS DR NE,206,Garden Hills,B,33.8308,-84.37204,
LARCENY-FROM VEHICLE,152110277,07/30/2015,340 E PACES FERRY RD NE,206,Buckhead Village,B,33.83934,-84.37624,
LARCENY-FROM VEHICLE,152110648,07/30/2015,172 ROCKY FORD RD NE,610,Kirkwood,O,33.7569,-84.31836,
LARCENY-FROM VEHICLE,152110489,07/30/2015,1974 BEECHER RD SW,404,Cascade Avenue/Road,S,33.7336,-84.45268,
LARCENY-FROM VEHICLE,152110594,07/30/2015,1373 EUCLID AVE NE,608,Candler Park,N,33.76999,-84.34241,
LARCENY-FROM VEHICLE,152110636,07/30/2015,2959 FORREST HILLS DR SW,311,Hammond Park,X,33.67414,-84.39962,
LARCENY-FROM VEHICLE,152111439,07/30/2015,3393 PEACHTREE RD NE @LENOX MALL,210,Lenox,B,33.84676,-84.36212,
LARCENY-NON VEHICLE,152111581,07/30/2015,1275 CAROLINE ST NE @TARGET - CAROLINE,609,Edgewood,O,33.75674,-84.34619,
LARCENY-NON VEHICLE,152111847,07/30/2015,1450 DONNELLY AVE SW,402,West End,T,33.73772,-84.43479,
LARCENY-NON VEHICLE,152110474,07/30/2015,235 PEACHTREE ST NE,509,Downtown,M,33.76044,-84.38702,
LARCENY-NON VEHICLE,152110792,07/30/2015,1885 JONESBORO RD SE,307,Lakewood Heights,Y,33.7032,-84.37701,
LARCENY-NON VEHICLE,152110934,07/30/2015,1275 CAROLINE ST NE @TARGET - CAROLINE,609,Edgewood,O,33.75674,-84.34619,
LARCENY-NON VEHICLE,152111518,07/30/2015,2331 BOLTON RD NW,203,Bolton,D,33.81909,-84.46179,
LARCENY-NON VEHICLE,152112233,07/30/2015,30 MARIETTA STREET,511,Downtown,M,33.75478,-84.39134,
LARCENY-NON VEHICLE,152110137,07/30/2015,24 DELMOOR CT NW,111,,I,33.75638,-84.49126,
BURGLARY-RESIDENCE,152111222,07/30/2015,2052 LA DAWN LN NW,203,Bolton,D,33.81547,-84.45447,
BURGLARY-NONRES,152110794,07/30/2015,178 WESTVIEW PL SW,104,Mozley Park,K,33.7503,-84.43444,
BURGLARY-NONRES,152111512,07/30/2015,1892 METROPOLITAN PKWY SW,306,Sylvan Hills,X,33.7026,-84.40777,
BURGLARY-NONRES,152110690,07/30/2015,3730 CARMIA DR SW @PUBLIX - CARMIA,414,Princeton Lakes,P,33.65573,-84.5109,
BURGLARY-RESIDENCE,152111546,07/30/2015,185 MONTAG CIR NE,602,Inman Park,N,33.76013,-84.36218,
BURGLARY-RESIDENCE,152112597,07/30/2015,2980 JONESBORO RD SE,313,South River Gardens,Z,33.67261,-84.3694,
BURGLARY-RESIDENCE,152111666,07/30/2015,3104 ABBEY DR SW,414,Princeton Lakes,P,33.66726,-84.50853,
BURGLARY-RESIDENCE,152110529,07/30/2015,4005 CAMPBELLTON RD SW,412,Ben Hill Terrace,P,33.69389,-84.51952,
BURGLARY-RESIDENCE,152112208,07/30/2015,185 MONTAG CIR NE,602,Inman Park,N,33.76013,-84.36218,
BURGLARY-RESIDENCE,152111975,07/30/2015,1940 FISHER RD SE,607,Custer/McDonough/Guice,W,33.70979,-84.35849,
BURGLARY-RESIDENCE,152110842,07/30/2015,1923 W KIMBERLY RD SW,412,Ben Hill Terrace,P,33.70266,-84.52478,
BURGLARY-RESIDENCE,152111177,07/30/2015,1098 OAKLAND DR SW,403,Oakland City,S,33.72503,-84.42719,
BURGLARY-RESIDENCE,152111497,07/30/2015,2223 POLAR ROCK AVE SW,310,Polar Rock,Z,33.69387,-84.39633,
AGG ASSAULT,152112883,07/30/2015,252 POLAR ROCK RD SW,310,Polar Rock,Z,33.69582,-84.39771,
AGG ASSAULT,152112432,07/30/2015,1179 WELCH ST SW,302,Pittsburgh,V,33.72273,-84.40497,
AGG ASSAULT,152112720,07/30/2015,454 MELLVIEW AVE SW,301,Capitol View Manor,X,33.71753,-84.40257,
ROBBERY-COMMERCIAL,152112386,07/30/2015,30 ALABAMA ST SW ,511,Downtown,M,33.75194,-84.38964,
ROBBERY-PEDESTRIAN,152112553,07/30/2015,849 CLEVELAND AVE SW,309,Perkerson,X,33.68178,-84.41687,
ROBBERY-PEDESTRIAN,152112583,07/30/2015,505 FULTON STREET SW,303,Mechanicsville,V,33.74183,-84.39846,
ROBBERY-PEDESTRIAN,152112384,07/30/2015,942 HANK AARON DR SW,304,Peoplestown,V,33.72913,-84.3873,
HOMICIDE,152082815,07/29/2015,975 PROCTOR ST NW,106,Bankhead,K,33.76514,-84.41947,
ROBBERY-PEDESTRIAN,152101502,07/29/2015,3843 JONESBORO RD SE ,313,South River Gardens,Z,33.65199,-84.36701,
ROBBERY-PEDESTRIAN,152100845,07/29/2015,515 FAIRBURN RD SW,407,Fairburn Mays,H,33.74,-84.51026,
ROBBERY-PEDESTRIAN,152100168,07/29/2015,1573 CAMPBELLTON RD SW,408,Venetian Hills,S,33.7128,-84.43987,
ROBBERY-PEDESTRIAN,152100144,07/29/2015,2795 SEABORN RD NW,112,Collier Heights,I,33.77532,-84.47965,
ROBBERY-PEDESTRIAN,152100012,07/29/2015,59 DANIEL ST SE,604,Old Fourth Ward,M,33.75256,-84.37073,
ROBBERY-PEDESTRIAN,152101338,07/29/2015,580 THOMASVILLE BLVD SE,308,Thomasville Heights,Z,33.70504,-84.36332,
ROBBERY-COMMERCIAL,152102019,07/29/2015,1302 RALPH D ABERNATHY BLVD SW,402,West End,T,33.73858,-84.43033,
ROBBERY-PEDESTRIAN,152102425,07/29/2015,872 PEACHTREE ST NE,505,Midtown,E,33.77868,-84.3844,
AGG ASSAULT,152100421,07/29/2015,2980 DELMAR LN NW,111,,I,33.75509,-84.48491,
ROBBERY-RESIDENCE,152100331,07/29/2015,1033 HOLLYWOOD RD NW,110,Almond Park,G,33.78308,-84.45882,
AGG ASSAULT,152092763,07/29/2015,2587 DONALD LEE HOLLOWELL PKWY NW,109,Center Hill,J,33.77553,-84.4712,
BURGLARY-RESIDENCE,152101720,07/29/2015,2909 CAMPBELLTON RD SW,409,Southwest,R,33.69869,-84.48265,
BURGLARY-RESIDENCE,152102137,07/29/2015,1374 LA FRANCE ST NE,609,Edgewood,O,33.76051,-84.34264,
AGG ASSAULT,152101086,07/29/2015,215 ADAIR AVENUE SE,307,Lakewood Heights,Y,33.70617,-84.38017,
AGG ASSAULT,152101659,07/29/2015,235 PEACHTREE ST NE,509,Downtown,M,33.76044,-84.38702,
AGG ASSAULT,152101357,07/29/2015,490 GLENN ST SW,303,Mechanicsville,V,33.73805,-84.40262,
AGG ASSAULT,152102209,07/29/2015,2002 LAKEWOOD WAY SW @HIFI BUYS AMPHITHEAT,307,Lakewood Heights,Y,33.7007,-84.39835,
BURGLARY-RESIDENCE,152101506,07/29/2015,2339 CAREY DR SE,310,Lakewood,Z,33.68999,-84.37025,
BURGLARY-RESIDENCE,152102701,07/29/2015,1005 BALDWIN ST SW,104,Ashview Heights,T,33.74647,-84.42057,
BURGLARY-RESIDENCE,152102421,07/29/2015,1510 AVON AVE SW,403,Venetian Hills,S,33.72222,-84.43748,
BURGLARY-RESIDENCE,152102224,07/29/2015,2275 POLAR ROCK TER SW,310,Polar Rock,Z,33.69231,-84.39507,
BURGLARY-RESIDENCE,152101073,07/29/2015,3390 FAIRBURN RD SW,414,Ben Hill,P,33.6639,-84.52377,
BURGLARY-RESIDENCE,152101284,07/29/2015,2880 BROWNS MILL RD SE,312,Orchard Knob,Z,33.676,-84.38388,
BURGLARY-NONRES,152100747,07/29/2015,737 WOODLAND AVE SE,607,Ormewood Park,W,33.73428,-84.35164,
BURGLARY-RESIDENCE,152101363,07/29/2015,445 MARKHAM ST SW,507,Castleberry Hill,M,33.75274,-84.40069,
BURGLARY-RESIDENCE,152101169,07/29/2015,2909 CAMPBELLTON RD SW,409,Southwest,R,33.69869,-84.48265,
LARCENY-NON VEHICLE,152101232,07/29/2015,2429 MARTIN L KING JR DR NW,108,Florida Heights,I,33.75246,-84.46669,
LARCENY-NON VEHICLE,152101352,07/29/2015,1700 MONROE DR NE @KROGER - MONROE,213,Piedmont Heights,F,33.80052,-84.37307,
LARCENY-NON VEHICLE,152101564,07/29/2015,3393 PEACHTREE RD NE @LENOX MALL,210,Lenox,B,33.84676,-84.36212,
LARCENY-NON VEHICLE,152101575,07/29/2015,1801 HOWELL MILL RD,204,Berkeley Park,D,33.80388,-84.41278,
LARCENY-NON VEHICLE,152102695,07/29/2015,3135 PIEDMONT RD NE,211,Peachtree Park,B,33.84266,-84.37036,
LARCENY-FROM VEHICLE,152100777,07/29/2015,1 S PRADO NE ,502,Ansley Park,E,33.78948,-84.37643,
LARCENY-FROM VEHICLE,152100835,07/29/2015,3725 PRINCETON LAKES PKWY SW,414,Princeton Lakes,P,33.65777,-84.50877,
LARCENY-FROM VEHICLE,152100638,07/29/2015,1308 BEECHER ST SW,402,Oakland City,S,33.73302,-84.43035,
LARCENY-FROM VEHICLE,152101678,07/29/2015,2305 DONALD LEE HOLLOWELL PKWY NW @CENTER HILL PARK,109,Center Hill,J,33.77704,-84.46053,
LARCENY-FROM VEHICLE,152100588,07/29/2015,2504 REX AVE SW,413,Rue Royal,P,33.68723,-84.50482,
LARCENY-FROM VEHICLE,152100710,07/29/2015,1935 ALISON CT SW ,410,Fort Valley,R,33.70118,-84.45065,
LARCENY-FROM VEHICLE,152101959,07/29/2015,1371 KIMBERLY WAY SW,412,Ashley Courts,P,33.71771,-84.52315,
LARCENY-FROM VEHICLE,152101389,07/29/2015,1251 PRYOR RD SW,302,Pittsburgh,V,33.72111,-84.39398,
LARCENY-FROM VEHICLE,152101401,07/29/2015,3045 DONALD LEE HOLLOWELL PKWY NW,113,Brookview Heights,G,33.78416,-84.487,
LARCENY-FROM VEHICLE,152101932,07/29/2015,1495 CHATTAHOOCHEE AVE NW,204,Underwood Hills,D,33.80887,-84.43622,
LARCENY-FROM VEHICLE,152101963,07/29/2015,525 PEEPLES ST SW @WEST END BRANCH,401,West End,T,33.74046,-84.4206,
LARCENY-FROM VEHICLE,152101811,07/29/2015,98 ANDERSON AVE NW @APS KIPP COLLEGIATE,108,Dixie Hills,J,33.75633,-84.45114,
LARCENY-FROM VEHICLE,152100887,07/29/2015,242 11TH ST NE,502,Midtown,E,33.78273,-84.37925,
LARCENY-FROM VEHICLE,152101243,07/29/2015,1550 NORTHWEST DR NW,113,Monroe Heights,G,33.7971,-84.48651,
LARCENY-FROM VEHICLE,152101277,07/29/2015,3609 GINNIS RD SW,407,Fairburn Mays,H,33.73177,-84.51022,
LARCENY-FROM VEHICLE,152102599,07/29/2015,661 IRWIN BOULEVARD NE ,604,Old Fourth Ward,M,33.75785,-84.36562,
LARCENY-FROM VEHICLE,152102705,07/29/2015,2980 JONESBORO RD SE,313,South River Gardens,Z,33.67339,-84.37144,
LARCENY-FROM VEHICLE,152101077,07/29/2015,3378 GREENBRIAR PKWY SW,413,Greenbriar,R,33.68677,-84.49773,
LARCENY-FROM VEHICLE,152102111,07/29/2015,1200 HOWELL MILL RD NW,203,Blandtown,D,33.78674,-84.41204,
LARCENY-FROM VEHICLE,152101539,07/29/2015,1874 PEACHTREE RD NW,207,Ardmore,E,33.80624,-84.3944,
LARCENY-FROM VEHICLE,152101521,07/29/2015,3604 BAKERS FERRY RD SW,407,Adamsville,H,33.75894,-84.50586,
LARCENY-FROM VEHICLE,152101513,07/29/2015,424 DECATUR ST SE,604,Sweet Auburn,M,33.75107,-84.37448,
LARCENY-FROM VEHICLE,152102150,07/29/2015,186 NORTHSIDE DR SW,507,Castleberry Hill,M,33.74952,-84.40352,
LARCENY-FROM VEHICLE,152101640,07/29/2015,1060 GUN CLUB RD NW,110,Almond Park,G,33.78412,-84.45726,
LARCENY-FROM VEHICLE,152101114,07/29/2015,1092 HUFF RD NW,203,Blandtown,D,33.7891,-84.42417,
LARCENY-FROM VEHICLE,152101174,07/29/2015,840 MARIETTA ST NW,504,Marietta Street Artery,E,33.77585,-84.40699,
LARCENY-FROM VEHICLE,152102213,07/29/2015,315 OAKDALE RD NE,608,Candler Park,N,33.76293,-84.34154,
LARCENY-NON VEHICLE,152101305,07/29/2015,1073 PIEDMONT AVE,502,Midtown,E,33.78381,-84.37904,
LARCENY-FROM VEHICLE,152102099,07/29/2015,1613 WOODLAND AVE SE,605,Custer/McDonough/Guice,W,33.71024,-84.35284,
LARCENY-FROM VEHICLE,152101446,07/29/2015,668 S ELIZABETH PL NW,107,Grove Park,J,33.77328,-84.44802,
LARCENY-FROM VEHICLE,152100655,07/29/2015,1027 DOVERS ALY SW,402,Bush Mountain,S,33.72704,-84.43073,
LARCENY-NON VEHICLE,152101501,07/29/2015,2061 PEACHTREE RD NE,207,,E,33.811,-84.39236,
LARCENY-NON VEHICLE,152101376,07/29/2015,239 W LAKE AVE NW,105,West Lake,J,33.76077,-84.44203,
LARCENY-NON VEHICLE,152102153,07/29/2015,3030 HEADLAND DR SW,411,Greenbriar,R,33.68841,-84.48742,
LARCENY-NON VEHICLE,152102035,07/29/2015,45 BOWEN AVE SE,305,South Atlanta,Y,33.70954,-84.38356,
LARCENY-NON VEHICLE,152100814,07/29/2015,225 JAMES P BRAWLEY DR,102,Vine City,L,33.76058,-84.41223,
LARCENY-NON VEHICLE,152101066,07/29/2015,765 MCDANIEL ST SW,302,Pittsburgh,V,33.73396,-84.40177,
LARCENY-NON VEHICLE,152101952,07/29/2015,1903 DREW DR NW,110,West Highlands,G,33.79214,-84.44947,
LARCENY-NON VEHICLE,152100419,07/29/2015,477 PEACHTREE ST NE,509,Downtown,M,33.76764,-84.38524,
AUTO THEFT,152102480,07/29/2015,1130 PORTLAND AVE SE,607,Ormewood Park,W,33.73963,-84.35063,
AUTO THEFT,152102227,07/29/2015,35 FORSYTH ST NW,508,Downtown,M,33.75557,-84.39067,
AUTO THEFT,152102343,07/29/2015,I-20 WB EXPY SE / MORELAND AVE SE,609,Reynoldstown,W,33.7455,-84.34923,
AUTO THEFT,152100192,07/29/2015,405 FAIRBURN ROAD,407,Wildwood (NPU-H),H,33.74367,-84.50959,
AUTO THEFT,152100401,07/29/2015,1070 SANDERS AVE SE,606,Ormewood Park,W,33.74223,-84.35256,
AUTO THEFT,152101337,07/29/2015,1469 LEE ST SW,408,Fort McPherson,S,33.7141,-84.42634,
AUTO THEFT,152100213,07/29/2015,405 FAIRBURN ROAD,407,Wildwood (NPU-H),H,33.74465,-84.51321,
AUTO THEFT,152100818,07/29/2015,968 MANIGAULT ST SE,606,Reynoldstown,N,33.75112,-84.35536,
AUTO THEFT,152100713,07/29/2015,743 BERNE ST SE,605,Grant Park,W,33.73636,-84.36301,
AUTO THEFT,152100509,07/29/2015,880 GLENWOOD AVE SE,606,Grant Park,W,33.74058,-84.35903,
AUTO THEFT,152100499,07/29/2015,3901 CAMPBELLTON RD SW,412,Kings Forest,P,33.69231,-84.51621,
AUTO THEFT,152101861,07/29/2015,3579 OAKSHIRE WAY SE,313,South River Gardens,Z,33.65735,-84.3515,
AUTO THEFT,152100784,07/29/2015,929 GARRETT ST SE,606,Ormewood Park,W,33.74048,-84.35786,
AUTO THEFT,152100609,07/29/2015,43 SPRINGSIDE DR SE,312,Glenrose Heights,Z,33.67603,-84.38823,
AUTO THEFT,152101437,07/29/2015,2044 CAMPBELLTON RD SW,410,Campbellton Road,R,33.70658,-84.4568,
AUTO THEFT,152101555,07/29/2015,559 AMSTERDAM AVE NE,601,Virginia Highland,F,33.78802,-84.36864,
AUTO THEFT,152101487,07/29/2015,1123 JONES AVE NW,110,Grove Park,J,33.78545,-84.45178,
AUTO THEFT,152090692,07/28/2015,2164 FAULKNER RD NE,212,Lindridge/Martin Manor,F,33.8123,-84.35834,
AUTO THEFT,152090145,07/28/2015,ARTHUR LANGFORD EB PKWY SW / DELOWE DR SW,410,Campbellton Road,,33.69926,-84.45734,
AUTO THEFT,152090710,07/28/2015,2457 MARTIN L KING JR DR NW,111,Harland Terrace,I,33.7521,-84.46794,
AUTO THEFT,152090783,07/28/2015,486 DECATUR ST SE,604,Sweet Auburn,M,33.75126,-84.37207,
AUTO THEFT,152090073,07/28/2015,17 HOWELL ST NE,604,Old Fourth Ward,M,33.75484,-84.36956,
AUTO THEFT,152090636,07/28/2015,814 MAGNOLIA WAY NW,102,Vine City,L,33.75805,-84.41419,
AUTO THEFT,152091162,07/28/2015,2788 DEFOORS FERRY RD NW,201,,C,33.82114,-84.44713,
AUTO THEFT,152091138,07/28/2015,1683 LAKEWOOD AVE SE,307,Lakewood Heights,Y,33.7083,-84.38035,
AUTO THEFT,152090754,07/28/2015,2788 DEFOORS FERRY RD NW,201,,C,33.82114,-84.44713,
AUTO THEFT,152090752,07/28/2015,120 BROWNLEE RD SW,407,Adamsville,H,33.75348,-84.50038,
AUTO THEFT,152090509,07/28/2015,3450 FORREST PARK RD SE,313,South River Gardens,Z,33.66061,-84.35549,
AUTO THEFT,152090469,07/28/2015,362 ROY ST SW,302,Pittsburgh,V,33.72405,-84.39989,
AUTO THEFT,152090677,07/28/2015,1140 EUCLID AVE NE,602,Inman Park,N,33.765,-84.35011,
AUTO THEFT,152090295,07/28/2015,445 CAPITOL AVE SW,304,Summerhill,V,33.74245,-84.38909,
AUTO THEFT,152090490,07/28/2015,585 MCWILLIAMS RD SE,310,Browns Mill Park,Z,33.6887,-84.36924,
AUTO THEFT,152092060,07/28/2015,724 CATHERINE ST SW,301,Adair Park,V,33.72579,-84.41152,
AUTO THEFT,152092737,07/28/2015,1251 RICHLAND RD SW,402,Oakland City,S,33.73103,-84.42852,
AUTO THEFT,152092559,07/28/2015,2846 MONICA CT SW,406,Peyton Forest,I,33.74273,-84.48112,
AUTO THEFT,152092537,07/28/2015,2349 GLENWOOD AVE SE,611,East Lake,O,33.73957,-84.3103,
AUTO THEFT,152092034,07/28/2015,2928 METROPOLITAN PKWY SW,311,Hammond Park,X,33.67491,-84.40837,
AUTO THEFT,152092341,07/28/2015,776 BROOKLINE ST SW,301,Adair Park,V,33.72686,-84.41304,
LARCENY-NON VEHICLE,152092544,07/28/2015,712 CATHERINE ST SW,301,Adair Park,V,33.7257,-84.41087,
LARCENY-NON VEHICLE,152090834,07/28/2015,595 SHERWOOD RD NE,213,Morningside/Lenox Park,F,33.797,-84.36754,
LARCENY-NON VEHICLE,152091661,07/28/2015,750 GLENWOOD AVE SE @GLENCASTLE APTS,605,Grant Park,W,33.74209,-84.36288,
LARCENY-NON VEHICLE,152091486,07/28/2015,3285 PEACHTREE RD NE @EMBASSY SUITES,208,Peachtree Park,B,33.84441,-84.36862,
LARCENY-NON VEHICLE,152091936,07/28/2015,1944 PIEDMONT CIR NE,212,Piedmont Heights,F,33.81165,-84.36787,
LARCENY-NON VEHICLE,152090617,07/28/2015,675 PONCE DE LEON AVE NE,603,Old Fourth Ward,M,33.77323,-84.36513,
LARCENY-FROM VEHICLE,152091648,07/28/2015,1100 SPRING ST NW,503,Midtown,E,33.78477,-84.3899,
LARCENY-FROM VEHICLE,152090642,07/28/2015,2224 BOHLER RD NW,204,Underwood Hills,D,33.81567,-84.42996,
LARCENY-FROM VEHICLE,152090465,07/28/2015,167 16TH ST NW @FS11,501,Atlantic Station,E,33.79026,-84.39286,
LARCENY-FROM VEHICLE,152091509,07/28/2015,2125 NORTHSIDE DR NW ,205,,C,33.81356,-84.40761,
LARCENY-FROM VEHICLE,152091185,07/28/2015,198 HIGH POINT CV SW,305,High Point,Y,33.71774,-84.39468,
LARCENY-NON VEHICLE,152092461,07/28/2015,835 MARTIN LUTHER KING JR DR,102,Vine City,L,33.75504,-84.41457,
LARCENY-NON VEHICLE,152092253,07/28/2015,231 18TH ST NW,501,Atlantic Station,E,33.79275,-84.39544,
LARCENY-NON VEHICLE,152080930,07/28/2015,835 MARTIN LUTHER KING JR DR,102,Vine City,L,33.75504,-84.41457,
LARCENY-NON VEHICLE,152091320,07/28/2015,835 MARTIN L KING JR DR NW,102,Vine City,L,33.75504,-84.41457,
LARCENY-NON VEHICLE,152091502,07/28/2015,1275 CAROLINE ST NE @TARGET - CAROLINE,609,Edgewood,O,33.75674,-84.34619,
LARCENY-NON VEHICLE,152092047,07/28/2015,3535 PEACHTREE RD NE @PUBLIX - PEACHTREE,210,Lenox,B,33.85182,-84.3595,
LARCENY-FROM VEHICLE,152092433,07/28/2015,3232 PEACHTREE RD NE,208,Buckhead Forest,B,33.84413,-84.37409,
LARCENY-FROM VEHICLE,152092386,07/28/2015,1165 BOOKER AVE SW,302,Pittsburgh,V,33.72304,-84.39781,
LARCENY-FROM VEHICLE,152092121,07/28/2015,1501 WHITEWATER CREEK RD NW,202,Whitewater Creek,A,33.87711,-84.43663,
LARCENY-FROM VEHICLE,152092311,07/28/2015,1784 PEACHTREE RD NE,207,Brookwood Hills,E,33.80266,-84.39289,
LARCENY-FROM VEHICLE,152092009,07/28/2015,2741 HOWELL MILL RD,201,Castlewood,C,33.83016,-84.41615,
LARCENY-FROM VEHICLE,152092683,07/28/2015,809 CHEROKEE AVE SE,605,Grant Park,W,33.73239,-84.37394,
LARCENY-FROM VEHICLE,152091019,07/28/2015,3202 EMPIRE BLVD SW,312,Glenrose Heights,Z,33.66764,-84.39269,
LARCENY-FROM VEHICLE,152091028,07/28/2015,1039 HIGH POINT TER SW,305,High Point,Y,33.71707,-84.39449,
LARCENY-FROM VEHICLE,152090875,07/28/2015,109 ROBIN HOOD RD NE ,502,Sherwood Forest,E,33.79759,-84.38409,
LARCENY-FROM VEHICLE,152090508,07/28/2015,100 LAKEWOOD WAY SW,307,Lakewood Heights,Y,33.69921,-84.39286,
LARCENY-FROM VEHICLE,152090666,07/28/2015,660 RALPH MCGILL BLVD NE,603,Old Fourth Ward,M,33.765,-84.36578,
LARCENY-FROM VEHICLE,152090651,07/28/2015,199 ESTORIA ST SE,606,Cabbagetown,N,33.74904,-84.36319,
LARCENY-FROM VEHICLE,152090499,07/28/2015,650 MOORES MILL RD NW,205,,C,33.84377,-84.40872,
LARCENY-FROM VEHICLE,152090480,07/28/2015,1184 PIEDMONT AVE NE,502,Ansley Park,E,33.78749,-84.37821,
LARCENY-FROM VEHICLE,152090359,07/28/2015,2400 PARKLAND DR NE,211,Lindbergh/Morosgo,B,33.81987,-84.36568,
LARCENY-FROM VEHICLE,152090822,07/28/2015,76 4TH ST NW,505,Midtown,E,33.77487,-84.38975,
LARCENY-FROM VEHICLE,152090323,07/28/2015,1760 NORTHSIDE DR NW,205,Channing Valley,C,33.80402,-84.40791,
LARCENY-FROM VEHICLE,152091711,07/28/2015,543 TERRACE AVE NE,608,Candler Park,N,33.76911,-84.33572,
LARCENY-FROM VEHICLE,152091700,07/28/2015,1053 BLUE RIDGE AVE NE,602,Poncey-Highland,N,33.77227,-84.35297,
LARCENY-FROM VEHICLE,152091272,07/28/2015,548 LAKESHORE DR NE,608,Lake Claire,N,33.76919,-84.32496,
LARCENY-NON VEHICLE,152090218,07/28/2015,265 WASHINGTON ST SW ,512,Downtown,M,33.74786,-84.39075,
BURGLARY-NONRES,152090487,07/28/2015,2450 PIEDMONT RD NE,211,Lindbergh/Morosgo,B,33.82279,-84.36773,
BURGLARY-NONRES,152090740,07/28/2015,341 CANDLER RD SE,611,East Lake,O,33.7431,-84.2905,
BURGLARY-NONRES,152090657,07/28/2015,1935 ALISON CT SW @FRANCISCAN CLUB APT,410,Fort Valley,R,33.70142,-84.44992,
BURGLARY-RESIDENCE,152092213,07/28/2015,921 WESTMORELAND CIR NW,110,West Highlands,G,33.78956,-84.44919,
BURGLARY-RESIDENCE,152092466,07/28/2015,620 PEACHTREE ST NE,505,Midtown,E,33.77152,-84.38508,
BURGLARY-RESIDENCE,152091123,07/28/2015,4010 CLUB DR NE,209,Brookhaven,B,33.86564,-84.35507,
BURGLARY-RESIDENCE,152091404,07/28/2015,98 MOURY AVE SE,305,South Atlanta,Y,33.7124,-84.38743,
BURGLARY-RESIDENCE,152091665,07/28/2015,333 ANGIER AVE NE,603,Old Fourth Ward,M,33.76685,-84.37662,
BURGLARY-RESIDENCE,152091784,07/28/2015,1606 S GORDON ST SW,404,Westview,T,33.73946,-84.44038,
AGG ASSAULT,152091441,07/28/2015,796 NEAL ST NW,103,English Avenue,L,33.76623,-84.41344,
AGG ASSAULT,152091158,07/28/2015,1940 FISHER RD SE,607,Custer/McDonough/Guice,W,33.70979,-84.35849,
AGG ASSAULT,152091899,07/28/2015,2836 SPRINGDALE RD SW,311,Hammond Park,X,33.67742,-84.41494,
AGG ASSAULT,152091680,07/28/2015,905 MAYSON TURNER RD NW,102,Vine City,L,33.75726,-84.41693,
AGG ASSAULT,152091953,07/28/2015,3283  DALE LN SW,409,Southwest,R,33.69434,-84.49625,
AGG ASSAULT,152091517,07/28/2015,3000 STONE HOGAN CONN,411,Greenbriar,R,33.68677,-84.49773,
ROBBERY-PEDESTRIAN,152092641,07/28/2015,1857 PENELOPE RD NW                 ,108,Penelope Neighbors,J,33.75407,-84.44794,
ROBBERY-PEDESTRIAN,152092689,07/28/2015,3 BELMONTE CT SW,403,Cascade Avenue/Road,S,33.72503,-84.44559,
ROBBERY-COMMERCIAL,152091073,07/28/2015,1275 CAROLINE ST NE @TARGET - CAROLINE,609,Edgewood,O,33.75674,-84.34619,
ROBBERY-COMMERCIAL,152090459,07/28/2015,2201 FAULKNER RD NE,212,Lindridge/Martin Manor,F,33.81313,-84.35761,
ROBBERY-PEDESTRIAN,152090094,07/28/2015,1900 ALISON CT SW,410,Fort Valley,R,33.7,-84.45139,
ROBBERY-PEDESTRIAN,152092679,07/28/2015,370 PICKFAIR WAY SW,307,Lakewood Heights,Y,33.70278,-84.40094,
ROBBERY-PEDESTRIAN,152092646,07/28/2015,1947 CONRAD AVE SE,307,Lakewood Heights,Y,33.701,-84.38179,
ROBBERY-PEDESTRIAN,152092585,07/28/2015,64 BELMONTE CIR SW,403,Cascade Avenue/Road,S,33.72567,-84.44446,
ROBBERY-PEDESTRIAN,152090261,07/28/2015,2315 GLENWOOD AVE SE,611,East Lake,O,33.73984,-84.31149,
HOMICIDE,152070273,07/27/2015,1585 MORELAND AVE SE,607,Custer/McDonough/Guice,W,33.71113,-84.35017,
ROBBERY-PEDESTRIAN,152081933,07/27/2015,770 DECKNER AVE SW @PERKERSON PARK,301,Capitol View,X,33.71272,-84.41349,
ROBBERY-PEDESTRIAN,152071738,07/27/2015,1166 RALPH D ABERNATHY BLVD,402,West End,T,33.73834,-84.42387,
ROBBERY-PEDESTRIAN,152081982,07/27/2015,1683 LAKEWOOD AVE SE,307,Lakewood Heights,Y,33.7081,-84.37957,
ROBBERY-RESIDENCE,152080015,07/27/2015,234 HOLDERNESS ST SW,104,Ashview Heights,T,33.74834,-84.42624,
ROBBERY-PEDESTRIAN,152082848,07/27/2015,3390 FAIRBURN RD SW,414,Ben Hill,P,33.6639,-84.52377,
AGG ASSAULT,152080098,07/27/2015,4087 HAVERHILL DR NE,209,North Buckhead,B,33.8665,-84.37758,
AGG ASSAULT,152081655,07/27/2015,1935 ALISON CT SW,410,Fort Valley,R,33.70055,-84.45149,
AGG ASSAULT,152082640,07/27/2015,2209 BROWNS MILL RD SE,310,Lakewood,Z,33.69295,-84.37409,
AGG ASSAULT,152072251,07/27/2015,94 ALLEN TEMPLE CT NW,111,,I,33.75385,-84.49025,
AGG ASSAULT,152081974,07/27/2015,2980 JONESBORO RD SE,313,South River Gardens,Z,33.67339,-84.37144,
BURGLARY-RESIDENCE,152081397,07/27/2015,848 CAPITOL VIEW AVE NW,109,Center Hill,J,33.77795,-84.46702,
BURGLARY-RESIDENCE,152081641,07/27/2015,2640 MARTIN L KING JR DR SW,405,Harland Terrace,I,33.75381,-84.47425,
BURGLARY-RESIDENCE,152081656,07/27/2015,4400 CLEMENT DR SW,407,Bakers Ferry,H,33.75359,-84.53166,
BURGLARY-RESIDENCE,152081861,07/27/2015,170 BOULEVARD SE,606,Grant Park,N,33.74865,-84.36887,
BURGLARY-RESIDENCE,152082064,07/27/2015,3596 COLLIER DR NW,114,Fairburn Heights,H,33.768,-84.50523,
BURGLARY-RESIDENCE,152082152,07/27/2015,1735 HOLLINGSWORTH BLVD NW,110,West Highlands,G,33.78999,-84.44663,
BURGLARY-RESIDENCE,152082193,07/27/2015,149 26TH ST NW,207,Brookwood,E,33.80253,-84.39776,
AGG ASSAULT,152070356,07/27/2015,3227 ROSWELL ROAD ,206,Buckhead Forest,B,33.84314,-84.37867,
AGG ASSAULT,152082403,07/27/2015,2980 JONESBORO ROAD SE,313,South River Gardens,Z,33.67261,-84.3694,
AGG ASSAULT,152072311,07/27/2015,1391 BEATIE AVE SW,301,Capitol View,X,33.71688,-84.41111,
AGG ASSAULT,152082900,07/27/2015,184 MARION PL NE,609,Edgewood,O,33.75897,-84.3452,
AGG ASSAULT,152080194,07/27/2015,255 COURTLAND ST NE @HILTON HOTEL,509,Downtown,M,33.76157,-84.38314,
AGG ASSAULT,152080057,07/27/2015,1056 REGENT ST SW,306,Sylvan Hills,X,33.70045,-84.42317,
AGG ASSAULT,152080425,07/27/2015,1123 CORDOVA ST SW,402,Oakland City,S,33.72668,-84.42429,
BURGLARY-RESIDENCE,152082599,07/27/2015,49 BOULEVARD SE,604,Sweet Auburn,M,33.75275,-84.37186,
BURGLARY-RESIDENCE,152080501,07/27/2015,1897 WILDWOOD PL NE,213,Morningside/Lenox Park,F,33.80654,-84.36229,
BURGLARY-RESIDENCE,152080878,07/27/2015,2001 SYLVAN RD SW,306,Sylvan Hills,X,33.69981,-84.4184,
BURGLARY-RESIDENCE,152072424,07/27/2015,470 THOMASVILLE BLVD SE,308,Thomasville Heights,Z,33.70599,-84.35963,
BURGLARY-RESIDENCE,152080422,07/27/2015,3378 GREENBRIAR PKWY SW,413,,P,33.68387,-84.50204,
BURGLARY-RESIDENCE,152081137,07/27/2015,999 NORTHROPE DR NE,212,Lindridge/Martin Manor,F,33.81796,-84.35515,
BURGLARY-RESIDENCE,152081214,07/27/2015,600 GREENSFERRY AVE SW,101,The Villages at Castleberry Hill,T,33.74662,-84.40755,
BURGLARY-RESIDENCE,152081342,07/27/2015,1836 SYLVAN RD SW,306,Sylvan Hills,X,33.70477,-84.41794,
BURGLARY-NONRES,152080882,07/27/2015,3277 ROSWELL RD NE,208,Buckhead Forest,B,33.84479,-84.37997,
BURGLARY-NONRES,152080842,07/27/2015,438 LATTA ST NE,603,Old Fourth Ward,M,33.7666,-84.37273,
BURGLARY-RESIDENCE,152081802,07/27/2015,2339 BAGWELL DR SW,310,Polar Rock,Z,33.69069,-84.39863,
BURGLARY-RESIDENCE,152082054,07/27/2015,349 DECATUR ST SE,604,Sweet Auburn,M,33.74988,-84.37788,
BURGLARY-RESIDENCE,152082330,07/27/2015,3223 TALLON LN SW,409,Southwest,R,33.70184,-84.4962,
BURGLARY-RESIDENCE,152082464,07/27/2015,246 STAFFORD ST NW,105,Hunter Hills,K,33.76174,-84.42544,
LARCENY-FROM VEHICLE,152082075,07/27/2015,2489 PERRY BLVD NW,110,Scotts Crossing,G,33.80519,-84.46945,
LARCENY-FROM VEHICLE,152082002,07/27/2015,3393 PEACHTREE RD NE,210,Lenox,B,33.84676,-84.36212,
LARCENY-FROM VEHICLE,152081952,07/27/2015,1160 MOORES MILL RD NW,201,Brandon,C,33.83134,-84.42412,
LARCENY-FROM VEHICLE,152081878,07/27/2015,608 SEMINOLE AVE NE,602,Poncey-Highland,N,33.77093,-84.35102,
LARCENY-FROM VEHICLE,152081572,07/27/2015,898 OAK ST SW,401,West End,T,33.74057,-84.41738,
LARCENY-FROM VEHICLE,152081554,07/27/2015,221 PEACHTREE CENTER AVE NE,509,Downtown,M,33.76045,-84.38556,
LARCENY-FROM VEHICLE,152081514,07/27/2015,1455 ELLSWORTH INDUSTRIAL BLVD NW,203,Blandtown,D,33.79579,-84.42575,
LARCENY-FROM VEHICLE,152081505,07/27/2015,1600 ELLSWORTH INDUSTRIAL BLVD NW,203,Blandtown,D,33.79871,-84.42801,
LARCENY-FROM VEHICLE,152082211,07/27/2015,1380 ATLANTIC DR NW N ROW 128 DILLARDS ,501,Atlantic Station,E,33.79282,-84.39779,
LARCENY-FROM VEHICLE,152081645,07/27/2015,111 WESLEY AVE NE,609,Edgewood,O,33.75663,-84.33736,
LARCENY-FROM VEHICLE,152081196,07/27/2015,1325 LOGAN CIR NW,204,Underwood Hills,D,33.80567,-84.43066,
LARCENY-FROM VEHICLE,152081116,07/27/2015,2002 LAKEWOOD WAY SW @LAKEWOOD AMPHITHEAT,307,Lakewood Heights,Y,33.70226,-84.39452,
LARCENY-FROM VEHICLE,152082454,07/27/2015,1193 COLLIER RD,204,,C,33.81172,-84.4245,
LARCENY-FROM VEHICLE,152082416,07/27/2015,1730 TAYLOR ST NW,204,Underwood Hills,D,33.80171,-84.42123,
LARCENY-FROM VEHICLE,152082273,07/27/2015,285 CENTENNIAL OLYMPIC P DR NW,508,Downtown,M,33.7626,-84.39146,
LARCENY-FROM VEHICLE,152082482,07/27/2015,1500 SOUTHLAND CIR NW,203,Hills Park,D,33.79914,-84.43234,
LARCENY-FROM VEHICLE,152082476,07/27/2015,1200 HOWELL MILL RD NW,203,Blandtown,D,33.78674,-84.41204,
LARCENY-FROM VEHICLE,152082758,07/27/2015,180 PRYOR ST SW,512,Downtown,M,33.74975,-84.39214,
LARCENY-FROM VEHICLE,152080703,07/27/2015,3200 LENOX RD NE @LENOX FOREST APTS,210,Pine Hills,B,33.84329,-84.35877,
LARCENY-FROM VEHICLE,152080673,07/27/2015,811 HANK AARON DR,304,Summerhill,V,33.73275,-84.38837,
LARCENY-FROM VEHICLE,152080020,07/27/2015,190 HUNNICUTT ST NW,504,Downtown,M,33.76654,-84.39392,
LARCENY-FROM VEHICLE,152080941,07/27/2015,717 LEE ST SW,401,West End,T,33.73516,-84.41421,
LARCENY-FROM VEHICLE,152080911,07/27/2015,700 ELOISE ST SE,605,Grant Park,W,33.73501,-84.36275,
LARCENY-FROM VEHICLE,152080826,07/27/2015,280 LOGAN ST SE,605,Grant Park,W,33.74457,-84.37834,
LARCENY-FROM VEHICLE,152080337,07/27/2015,68 ATLANTA AVE SE,304,Peoplestown,V,33.73062,-84.38574,
LARCENY-NON VEHICLE,152081532,07/27/2015,835 MARTIN L KING JR DR NW,102,Vine City,L,33.75504,-84.41457,
LARCENY-NON VEHICLE,152081891,07/27/2015,2539 PIEDMONT RD NE @TARGET - PIEDMONT,211,Lindbergh/Morosgo,B,33.82403,-84.36328,
LARCENY-NON VEHICLE,152082411,07/27/2015,1219 METROPOLITAN PKWY SW,301,Adair Park,V,33.72142,-84.40796,
LARCENY-NON VEHICLE,152080525,07/27/2015,100 LAKEWOOD WAY SW,307,Lakewood Heights,Y,33.69921,-84.39286,
LARCENY-NON VEHICLE,152080571,07/27/2015,3749 CAMPBELLTON RD SW,412,Ben Hill Acres,P,33.69085,-84.51112,
LARCENY-NON VEHICLE,152081162,07/27/2015,3393 PEACHTREE RD NE @LENOX MALL,210,Lenox,B,33.84676,-84.36212,
LARCENY-NON VEHICLE,152081592,07/27/2015,835 MARTIN L KING JR DR NW,102,Vine City,L,33.75504,-84.41457,
LARCENY-NON VEHICLE,152081647,07/27/2015,1801 HOWELL MILL RD NW,204,Berkeley Park,D,33.80388,-84.41278,
LARCENY-FROM VEHICLE,152081047,07/27/2015,1715 HOWELL MILL RD NW ,204,Berkeley Park,D,33.80181,-84.41267,
LARCENY-NON VEHICLE,152081570,07/27/2015,1940 FISHER RD SE,607,Custer/McDonough/Guice,W,33.70979,-84.35849,
LARCENY-NON VEHICLE,152082345,07/27/2015,1280 CAROLINE ST NE,609,Edgewood,O,33.75957,-84.34602,
LARCENY-FROM VEHICLE,152081459,07/27/2015,300 CITYLINE AVE NE,603,Old Fourth Ward,M,33.77046,-84.37816,
LARCENY-FROM VEHICLE,152080651,07/27/2015,215 PETERS ST SW,507,Castleberry Hill,M,33.74875,-84.4004,
LARCENY-FROM VEHICLE,152080469,07/27/2015,215 PETERS ST SW,507,Castleberry Hill,M,33.74875,-84.4004,
LARCENY-FROM VEHICLE,152082201,07/27/2015,350 THOMASVILLE BLVD SE,308,Thomasville Heights,Z,33.70509,-84.35714,
LARCENY-NON VEHICLE,152081622,07/27/2015,1715 HOWELL MILL RD NW @Multiple,204,Berkeley Park,D,33.80089,-84.4157,
LARCENY-NON VEHICLE,152081193,07/27/2015,2841 GREENBRIAR PKWY SW ,411,Greenbriar,R,33.68677,-84.49773,
LARCENY-NON VEHICLE,152080773,07/27/2015,2325 CHESHIRE BRIDGE RD NE,212,Lindridge/Martin Manor,F,33.81866,-84.34906,
LARCENY-NON VEHICLE,152081464,07/27/2015,271 17TH ST NW,501,Atlantic Station,E,33.79154,-84.39555,
LARCENY-NON VEHICLE,152081306,07/27/2015,2095 METROPOLITAN PKWY SW,306,Sylvan Hills,X,33.69753,-84.4084,
LARCENY-NON VEHICLE,152082126,07/27/2015,2535 CHANTILLY DR NE,212,Lindridge/Martin Manor,F,33.82389,-84.3503,
LARCENY-NON VEHICLE,152082548,07/27/2015,2034 METROPOLITAN PKWY SW,306,Sylvan Hills,X,33.69873,-84.40798,
LARCENY-NON VEHICLE,152082671,07/27/2015,620 GLEN IRIS DR NE,603,Old Fourth Ward,M,33.77168,-84.36779,
LARCENY-NON VEHICLE,152080994,07/27/2015,1351 WYLIE ST SE,609,Edgewood,O,33.75134,-84.34338,
LARCENY-NON VEHICLE,152082077,07/27/2015,1471 CENTRA VILLA DR SW,409,Adams Park,R,33.71531,-84.45369,
LARCENY-NON VEHICLE,152082246,07/27/2015,1210 CAROLINE ST NE,609,Edgewood,O,33.75938,-84.34863,
LARCENY-NON VEHICLE,152082731,07/27/2015,361 17TH ST NW,501,Atlantic Station,E,33.79161,-84.3981,
LARCENY-NON VEHICLE,152080092,07/27/2015,2002 LAKEWOOD WAY SW @HIFI BUYS AMPHITHEAT,307,Lakewood Heights,Y,33.7007,-84.39835,
AUTO THEFT,152081119,07/27/2015,752 MIAMI CIR NE,211,Lindbergh/Morosgo,B,33.8313,-84.36292,
AUTO THEFT,152081399,07/27/2015,2798 PEEK RD NW,112,Collier Heights,I,33.77743,-84.47815,
AUTO THEFT,152080722,07/27/2015,1005 BALDWIN ST SW,104,Ashview Heights,T,33.74647,-84.42057,
AUTO THEFT,152080390,07/27/2015,400 FAIRBURN RD SW,407,Fairburn Mays,H,33.74366,-84.50936,
AUTO THEFT,152080164,07/27/2015,150 WALKER ST SW,507,Castleberry Hill,M,33.75051,-84.40051,
AUTO THEFT,152081769,07/27/2015,2284 SISK ST NW,109,Almond Park,G,33.78063,-84.46291,
AUTO THEFT,152082481,07/27/2015,2900 LANDRUM DR SW,409,Southwest,R,33.70495,-84.48299,
AUTO THEFT,152082863,07/27/2015,271 CHILDS DR NW,105,Hunter Hills,K,33.76259,-84.43624,
AUTO THEFT,152082632,07/27/2015,1050 LENOX PARK BLVD NE,210,Pine Hills,B,33.85011,-84.34852,
AUTO THEFT,152082537,07/27/2015,3181 HOGAN RD SW @APS CONTINENTAL ES,411,Greenbriar,R,33.67883,-84.49158,
AUTO THEFT,152081551,07/27/2015,3131 CAMPBELLTON RD SW,409,Southwest,R,33.69149,-84.49234,
AUTO THEFT,152081051,07/27/2015,934 MAYSON TURNER RD NW,105,Washington Park,K,33.75824,-84.41792,
AUTO THEFT,152072007,07/26/2015,141 MCGILL PARK AVE NE,604,Old Fourth Ward,M,33.76303,-84.3771,
AUTO THEFT,152070933,07/26/2015,1425 JOSEPH E BOONE BLVD NW,107,Grove Park,J,33.76364,-84.43461,
AUTO THEFT,152070280,07/26/2015,2882 METROPOLITAN PKWY SW,311,Hammond Park,X,33.67615,-84.40838,
AUTO THEFT,152071507,07/26/2015,1115 PONCE DE LEON AVE NE,602,Poncey-Highland,N,33.77374,-84.35111,
AUTO THEFT,152072256,07/26/2015,2400 CAMPBELLTON RD SW,410,Campbellton Road,R,33.70382,-84.46637,
AUTO THEFT,152071358,07/26/2015,672 HOME AVE SE,605,Grant Park,W,33.7295,-84.36546,
AUTO THEFT,152070934,07/26/2015,759 MERCER ST SE,605,Grant Park,W,33.73538,-84.36219,
AUTO THEFT,152070829,07/26/2015,653 HOME AVE SE,605,Grant Park,W,33.72908,-84.36613,
AUTO THEFT,152070747,07/26/2015,946 PARSONS ST SW,104,Ashview Heights,T,33.75093,-84.41851,
AUTO THEFT,152072338,07/26/2015,3660 MARTIN L KING JR DR SW,407,Adamsville,H,33.76217,-84.50865,
AUTO THEFT,152071220,07/26/2015,2830 ALLEGRO DR NW,112,Collier Heights,I,33.77433,-84.48035,
LARCENY-NON VEHICLE,152071815,07/26/2015,2718 ATWOOD RD NE,206,Garden Hills,B,33.82889,-84.37172,
LARCENY-NON VEHICLE,152072219,07/26/2015,261 19TH ST NW,501,Atlantic Station,E,33.79371,-84.39677,
LARCENY-NON VEHICLE,152072324,07/26/2015,1150 CRESCENT AVE NE,503,Midtown,E,33.78601,-84.38437,
LARCENY-NON VEHICLE,152070987,07/26/2015,2707 DONALD LEE HOLLOWELL PKWY NW,113,Brookview Heights,G,33.77774,-84.47583,
LARCENY-NON VEHICLE,152070053,07/26/2015,3459 BUCKHEAD LOOP NE,208,North Buckhead,B,33.85119,-84.36313,
LARCENY-NON VEHICLE,152070905,07/26/2015,330 W PEACHTREE ST NW,508,Downtown,M,33.76362,-84.38764,
LARCENY-FROM VEHICLE,152072363,07/26/2015,1993 BENT CREEK WAY SW,410,Campbellton Road,R,33.70084,-84.46568,
LARCENY-FROM VEHICLE,152072055,07/26/2015,2054 BETHEL DR NW,108,Dixie Hills,J,33.7622,-84.4552,
LARCENY-FROM VEHICLE,152070947,07/26/2015,2854 GRAND AVE SW,311,Hammond Park,X,33.67703,-84.40147,
LARCENY-NON VEHICLE,152071318,07/26/2015,3334 PEACHTREE RD NE,208,North Buckhead,B,33.84624,-84.36844,
LARCENY-FROM VEHICLE,152070282,07/26/2015,824 MYRTLE ST NE,505,Midtown,E,33.77687,-84.37995,
LARCENY-FROM VEHICLE,152070927,07/26/2015,358 FRASER ST SE,605,Capitol Gateway,V,33.74513,-84.38612,
LARCENY-FROM VEHICLE,152062854,07/26/2015,180 NORTHSIDE DR SW,507,Castleberry Hill,M,33.74936,-84.40346,
LARCENY-NON VEHICLE,152071637,07/26/2015,1801 HOWELL MILL RD NW,204,Berkeley Park,D,33.80388,-84.41278,
LARCENY-NON VEHICLE,152071614,07/26/2015,2841 GREENBRIAR PKWY SW @GREENBRIAR MALL,411,Greenbriar,R,33.68677,-84.49773,
LARCENY-NON VEHICLE,152071078,07/26/2015,2525 PIEDMONT RD NE @HOME DEPOT,211,Lindbergh/Morosgo,B,33.824,-84.36521,
LARCENY-FROM VEHICLE,152072154,07/26/2015,3101 PIEDMONT RD NE,211,Peachtree Park,B,33.84075,-84.36979,
LARCENY-FROM VEHICLE,152070461,07/26/2015,942 BRADY AVE NW,501,Home Park,E,33.78068,-84.41276,
LARCENY-FROM VEHICLE,152070457,07/26/2015,450 STONEWALL ST SW,507,Castleberry Hill,M,33.74942,-84.40228,
LARCENY-FROM VEHICLE,152070439,07/26/2015,75 MLK JR DRIVE,511,Downtown,M,33.75247,-84.38983,
LARCENY-FROM VEHICLE,152070405,07/26/2015,242 RALPH D ABERNATHY BLVD SW,303,Mechanicsville,V,33.73677,-84.39601,
LARCENY-FROM VEHICLE,152070341,07/26/2015,180 RALPH D ABERNATHY BLVD SW,303,Mechanicsville,V,33.73656,-84.39376,
LARCENY-FROM VEHICLE,152072499,07/26/2015,64 3RD ST NE,505,Midtown,E,33.77381,-84.38571,
LARCENY-FROM VEHICLE,152072394,07/26/2015,64 3RD ST NW,505,Midtown,E,33.77369,-84.38951,
LARCENY-FROM VEHICLE,152071785,07/26/2015,1850 HOWELL MILL RD NW,205,Wildwood (NPU-C),C,33.80628,-84.4132,
LARCENY-FROM VEHICLE,152070257,07/26/2015,1015 COLLIER RD NW,204,,C,33.81128,-84.42154,
LARCENY-FROM VEHICLE,152070706,07/26/2015,3095 EASTBROOK TER SW,414,Princeton Lakes,P,33.6728,-84.51079,
LARCENY-FROM VEHICLE,152070255,07/26/2015,238 WALKER ST SW,507,Castleberry Hill,M,33.74821,-84.40256,
LARCENY-FROM VEHICLE,152070210,07/26/2015,2002 LAKEWOOD AVE SE @LAKEWOOD AMPHITHEAT,307,Lakewood Heights,Y,33.70226,-84.39452,
LARCENY-FROM VEHICLE,152070198,07/26/2015,502 PRYOR ST SW,303,Mechanicsville,V,33.74114,-84.39442,
LARCENY-FROM VEHICLE,152070067,07/26/2015,221 PEACHTREE CENTER AVE NE,509,Downtown,M,33.76045,-84.38556,
LARCENY-FROM VEHICLE,152070056,07/26/2015,3393 PEACHTREE RD NE,210,Lenox,B,33.84676,-84.36212,
LARCENY-FROM VEHICLE,152071763,07/26/2015,654 SPRING ST NW,505,Midtown,E,33.77265,-84.38894,
LARCENY-FROM VEHICLE,152071657,07/26/2015,1335 CHATTAHOOCHEE AVE NW,204,Underwood Hills,D,33.80296,-84.43161,
LARCENY-FROM VEHICLE,152071566,07/26/2015,655 HIGHLAND AVE NE,604,Old Fourth Ward,M,33.76094,-84.36599,
LARCENY-FROM VEHICLE,152071550,07/26/2015,464 EDGEWOOD AVE NE,604,Sweet Auburn,M,33.75448,-84.37234,
LARCENY-FROM VEHICLE,152070476,07/26/2015,603 METROPOLITAN PKWY,303,Adair Park,V,33.73929,-84.40819,
LARCENY-FROM VEHICLE,152071281,07/26/2015,2111 CAMPBELLTON RD SW,410,Adams Park,R,33.70646,-84.45738,
LARCENY-FROM VEHICLE,152071010,07/26/2015,54 PEACHTREE ST SW,511,Downtown,M,33.75286,-84.3912,
BURGLARY-RESIDENCE,152071828,07/26/2015,2520 JONESBORO RD SE,308,Leila Valley,Z,33.68583,-84.36412,
LARCENY-NON VEHICLE,152072365,07/26/2015,635 LINDBERGH DR NE,211,Lindbergh/Morosgo,B,33.8213,-84.36689,
LARCENY-NON VEHICLE,152072189,07/26/2015,300 WILSON MILL RD SW @WILSON MILL PARK,407,Fairburn Road/Wisteria Lane,H,33.75314,-84.51261,
LARCENY-NON VEHICLE,152071239,07/26/2015,2841 GREENBRIAR PKWY SW @JP ALLEN GREENBRIAR,411,Greenbriar,R,33.68677,-84.49773,
BURGLARY-RESIDENCE,152071226,07/26/2015,3000 STONE HOGAN CONN SW,411,Greenbriar,R,33.67424,-84.49697,
BURGLARY-RESIDENCE,152070079,07/26/2015,2211 CAMP GROUND RD SW,412,Kings Forest,P,33.69425,-84.51354,
BURGLARY-RESIDENCE,152071125,07/26/2015,1096 CONLEY RD SE,313,South River Gardens,Z,33.64817,-84.35402,
BURGLARY-RESIDENCE,152071537,07/26/2015,1313 ANIWAKA AVE SW,408,Venetian Hills,S,33.71963,-84.44138,
BURGLARY-RESIDENCE,152071326,07/26/2015,1510 AVON AVE SW,403,Venetian Hills,S,33.72222,-84.43748,
BURGLARY-RESIDENCE,152072040,07/26/2015,349 DECATUR ST SE,604,Sweet Auburn,M,33.74988,-84.37788,
BURGLARY-RESIDENCE,152071541,07/26/2015,540 HUMPHRIES ST SW,303,Mechanicsville,V,33.7399,-84.40488,
BURGLARY-RESIDENCE,152070753,07/26/2015,1108 SELLS AVE SW,104,West End,T,33.74504,-84.42396,
AGG ASSAULT,152072160,07/26/2015,1512 WESTWOOD AVE SW,404,Westview,T,33.73817,-84.43723,
AGG ASSAULT,152071891,07/26/2015,520 FLAT SHOALS AVE SE,612,East Atlanta,W,33.74003,-84.345,
AGG ASSAULT,152070304,07/26/2015,1283 LYNWAY LN,406,Cascade Heights,I,33.72053,-84.48674,
AGG ASSAULT,152070127,07/26/2015,259 PETERS ST SW,507,Castleberry Hill,M,33.7474,-84.4019,
AGG ASSAULT,152070014,07/26/2015,292 JAMES P BRAWLEY DR NW,102,Vine City,L,33.76258,-84.41301,
AGG ASSAULT,152070547,07/26/2015,80 JESSE HILL JR DR NE,510,Downtown,M,33.75657,-84.38034,
AGG ASSAULT,152071108,07/26/2015,415 FAIRBURN RD SW @HIDDEN HOLLOW APTS,407,Fairburn Mays,H,33.74291,-84.51075,
AGG ASSAULT,152072249,07/26/2015,1576 JOSEPH E BOONE BLVD NW @SIMPSON LANIER SC,105,West Lake,J,33.76331,-84.43914,
AGG ASSAULT,152070253,07/26/2015,1225 LADD ST SW,402,Bush Mountain,S,33.72762,-84.42804,
AGG ASSAULT,152070423,07/26/2015,1340 PARK TRCE SE,607,Benteen Park,W,33.71528,-84.36001,
AGG ASSAULT,152070220,07/26/2015,3315 PEACHTREE RD ,208,Peachtree Park,B,33.84642,-84.36815,
ROBBERY-PEDESTRIAN,152070336,07/26/2015,700 14TH ST NW,501,Home Park,E,33.78548,-84.40992,
ROBBERY-PEDESTRIAN,152072492,07/26/2015,454 FLETCHER ST SW,302,Pittsburgh,V,33.72559,-84.40229,
ROBBERY-PEDESTRIAN,152060730,07/25/2015,706 ROSALIA ST SE,605,Ormewood Park,W,33.74002,-84.35415,
ROBBERY-PEDESTRIAN,152060675,07/25/2015,372 MCDONOUGH BLVD SE,305,Chosewood Park,Y,33.71558,-84.37578,
ROBBERY-PEDESTRIAN,152060656,07/25/2015,3011 CAMPBELLTON,409,Southwest,R,33.69638,-84.48726,
ROBBERY-PEDESTRIAN,152060590,07/25/2015,408 GARTRELL ST SE,604,Sweet Auburn,M,33.75303,-84.37415,
ROBBERY-RESIDENCE,152060179,07/25/2015,93 HAMMOCK PL SE,304,Summerhill,V,33.74121,-84.38471,
AGG ASSAULT,152061237,07/25/2015,420 THOMASVILLE BLVD SE,308,Thomasville Heights,Z,33.70571,-84.35714,
AGG ASSAULT,152061263,07/25/2015,3150 MIDDLETON RD NW,111,,I,33.7519,-84.49058,
AGG ASSAULT,152062385,07/25/2015,3909 CAMPBELLTON RD SW,412,Kings Forest,P,33.6924,-84.51637,
AGG ASSAULT,152131514,07/25/2015,2218 VENETIAN DR SW,409,Adams Park,R,33.71519,-84.46097,
ROBBERY-PEDESTRIAN,152060182,07/25/2015,2701 METROPOLITAN PKWY SW,309,Perkerson,X,33.68163,-84.40816,
AGG ASSAULT,152060380,07/25/2015,3223 CAINS HILL PL NW,206,South Tuxedo Park,B,33.84251,-84.38044,
AGG ASSAULT,152061077,07/25/2015,1995 DEFOOR AVE NW,204,Underwood Hills,D,33.81042,-84.42682,
BURGLARY-RESIDENCE,152060408,07/25/2015,286 MORGAN PL SE,611,East Lake,O,33.7444,-84.29188,
BURGLARY-RESIDENCE,152061879,07/25/2015,53 THAYER AVE SE,305,South Atlanta,Y,33.7152,-84.38646,
BURGLARY-RESIDENCE,152060154,07/25/2015,349 DECATUR ST SE,604,Sweet Auburn,M,33.74988,-84.37788,
LARCENY-NON VEHICLE,152060940,07/25/2015,4565 CAMPBELLTON RD SW,412,,P,33.69517,-84.53739,
LARCENY-NON VEHICLE,152061593,07/25/2015,3030 HEADLAND DR SW,411,Greenbriar,R,33.68841,-84.48742,
BURGLARY-NONRES,152061510,07/25/2015,1820 MARIETTA BLVD NW,203,Hills Park,D,33.80431,-84.43779,
LARCENY-FROM VEHICLE,152060481,07/25/2015,395 CHAMBERLAIN ST SE ,604,Sweet Auburn,M,33.75352,-84.37453,
LARCENY-NON VEHICLE,152060984,07/25/2015,2685 METROPOLITAN PKWY SW,309,Perkerson,X,33.68274,-84.40902,
LARCENY-NON VEHICLE,152061084,07/25/2015,4465 CAMPBELLTON RD SW,412,,P,33.69704,-84.53462,
LARCENY-NON VEHICLE,152061483,07/25/2015,3440 PEACHTREE RD,208,North Buckhead,B,33.85166,-84.36235,
LARCENY-NON VEHICLE,152061616,07/25/2015,1275 CAROLINE ST NE ,609,Edgewood,O,33.75674,-84.34619,
LARCENY-NON VEHICLE,152061812,07/25/2015,1225 CAROLINE ST NE @TARGET - CAROLINE,609,Edgewood,O,33.75605,-84.34813,
LARCENY-NON VEHICLE,152061931,07/25/2015,3331 PIEDMONT RD NE,208,Buckhead Forest,B,33.84564,-84.37462,
LARCENY-NON VEHICLE,152062354,07/25/2015,2841 GREENBRIAR PKWY SW @GREENBRIAR MALL,411,Greenbriar,R,33.68677,-84.49773,
LARCENY-NON VEHICLE,152062440,07/25/2015,2020 BOLTON RD NW,203,Riverside,D,33.81125,-84.47594,
LARCENY-NON VEHICLE,152062500,07/25/2015,1225 CAROLINE ST NE,609,Edgewood,O,33.75605,-84.34813,
LARCENY-FROM VEHICLE,152062812,07/25/2015,284 WILLIAMS ST NW,508,Downtown,M,33.76207,-84.39065,
LARCENY-FROM VEHICLE,152062272,07/25/2015,522 CARTER ST NW,102,Vine City,L,33.75625,-84.40432,
LARCENY-FROM VEHICLE,152062920,07/25/2015,2072 DEFOORS FERRY RD NW,204,Underwood Hills,D,33.81225,-84.4261,
LARCENY-FROM VEHICLE,152062875,07/25/2015,91 SIMPSON ST NW,508,Downtown,M,33.76339,-84.39073,
LARCENY-FROM VEHICLE,152062866,07/25/2015,686 11TH ST NW,501,Home Park,E,33.78267,-84.40983,
LARCENY-FROM VEHICLE,152060898,07/25/2015,2605 FAIRBURN RD SW,413,Fairburn Tell,P,33.68431,-84.51542,
LARCENY-FROM VEHICLE,152060822,07/25/2015,305 SKIPPER PL NW,112,Collier Heights,I,33.78197,-84.49147,
LARCENY-FROM VEHICLE,152060376,07/25/2015,108 JACKSON ST SE ,604,Sweet Auburn,M,33.75161,-84.37374,
LARCENY-FROM VEHICLE,152061422,07/25/2015,501 DUNBAR ST SW,302,Pittsburgh,V,33.723,-84.40411,
LARCENY-FROM VEHICLE,152061932,07/25/2015,PENN AVE NE / 7TH ST NE,505,Midtown,E,33.77815,-84.3785,
LARCENY-FROM VEHICLE,152061929,07/25/2015,1052 SAINT CHARLES AVE NE,601,Virginia Highland,F,33.7755,-84.35327,
LARCENY-FROM VEHICLE,152061754,07/25/2015,101 OLLIE ST NW,105,Washington Park,K,33.75771,-84.42118,
LARCENY-FROM VEHICLE,152062667,07/25/2015,519 MAGNOLIA ST NW,102,Vine City,L,33.75819,-84.40454,
LARCENY-FROM VEHICLE,152061565,07/25/2015,2439 PIEDMONT RD NE,211,Lindbergh/Morosgo,B,33.82185,-84.3673,
LARCENY-FROM VEHICLE,152061417,07/25/2015,1380 BOULEVARD SE,607,Benteen Park,W,33.71652,-84.36803,
LARCENY-FROM VEHICLE,152061314,07/25/2015,1442 MILLER AVE NE,608,Candler Park,N,33.76618,-84.34026,
LARCENY-FROM VEHICLE,152061174,07/25/2015,715 CLEVELAND AVENUE SE,313,South River Gardens,Z,33.67909,-84.36618,
LARCENY-FROM VEHICLE,152061134,07/25/2015,1019 OGLETHORPE AVE SW,401,West End,T,33.73597,-84.42114,
LARCENY-FROM VEHICLE,152060955,07/25/2015,116 POLAR ROCK RD SW,310,Polar Rock,Z,33.69603,-84.3926,
LARCENY-FROM VEHICLE,152062003,07/25/2015,544 GRANT ST SW,306,Sylvan Hills,X,33.70276,-84.4062,
LARCENY-NON VEHICLE,152061788,07/25/2015,1037 HAMPTON ST NW,501,Home Park,E,33.78311,-84.40664,
LARCENY-FROM VEHICLE,152061392,07/25/2015,3012 JONESBORO RD SE,313,South River Gardens,Z,33.67225,-84.37156,
LARCENY-FROM VEHICLE,152060860,07/25/2015,2338 BOLTON RD NW,203,Bolton,D,33.81982,-84.46124,
LARCENY-NON VEHICLE,152102633,07/25/2015,45 IVAN ALLEN JR BLVD NE,508,Downtown,M,33.76457,-84.38619,
LARCENY-NON VEHICLE,152061642,07/25/2015,191 PEACHTREE ST NE,510,Downtown,M,33.75879,-84.3864,
LARCENY-NON VEHICLE,152061066,07/25/2015,31 FORSYTH ST,511,Downtown,M,33.75258,-84.38992,
LARCENY-NON VEHICLE,152062806,07/25/2015,1825 PIEDMONT AVE NE,213,Morningside/Lenox Park,F,33.80498,-84.36716,
LARCENY-NON VEHICLE,152062516,07/25/2015,3311 TIARA CIR SW,409,Southwest,R,33.70212,-84.49578,
LARCENY-NON VEHICLE,152060575,07/25/2015,29 MORELAND AVE,606,Reynoldstown,N,33.75226,-84.35153,
LARCENY-NON VEHICLE,152060804,07/25/2015,227 MITCHELL ST SW,512,Downtown,M,33.75235,-84.39507,
LARCENY-NON VEHICLE,152062674,07/25/2015,1861 THOMASVILLE DR SE,308,Thomasville Heights,Z,33.70081,-84.35804,
AUTO THEFT,152060585,07/25/2015,3200 STONE RD SW,411,Greenbriar,R,33.6697,-84.49403,
AUTO THEFT,152062758,07/25/2015,1801 DELOWE DR SW,410,Campbellton Road,R,33.70572,-84.45738,
AUTO THEFT,152061002,07/25/2015,336 BROMACK DR SE,310,Lakewood,Z,33.6882,-84.37799,
AUTO THEFT,152061985,07/25/2015,2720 METROPOLITAN PKWY SW,311,Hammond Park,X,33.68067,-84.4072,
AUTO THEFT,152062576,07/25/2015,638 BOULEVARD SE,605,Grant Park,W,33.73696,-84.36809,
AUTO THEFT,152062450,07/25/2015,3399 COLLIER DR NW @APS HARPER-ARCHER MS,114,Fairburn Heights,H,33.76931,-84.49871,
AUTO THEFT,152062009,07/25/2015,785 VERNER ST NW,207,Berkeley Park,D,33.79884,-84.41422,
AUTO THEFT,152061496,07/25/2015,3350 MOUNT GILEAD RD SW,409,Southwest,R,33.69599,-84.49855,
AUTO THEFT,152061440,07/25/2015,1150 ASTOR AVE SW,306,Sylvan Hills,X,33.70137,-84.42678,
AUTO THEFT,152061250,07/25/2015,594 WIMBLEDON RD NE,212,Piedmont Heights,F,33.80656,-84.36741,
AUTO THEFT,152061230,07/25/2015,3694 CANTRELL RD NE,210,Ridgedale Park,B,33.85467,-84.3536,
AUTO THEFT,152061146,07/25/2015,498 BECKWITH CT SW,101,Atlanta University Center,T,33.75203,-84.40448,
AUTO THEFT,152052449,07/24/2015,1241 MORELAND AVE SE @SUNSHINE PLAZA SC,607,Woodland Hills,W,33.72055,-84.35045,
AUTO THEFT,152053033,07/24/2015,2909 CAMPBELLTON RD SW @CASCADE PINES APTS;,409,Southwest,R,33.70165,-84.48348,
AUTO THEFT,152050801,07/24/2015,3018 MIDDLETON RD NW,111,,I,33.75279,-84.48845,
AUTO THEFT,152051306,07/24/2015,1341 NORTH AVE NW,106,Bankhead,K,33.76823,-84.43173,
AUTO THEFT,152053059,07/24/2015,3216 BELFORT RD SE,312,Orchard Knob,Z,33.66733,-84.37684,
AUTO THEFT,152053239,07/24/2015,736 PONCE DE LEON PL NE,601,Virginia Highland,F,33.77458,-84.36368,
AUTO THEFT,152051239,07/24/2015,1116 BOULEVARD DR NE,606,Reynoldstown,N,33.75379,-84.35054,
AUTO THEFT,152051030,07/24/2015,178 MOURY AVE SW,305,The Villages at Carver,Y,33.71347,-84.39079,
AUTO THEFT,152050995,07/24/2015,627 14TH ST NW,501,Home Park,E,33.78659,-84.40784,
LARCENY-NON VEHICLE,152050006,07/24/2015,410 14TH ST NW,501,Home Park,E,33.78589,-84.40047,
LARCENY-NON VEHICLE,152050711,07/24/2015,602 N HIGHLAND AVE NE @MANUELS,602,Poncey-Highland,N,33.77082,-84.35274,
LARCENY-NON VEHICLE,152050940,07/24/2015,3201 LENOX RD NE,210,Pine Hills,B,33.84195,-84.3574,
LARCENY-NON VEHICLE,152051473,07/24/2015,54 PEACHTREE ST ,511,Downtown,M,33.75286,-84.3912,
LARCENY-NON VEHICLE,152051479,07/24/2015,2935 FAIRBURN RD SW,414,Deerwood,P,33.67416,-84.5147,
LARCENY-NON VEHICLE,152051741,07/24/2015,2950 SPRINGDALE RD SW,311,Hammond Park,X,33.67479,-84.41619,
LARCENY-NON VEHICLE,152052258,07/24/2015,2185 POLAR ROCK AVE,310,Polar Rock,Z,33.69482,-84.39619,
LARCENY-NON VEHICLE,152051592,07/24/2015,1241 MORELAND AVE SE @SUNSHINE PLAZA SC,607,Woodland Hills,W,33.72055,-84.35045,
LARCENY-NON VEHICLE,152051462,07/24/2015,3002 PEACHTREE PARK DR NE,207,,E,33.81362,-84.38963,
LARCENY-NON VEHICLE,152051287,07/24/2015,950 W PEACHTREE ST NW,503,Midtown,E,33.7805,-84.38752,
LARCENY-NON VEHICLE,152052471,07/24/2015,3509 MARTIN L KING JR DR NW,111,Adamsville,H,33.7581,-84.50258,
LARCENY-NON VEHICLE,152051049,07/24/2015,2400 PARKLAND DR NE,211,Lindbergh/Morosgo,B,33.82006,-84.36502,
LARCENY-NON VEHICLE,152050978,07/24/2015,1635 MORELAND AVE SE,607,Custer/McDonough/Guice,W,33.71035,-84.34964,
LARCENY-NON VEHICLE,152052470,07/24/2015,250 SPRING ST,508,Downtown,M,33.76163,-84.38979,
LARCENY-FROM VEHICLE,152051209,07/24/2015,149 W LAKE AVE NW,105,West Lake,J,33.75802,-84.44398,
LARCENY-FROM VEHICLE,152050836,07/24/2015,640 LONGWOOD DR,205,Springlake,C,33.81684,-84.40898,
LARCENY-FROM VEHICLE,152050750,07/24/2015,2415 WOODWARD WAY NW,205,Peachtree Battle Alliance,C,33.8205,-84.396,
LARCENY-FROM VEHICLE,152051297,07/24/2015,3088 PIEDMONT RD NE,206,Buckhead Village,B,33.83971,-84.36983,
LARCENY-FROM VEHICLE,152051691,07/24/2015,1919 METROPOLITAN PKWY,306,Sylvan Hills,X,33.70278,-84.41017,
LARCENY-FROM VEHICLE,152052784,07/24/2015,3030 HEADLAND DR SW,411,Greenbriar,R,33.68841,-84.48742,
LARCENY-FROM VEHICLE,152050665,07/24/2015,49 BOULEVARD SE,604,Sweet Auburn,M,33.75192,-84.37231,
LARCENY-FROM VEHICLE,152050248,07/24/2015,1544 PIEDMONT AVE NE,213,Piedmont Heights,F,33.79789,-84.37101,
LARCENY-FROM VEHICLE,152053090,07/24/2015,520 PARKWAY DR NE,603,Old Fourth Ward,M,33.7685,-84.37335,
LARCENY-FROM VEHICLE,152051774,07/24/2015,930 HOWELL MILL RD NW,501,Home Park,E,33.77987,-84.41063,
LARCENY-FROM VEHICLE,152051310,07/24/2015,3509 MARTIN L KING JR DR NW,111,Adamsville,H,33.7581,-84.50258,
LARCENY-FROM VEHICLE,152052399,07/24/2015,650 PONCE DE LEON AVE NE,506,Midtown,E,33.77469,-84.36561,
LARCENY-FROM VEHICLE,152052356,07/24/2015,655 HIGHLAND AVE NE,604,Old Fourth Ward,M,33.76094,-84.36599,
LARCENY-FROM VEHICLE,152052138,07/24/2015,2841 GREENBRIAR PKWY SW @GREENBRIAR MALL,411,Greenbriar,R,33.68677,-84.49773,
LARCENY-FROM VEHICLE,152052077,07/24/2015,59 OAK DR SW,312,Glenrose Heights,Z,33.66877,-84.39379,
LARCENY-FROM VEHICLE,152051932,07/24/2015,3200 LENOX RD NE,210,Pine Hills,B,33.84293,-84.35825,
LARCENY-FROM VEHICLE,152050848,07/24/2015,2521 PIEDMONT RD NE,211,Lindbergh/Morosgo,B,33.82397,-84.36684,
LARCENY-FROM VEHICLE,152051601,07/24/2015,699 11TH ST NW,501,Home Park,E,33.78326,-84.41016,
LARCENY-FROM VEHICLE,152051490,07/24/2015,75 MARTIN L KING JR DR SE,512,Downtown,M,33.74869,-84.38645,
LARCENY-FROM VEHICLE,152051484,07/24/2015,2015 MARTIN L KING JR DR NW,108,,I,33.75042,-84.45163,
LARCENY-NON VEHICLE,152051701,07/24/2015,1263 MORELAND AVE SE,607,Woodland Hills,W,33.7198,-84.34959,
LARCENY-NON VEHICLE,152052117,07/24/2015,1801 HOWELL MILL RD NW,204,Berkeley Park,D,33.80388,-84.41278,
LARCENY-NON VEHICLE,152042318,07/24/2015,895 JOSEPH E BOONE BLVD NW,103,Vine City,L,33.763,-84.41736,
LARCENY-NON VEHICLE,152050702,07/24/2015,356 BOULEVARD NE,603,Old Fourth Ward,M,33.76421,-84.37206,
LARCENY-NON VEHICLE,152051267,07/24/2015,1275 CAROLINE ST NE @TARGET ,609,Edgewood,O,33.75674,-84.34619,
LARCENY-NON VEHICLE,152051452,07/24/2015,950 W PEACHTREE ST NW,503,Midtown,E,33.78014,-84.38747,
BURGLARY-NONRES,152050989,07/24/2015,3030 HEADLAND DR SW,411,Greenbriar,R,33.68841,-84.48742,
LARCENY-NON VEHICLE,152051020,07/24/2015,2770 DONALD LEE HOLLOWELL PKWY NW,112,Collier Heights,I,33.77845,-84.47857,
BURGLARY-RESIDENCE,152051195,07/24/2015,1504 ATHENS AVE SW,301,Capitol View,X,33.71412,-84.40868,
LARCENY-NON VEHICLE,152051715,07/24/2015,835 MARTIN L KING JR DR NW,102,Vine City,L,33.75504,-84.41457,
LARCENY-NON VEHICLE,152052196,07/24/2015,3500 PEACHTREE RD NE,209,North Buckhead,B,33.85302,-84.36278,
LARCENY-NON VEHICLE,152052618,07/24/2015,1801 HOWELL MILL RD NW,204,Berkeley Park,D,33.80388,-84.41278,
LARCENY-NON VEHICLE,152052630,07/24/2015,3393 PEACHTREE RD NE,210,Lenox,B,33.84676,-84.36212,
LARCENY-NON VEHICLE,152052857,07/24/2015,835 MARTIN L KING JR DR NW,102,Vine City,L,33.75504,-84.41457,
BURGLARY-RESIDENCE,152051199,07/24/2015,2344 SPRINGDALE RD SW,309,Perkerson,X,33.69076,-84.41412,
BURGLARY-RESIDENCE,152051422,07/24/2015,940 NEW TOWN CIR SE,308,Thomasville Heights,Z,33.70838,-84.3593,
BURGLARY-RESIDENCE,152050292,07/24/2015,870 CLIFTON RD SE,612,East Atlanta,W,33.73052,-84.3297,
BURGLARY-RESIDENCE,152051189,07/24/2015,1139 PRINCESS AVE SW,403,Oakland City,S,33.7239,-84.42549,
BURGLARY-RESIDENCE,152051897,07/24/2015,240 NORTH AVE NE,505,Midtown,E,33.77134,-84.37932,
BURGLARY-RESIDENCE,152050743,07/24/2015,573 NORFOLK ST NW,106,Bankhead,K,33.77036,-84.41844,
BURGLARY-RESIDENCE,152053086,07/24/2015,3390 FAIRBURN RD SW,414,Ben Hill,P,33.6639,-84.52377,
AGG ASSAULT,152052673,07/24/2015,1722 CAMPBELLTON RD SW,408,,R,33.71107,-84.44411,
AGG ASSAULT,152050353,07/24/2015,1297 BOLTON RD NW,114,English Park,G,33.79043,-84.49333,
ROBBERY-PEDESTRIAN,152051599,07/24/2015,1280 W PACES FERRY RD NW,202,West Paces Ferry/Northside,A,33.84921,-84.42911,
ROBBERY-RESIDENCE,152051746,07/24/2015,3378 GREENBRIAR PKWY SW,413,,P,33.68387,-84.50204,
AGG ASSAULT,152050201,07/24/2015,936 MAYSON TURNER RD NW,105,Washington Park,K,33.75829,-84.41795,
AGG ASSAULT,152050434,07/24/2015,1240  METROPOLITAN PKWY SW,301,Pittsburgh,V,33.72072,-84.40682,
AGG ASSAULT,152052336,07/24/2015,213 FAIRBURN RD NW,111,Adamsville,H,33.76136,-84.50424,
ROBBERY-COMMERCIAL,152051761,07/24/2015,1981 JOSEPH E BOONE BLVD NW,107,Grove Park,J,33.76486,-84.45174,
ROBBERY-PEDESTRIAN,152052770,07/24/2015,921 WESTMORELAND CIR NW,110,West Highlands,G,33.78956,-84.44919,
ROBBERY-PEDESTRIAN,152051717,07/24/2015,3340 PEACHTREE RD NE ,208,North Buckhead,B,33.84743,-84.37089,
ROBBERY-PEDESTRIAN,152040942,07/23/2015,1940 FISHER RD SE,607,Custer/McDonough/Guice,W,33.70979,-84.35849,
ROBBERY-PEDESTRIAN,152042902,07/23/2015,1001 SUMMIT NORTH DR NE,211,Lindbergh/Morosgo,B,33.82972,-84.36124,
ROBBERY-PEDESTRIAN,152041779,07/23/2015,3500 PEACHTREE RD NE @PHIPPS PLAZA,208,North Buckhead,B,33.85302,-84.36278,
ROBBERY-PEDESTRIAN,152042560,07/23/2015,2060 PEACHTREE RD NW,207,,E,33.81115,-84.39289,
ROBBERY-PEDESTRIAN,152040318,07/23/2015,790 FREDERICA ST NE,602,Virginia Highland,F,33.77618,-84.35566,
ROBBERY-PEDESTRIAN,152040399,07/23/2015,2798 PEEK RD NW,112,Collier Heights,I,33.77743,-84.47815,
ROBBERY-PEDESTRIAN,152040415,07/23/2015,1635 MORELAND AVE SE @FOXY LADY,607,Custer/McDonough/Guice,W,33.70941,-84.34994,
AGG ASSAULT,152042870,07/23/2015,1038 MORELAND DR SE,607,Custer/McDonough/Guice,W,33.70916,-84.3548,
AGG ASSAULT,152043071,07/23/2015,2879 COLLIER DR NW,112,Collier Heights,I,33.76464,-84.48107,
AGG ASSAULT,152042506,07/23/2015,2787 REVERE DR NW,113,Lincoln Homes,G,33.80057,-84.47926,
ROBBERY-PEDESTRIAN,152042119,07/23/2015,3825 JONESBORO RD SE,313,South River Gardens,Z,33.64971,-84.36662,
ROBBERY-PEDESTRIAN,152040152,07/23/2015,2997 CAMPBELLTON RD SW,409,Southwest,R,33.6962,-84.48681,
ROBBERY-COMMERCIAL,152041307,07/23/2015,3535 PEACHTREE RD NE @Multiple,210,Lenox,B,33.85182,-84.3595,
AGG ASSAULT,152042385,07/23/2015,1547 MONTREAT AVE SW,403,Cascade Avenue/Road,S,33.7302,-84.43862,
BURGLARY-RESIDENCE,152040083,07/23/2015,222 TUSKEGEE ST SE,304,Peoplestown,V,33.72856,-84.38064,
BURGLARY-RESIDENCE,152040087,07/23/2015,169 SOUTH AVE ,304,Summerhill,V,33.73226,-84.38236,
BURGLARY-RESIDENCE,152042174,07/23/2015,147 26TH ST NW,207,Brookwood,E,33.80251,-84.39773,
BURGLARY-RESIDENCE,152040174,07/23/2015,49 BOULEVARD SE,604,Sweet Auburn,M,33.75275,-84.37186,
BURGLARY-RESIDENCE,152041833,07/23/2015,954 WHITE ST SW,401,West End,T,33.73203,-84.41907,
BURGLARY-RESIDENCE,152042503,07/23/2015,3354 WARD DR SW,312,Glenrose Heights,Z,33.66657,-84.39162,
BURGLARY-RESIDENCE,152043149,07/23/2015,1660 PEACHTREE ST NW,502,Midtown,E,33.79874,-84.39164,
BURGLARY-NONRES,152040635,07/23/2015,2715 PEACHTREE RD NE @SECOND PONCE DE LEO,206,Garden Hills,B,33.82924,-84.38579,
BURGLARY-NONRES,152040764,07/23/2015,2630 MARTIN L KING JR DR SW,405,Harland Terrace,I,33.75377,-84.47405,
BURGLARY-NONRES,152042433,07/23/2015,104 RANDOLPH ST NE,604,Old Fourth Ward,M,33.75719,-84.36824,
LARCENY-NON VEHICLE,152042350,07/23/2015,595 PIEDMONT AVE NE @PUBLIX - PIEDMONT,603,Old Fourth Ward,M,33.77067,-84.38023,
LARCENY-NON VEHICLE,152042435,07/23/2015,1801 HOWELL MILL RD,204,Berkeley Park,D,33.80388,-84.41278,
LARCENY-NON VEHICLE,152042458,07/23/2015,1275 CAROLINE ST NE ,609,Edgewood,O,33.75674,-84.34619,
LARCENY-NON VEHICLE,152043092,07/23/2015,29 MORELAND AVE SE,606,Reynoldstown,N,33.75276,-84.34968,
LARCENY-NON VEHICLE,152041287,07/23/2015,215 FORSYTH ST SW,512,Downtown,M,33.74892,-84.3968,
LARCENY-FROM VEHICLE,152042978,07/23/2015,1784 PEACHTREE ST NW,207,Ardmore,E,33.80334,-84.39351,
LARCENY-FROM VEHICLE,152042643,07/23/2015,633 EVANS SW @KRISPY KREME,401,West End,T,33.7381,-84.4143,
LARCENY-FROM VEHICLE,152042538,07/23/2015,1919 METROPOLITAN PKWY SW,306,Sylvan Hills,X,33.70278,-84.41017,
LARCENY-FROM VEHICLE,152042463,07/23/2015,470 PAGE AVE NE,608,Candler Park,N,33.76691,-84.33426,
LARCENY-FROM VEHICLE,152042419,07/23/2015,3365 MARTIN L KING JR DR NW,111,Adamsville,H,33.76248,-84.50791,
LARCENY-FROM VEHICLE,152043073,07/23/2015,844 MURPHY AVE SW @ADAIR II PARK,301,Adair Park,V,33.73172,-84.4133,
LARCENY-FROM VEHICLE,152042176,07/23/2015,349 DECATUR ST SE,604,Sweet Auburn,M,33.74993,-84.37706,
LARCENY-FROM VEHICLE,152042920,07/23/2015,830 WILLOUGHBY WAY NE,603,Old Fourth Ward,M,33.76466,-84.36061,
LARCENY-FROM VEHICLE,152040622,07/23/2015,2127 PALIFOX DR NE,608,Lake Claire,N,33.76454,-84.31844,
LARCENY-FROM VEHICLE,152042005,07/23/2015,424 DECATUR ST SE,604,Sweet Auburn,M,33.75107,-84.37448,
LARCENY-FROM VEHICLE,152041871,07/23/2015,441 16TH ST NW @IKEA,501,Atlantic Station,E,33.78874,-84.40468,
LARCENY-FROM VEHICLE,152041760,07/23/2015,23 CLIFTON ST NE,609,Kirkwood,O,33.75411,-84.33146,
LARCENY-FROM VEHICLE,152041659,07/23/2015,3116 BENJAMIN E MAYS DR SW @APS YOUNG MS,406,Green Forest Acres,I,33.73303,-84.48973,
LARCENY-FROM VEHICLE,152041620,07/23/2015,3393 PEACHTREE RD NE @LENOX MALL,210,Lenox,B,33.84676,-84.36212,
LARCENY-FROM VEHICLE,152040971,07/23/2015,2399 BARGE RD SW,413,,P,33.68971,-84.50635,
LARCENY-FROM VEHICLE,152040737,07/23/2015,437 MONUMENT AVE SE,612,East Atlanta,W,33.74193,-84.34159,
LARCENY-FROM VEHICLE,152040410,07/23/2015,1136 PEACHTREE ST NE,503,Midtown,E,33.78568,-84.38311,
LARCENY-FROM VEHICLE,152041365,07/23/2015,3814 VERMONT RD NE,209,Brookhaven,B,33.85926,-84.35617,
LARCENY-FROM VEHICLE,152041041,07/23/2015,872 PEACHTREE ST,505,Midtown,E,33.77853,-84.38431,
LARCENY-NON VEHICLE,152042784,07/23/2015,998 CENTER ST NW,501,Home Park,E,33.782,-84.40285,
LARCENY-FROM VEHICLE,152042042,07/23/2015,151 E WESLEY RD NE,206,Peachtree Heights East,B,33.8285,-84.38247,
LARCENY-NON VEHICLE,152041431,07/23/2015,65 ALABAMA ST SW ,511,Downtown,M,33.75247,-84.38983,
LARCENY-NON VEHICLE,152041546,07/23/2015,755 HANK AARON DR SW @TURNER FIELD,304,Summerhill,V,33.73624,-84.389,
LARCENY-NON VEHICLE,152040947,07/23/2015,2857 GRAND AVE SW,311,Hammond Park,X,33.67729,-84.40202,
LARCENY-NON VEHICLE,152041264,07/23/2015,765 MCDANIEL ST SW,302,Pittsburgh,V,33.73365,-84.40221,
LARCENY-NON VEHICLE,152041649,07/23/2015,3755 CARMIA DR SW,414,Princeton Lakes,P,33.6569,-84.51004,
LARCENY-NON VEHICLE,152042218,07/23/2015,330 W PEACHTREE ST NW ,508,Downtown,M,33.76364,-84.38791,
LARCENY-NON VEHICLE,152042603,07/23/2015,2220 CAMPBELLTON RD SW,410,Campbellton Road,R,33.7044,-84.46144,
LARCENY-NON VEHICLE,152040735,07/23/2015,1544 CRAFTSMAN RD NW,110,Rockdale,G,33.78673,-84.44522,
LARCENY-NON VEHICLE,152040518,07/23/2015,80 JESSE HILL JR DR NE,510,Downtown,M,33.75657,-84.38034,
LARCENY-NON VEHICLE,152042105,07/23/2015,255 COURTLAND ST NE,509,Downtown,M,33.76139,-84.38406,
LARCENY-NON VEHICLE,152043108,07/23/2015,800 W MARIETTA ST NW ,103,English Avenue,L,33.78022,-84.41514,
AUTO THEFT,152042556,07/23/2015,1919 METROPOLITAN PKWY SW,306,Sylvan Hills,X,33.70278,-84.41017,
AUTO THEFT,152042507,07/23/2015,3649 VENETIAN PL SW,414,Princeton Lakes,P,33.66279,-84.51349,
AUTO THEFT,152042955,07/23/2015,794 LAKE AVE NE,602,Inman Park,N,33.75871,-84.36183,
AUTO THEFT,152042570,07/23/2015,745 HAMILTON AVE SE,607,Boulevard Heights,W,33.72554,-84.36351,
AUTO THEFT,152040953,07/23/2015,707 HANSELL ST SE,605,Grant Park,W,33.73995,-84.36438,
AUTO THEFT,152040731,07/23/2015,956 SIMS ST SW,302,Pittsburgh,V,33.72881,-84.40294,
AUTO THEFT,152060939,07/23/2015,956 SIMS ST SW,302,Pittsburgh,V,33.72881,-84.40294,
AUTO THEFT,152040730,07/23/2015,1101 INDALE PL SW,403,Oakland City,S,33.725,-84.42883,
AUTO THEFT,152041051,07/23/2015,1101 INDALE PL SW ,403,Oakland City,S,33.725,-84.42883,
AUTO THEFT,152032417,07/22/2015,1201 COLLIER RD NW,204,,C,33.81162,-84.425,
AUTO THEFT,152031428,07/22/2015,2900 LANDRUM DR SW,409,Southwest,R,33.70623,-84.48372,
AUTO THEFT,152031209,07/22/2015,1901 METROPOLITAN PKWY SW,306,Sylvan Hills,X,33.70228,-84.40817,
AUTO THEFT,152031130,07/22/2015,3502 FORREST PARK RD SE,313,South River Gardens,Z,33.65819,-84.35519,
AUTO THEFT,152031234,07/22/2015,540 HUMPHRIES ST SW,303,Mechanicsville,V,33.7399,-84.40488,
AUTO THEFT,152031092,07/22/2015,315 TANNER ST SE,604,Sweet Auburn,M,33.75355,-84.37695,
AUTO THEFT,152031968,07/22/2015,375  UNIVERSITY AVE SW,302,Pittsburgh,V,33.72221,-84.40039,
AUTO THEFT,152031576,07/22/2015,2249 NISKEY LAKE RD SW,413,Elmco Estates,P,33.69325,-84.52822,
AUTO THEFT,152031810,07/22/2015,2967 N FULTON DR NE,206,Garden Hills,B,33.83565,-84.37752,
AUTO THEFT,152031847,07/22/2015,3605 CAMPBELLTON RD SW,412,Ben Hill Acres,P,33.69053,-84.50649,
AUTO THEFT,152030215,07/22/2015,426 HOPKINS ST SW,401,West End,T,33.74353,-84.43035,
AUTO THEFT,152030509,07/22/2015,928 ALLENE AVE SW,301,Adair Park,V,33.72966,-84.41346,
AUTO THEFT,152030553,07/22/2015,725 SYMPHONY LN NW,112,Collier Heights,I,33.77433,-84.48206,
AUTO THEFT,152030561,07/22/2015,444 SARGENT DR SE,310,Lakewood,Z,33.69069,-84.37458,
AUTO THEFT,152030933,07/22/2015,749 MORELAND AVE SE,607,Ormewood Park,W,33.73393,-84.34942,
AUTO THEFT,152030545,07/22/2015,629 AMAL DR SW,307,Amal Heights,Y,33.70826,-84.39724,
AUTO THEFT,152030698,07/22/2015,153 RICHMOND ST SE,304,Summerhill,V,33.7398,-84.3827,
AUTO THEFT,152030374,07/22/2015,2141 SPRINGDALE RD SW,309,Perkerson,X,33.69603,-84.41411,
LARCENY-NON VEHICLE,152031213,07/22/2015,135 DEARBORN ST SE,610,Kirkwood,O,33.74882,-84.32748,
LARCENY-NON VEHICLE,152032496,07/22/2015,95 WHITAKER CIR NW,105,West Lake,J,33.75846,-84.44512,
LARCENY-NON VEHICLE,152031310,07/22/2015,609 WOODLAND AVE SE,607,Ormewood Park,W,33.73773,-84.35002,
LARCENY-NON VEHICLE,152032492,07/22/2015,140 PINE ST NE,509,Downtown,M,33.76757,-84.3829,
LARCENY-NON VEHICLE,152038028,07/22/2015,6000 NTERMINAL PKWY,705,,,33.64184,-84.4477,
LARCENY-NON VEHICLE,152031086,07/22/2015,1990 ALISON CT SW,410,Campbellton Road,R,33.70066,-84.45363,
LARCENY-NON VEHICLE,152030857,07/22/2015,1141 MOBILE ST NW,105,Hunter Hills,K,33.76262,-84.42453,
LARCENY-NON VEHICLE,152030133,07/22/2015,1936 PIEDMONT CIR NE,212,Piedmont Heights,F,33.80965,-84.36831,
LARCENY-NON VEHICLE,152031736,07/22/2015,2559 JONESBORO RD SE,310,Browns Mill Park,Z,33.68377,-84.36603,
LARCENY-NON VEHICLE,152032576,07/22/2015,876 THURMOND ST NW,102,Vine City,L,33.76026,-84.41617,
AUTO THEFT,152031107,07/22/2015,2141 SPRINGDALE RD SW,309,Perkerson,X,33.69622,-84.41481,
LARCENY-NON VEHICLE,152030235,07/22/2015,921 HOWELL MILL RD NW,501,Home Park,E,33.78016,-84.41015,
LARCENY-NON VEHICLE,152031370,07/22/2015,1111 HIGHTOWER RD NW,109,Carey Park,G,33.78547,-84.47259,
LARCENY-FROM VEHICLE,152031680,07/22/2015,1885 JONESBORO RD SE,307,Lakewood Heights,Y,33.7032,-84.37701,
LARCENY-NON VEHICLE,152030583,07/22/2015,641 NORTH AVE NE,603,Old Fourth Ward,M,33.77103,-84.36618,
LARCENY-NON VEHICLE,152031443,07/22/2015,600 GARSON DR NE,211,Lindbergh/Morosgo,B,33.81907,-84.37069,
LARCENY-FROM VEHICLE,152031553,07/22/2015,1791 LADAWN LN,203,Bolton,D,33.8156,-84.44661,
LARCENY-FROM VEHICLE,152031544,07/22/2015,1620 DELOWE DR SW,409,Adams Park,R,33.71157,-84.46225,
LARCENY-FROM VEHICLE,152030842,07/22/2015,1931 DELANO DR NE,610,Kirkwood,O,33.75513,-84.32442,
LARCENY-FROM VEHICLE,152032910,07/22/2015,21 DANIEL ST SE,604,Old Fourth Ward,M,33.75366,-84.37126,
LARCENY-FROM VEHICLE,152032884,07/22/2015,75 MARTIN L KING JR DR SE,512,Downtown,M,33.74869,-84.38645,
LARCENY-FROM VEHICLE,152032869,07/22/2015,997 BLUE RIDGE AVE NE,602,Poncey-Highland,N,33.7722,-84.35485,
LARCENY-FROM VEHICLE,152032866,07/22/2015,253 15TH ST NE,502,Ansley Park,E,33.78821,-84.37872,
LARCENY-FROM VEHICLE,152031728,07/22/2015,1166 RALPH D ABERNATHY BLVD SW,402,West End,T,33.73835,-84.4264,
LARCENY-FROM VEHICLE,152032455,07/22/2015,879 RALPH D ABERNATHY BLVD SW,401,West End,T,33.73847,-84.41662,
LARCENY-FROM VEHICLE,152032412,07/22/2015,1500 MCLENDON AVE NE ,608,Candler Park,N,33.76497,-84.33827,
LARCENY-FROM VEHICLE,152032389,07/22/2015,500 10TH ST NE,502,,E,33.78223,-84.36922,
LARCENY-FROM VEHICLE,152032382,07/22/2015,375 18TH ST NW,501,Atlantic Station,E,33.79303,-84.39921,
LARCENY-FROM VEHICLE,152032268,07/22/2015,3539 NORTHSIDE PKWY NW,202,Randall Mill,A,33.85114,-84.43035,
LARCENY-FROM VEHICLE,152032218,07/22/2015,3393 PEACHTREE RD NE @Multiple,210,Lenox,B,33.84676,-84.36212,
LARCENY-FROM VEHICLE,152030515,07/22/2015,529 FLAT SHOALS AVE SE,612,East Atlanta,W,33.7398,-84.34511,
LARCENY-FROM VEHICLE,152031597,07/22/2015,180 WALKER ST SW,507,Castleberry Hill,M,33.74964,-84.40132,
LARCENY-FROM VEHICLE,152031431,07/22/2015,133 ANDREW YOUNG INTERNA BLVD NW,508,Downtown,M,33.75981,-84.39168,
LARCENY-FROM VEHICLE,152030406,07/22/2015,49 BOULEVARD SE,604,Sweet Auburn,M,33.75253,-84.3721,
LARCENY-FROM VEHICLE,152031207,07/22/2015,2020 PEACHTREE RD NW ,207,,E,33.80991,-84.39361,
LARCENY-FROM VEHICLE,152030846,07/22/2015,3509 BOULDER PARK DR SW,407,Adamsville,H,33.75019,-84.50309,
LARCENY-FROM VEHICLE,152031219,07/22/2015,545 HILL ST SE @APS KING MS,605,Grant Park,W,33.73871,-84.38051,
LARCENY-FROM VEHICLE,152031081,07/22/2015,1245 GLENWOOD AVE SE,612,East Atlanta,W,33.74006,-84.3466,
LARCENY-FROM VEHICLE,152031032,07/22/2015,616 BROWNWOOD AVE SE,612,East Atlanta,W,33.73742,-84.34783,
LARCENY-FROM VEHICLE,152030949,07/22/2015,805 PEACHTREE BATTLE AVE NW,205,Brandon,C,33.82582,-84.41452,
LARCENY-FROM VEHICLE,152030897,07/22/2015,2701 OLDKNOW DR NW,112,Collier Heights,I,33.77206,-84.47623,
LARCENY-NON VEHICLE,152031270,07/22/2015,235 PEACHTREE ST NE @CVS,509,Downtown,M,33.76044,-84.38702,
LARCENY-NON VEHICLE,152031531,07/22/2015,1371 MARKET ST NW,501,Atlantic Station,E,33.7921,-84.39466,
LARCENY-NON VEHICLE,152031967,07/22/2015,650 PONCE DE LEON AVE NE,506,Midtown,E,33.77352,-84.36667,
LARCENY-NON VEHICLE,152032635,07/22/2015,2539 PIEDMONT RD NE @TARGET - PIEDMONT,211,Lindbergh/Morosgo,B,33.82403,-84.36328,
BURGLARY-NONRES,152030863,07/22/2015,2196 CHESHIRE BRIDGE RD NE,212,Lindridge/Martin Manor,F,33.81495,-84.35371,
BURGLARY-NONRES,152031495,07/22/2015,755 HANK AARON DR SW @TURNER FIELD,304,Summerhill,V,33.73624,-84.389,
BURGLARY-RESIDENCE,152030555,07/22/2015,180 JACKSON ST NE,604,Sweet Auburn,M,33.75932,-84.37442,
BURGLARY-RESIDENCE,152031401,07/22/2015,855 W PEACHTREE ST NE,505,Midtown,E,33.77773,-84.38718,
BURGLARY-RESIDENCE,152030349,07/22/2015,528 EMILY PL NW,107,Grove Park,J,33.76965,-84.45173,
BURGLARY-RESIDENCE,152031675,07/22/2015,975 ESTES DR SW,306,Sylvan Hills,X,33.69881,-84.42093,
LARCENY-NON VEHICLE,152030501,07/22/2015,585 PARKWAY DR NE,603,Old Fourth Ward,M,33.77024,-84.37223,
LARCENY-NON VEHICLE,152031338,07/22/2015,3393 PEACHTREE RD NE @LENOX MALL,210,Lenox,B,33.84676,-84.36212,
BURGLARY-RESIDENCE,152031417,07/22/2015,501 DARGAN PL SW,401,West End,T,33.74136,-84.42544,
BURGLARY-RESIDENCE,152033004,07/22/2015,3909 CAMPBELLTON RD SW,412,Kings Forest,P,33.6924,-84.51637,
BURGLARY-RESIDENCE,152032786,07/22/2015,585 MCWILLIAMS RD SE,310,Browns Mill Park,Z,33.6887,-84.36924,
BURGLARY-RESIDENCE,152032564,07/22/2015,1371 KIMBERLY WAY SW,412,Ashley Courts,P,33.71771,-84.52315,
BURGLARY-RESIDENCE,152032070,07/22/2015,1717 HAVILON DR SW,404,Cascade Avenue/Road,S,33.7296,-84.44373,
BURGLARY-RESIDENCE,152031395,07/22/2015,2049 TIGER FLOWERS DR NW,108,Dixie Hills,J,33.76046,-84.45432,
AGG ASSAULT,151930410,07/22/2015,1683 LAKEWOOD AVE SE,307,West End,T,33.73374,-84.41519,
AGG ASSAULT,152030483,07/22/2015,2075 DONALD LEE HOLLOWELL PKWY NW,109,Grove Park,J,33.77676,-84.45342,
AGG ASSAULT,152032809,07/22/2015,1483 ARTHUR LANGFORD JR PL SW,307,Joyland,Y,33.71097,-84.39789,
AGG ASSAULT,152031327,07/22/2015,101 SUNSET AVE NW,102,Vine City,L,33.75738,-84.40991,
ROBBERY-PEDESTRIAN,152032691,07/22/2015,450 CAPITOL AVE SE @CARTER HALL,304,Summerhill,V,33.74229,-84.38686,
ROBBERY-PEDESTRIAN,152031479,07/22/2015,2132 DONALD LEE HOLLOWELL PKWY NW,107,Grove Park,J,33.77637,-84.4551,
AGG ASSAULT,152030314,07/22/2015,1033 HOLLYWOOD RD NW,110,Almond Park,G,33.78308,-84.45882,
ROBBERY-PEDESTRIAN,152033012,07/22/2015,100 TERRACE DR NE,211,Peachtree Hills,B,33.82167,-84.38571,
ROBBERY-PEDESTRIAN,152030357,07/22/2015,396 PIEDMONT AVE NE,509,Downtown,M,33.76491,-84.3826,
ROBBERY-PEDESTRIAN,152030214,07/22/2015,507 ETHEL ST NW,501,Home Park,E,33.78461,-84.40384,
ROBBERY-PEDESTRIAN,152030035,07/22/2015,80 NORTHSIDE DR NW,102,Vine City,L,33.75678,-84.40289,
ROBBERY-PEDESTRIAN,152031279,07/22/2015,871 WELCH ST SW,302,Pittsburgh,V,33.73115,-84.4052,
ROBBERY-PEDESTRIAN,152023173,07/21/2015,760 ARGONNE AVE NE,505,Midtown,E,33.77538,-84.37778,
ROBBERY-PEDESTRIAN,152023100,07/21/2015,2754 VINEYARDS DR SE,312,Rosedale Heights,Z,33.67965,-84.36943,
ROBBERY-PEDESTRIAN,152021183,07/21/2015,1371 KIMBERLY RD SW,412,Ashley Courts,P,33.71871,-84.52137,
ROBBERY-PEDESTRIAN,152023072,07/21/2015,2900 LANDRUM DR SW,409,Southwest,R,33.70623,-84.48372,
ROBBERY-PEDESTRIAN,152020067,07/21/2015,2980 JONESBORO RD SE,313,South River Gardens,Z,33.67284,-84.3688,
HOMICIDE,152020296,07/21/2015,232 FORSYTH STREET,507,Downtown,M,33.74852,-84.39636,
ROBBERY-PEDESTRIAN,152020400,07/21/2015,930 STALLINGS AVE SE,612,East Atlanta,W,33.72879,-84.33288,
AGG ASSAULT,152022892,07/21/2015,1075 MCDANIEL ST SW,302,Pittsburgh,V,33.72544,-84.40188,
ROBBERY-PEDESTRIAN,152022900,07/21/2015,321 10TH ST,503,Midtown,E,33.78178,-84.37766,
ROBBERY-PEDESTRIAN,152021220,07/21/2015,411 CLEVELAND AVE SW,309,Perkerson,X,33.68145,-84.40305,
AGG ASSAULT,152020222,07/21/2015,2517 DONALD LEE HOLLOWELL PKWY NW,109,Center Hill,J,33.77605,-84.46824,
AGG ASSAULT,152022931,07/21/2015,3228 MARTIN L KING JR DR SW,406,,I,33.75254,-84.49328,
AGG ASSAULT,152020593,07/21/2015,532 CLEVELAND AVE SW,311,Hammond Park,X,33.68116,-84.4059,
AGG ASSAULT,152021098,07/21/2015,1050 PONCE DE LEON AVE NE,601,Virginia Highland,F,33.77392,-84.35296,
BURGLARY-RESIDENCE,152020032,07/21/2015,262 ARTHUR LANGFORD JR PL SW,307,Joyland,Y,33.71412,-84.39753,
BURGLARY-RESIDENCE,152020737,07/21/2015,987 WILDWOOD RD,213,Morningside/Lenox Park,F,33.80326,-84.35491,
BURGLARY-RESIDENCE,152020594,07/21/2015,1750 W SUSSEX RD,213,Morningside/Lenox Park,F,33.80247,-84.35285,
BURGLARY-RESIDENCE,152021794,07/21/2015,123 PARSONS PL SW,104,Ashview Heights,T,33.75135,-84.42259,
BURGLARY-RESIDENCE,152022223,07/21/2015,349 DECATUR ST SE,604,Sweet Auburn,M,33.74988,-84.37788,
LARCENY-NON VEHICLE,152020239,07/21/2015,198 POLAR ROCK RD SW,310,Polar Rock,Z,33.69529,-84.39555,
BURGLARY-NONRES,152022630,07/21/2015,570 MITCHELL ST SW,101,Atlanta University Center,T,33.75324,-84.40587,
BURGLARY-RESIDENCE,152020270,07/21/2015,2775 VINEYARDS DR SE,312,Rosedale Heights,Z,33.67935,-84.3708,
BURGLARY-RESIDENCE,152022471,07/21/2015,600 GARSON DR NE,211,Lindbergh/Morosgo,B,33.81907,-84.37069,
BURGLARY-NONRES,152020395,07/21/2015,30 DECATUR STREET,511,Downtown,M,33.75377,-84.38861,
BURGLARY-NONRES,152020471,07/21/2015,100 6TH ST NE,505,Midtown,E,33.77756,-84.38417,
LARCENY-NON VEHICLE,152020833,07/21/2015,68 PEACHTREE ST SW,511,Downtown,M,33.75251,-84.39122,
LARCENY-NON VEHICLE,152022587,07/21/2015,835 MARTIN L KING JR DR NW,102,Vine City,L,33.75504,-84.41457,
LARCENY-NON VEHICLE,152022517,07/21/2015,2456 MARTIN L KING JR DR SW,405,Harland Terrace,I,33.75166,-84.46789,
LARCENY-NON VEHICLE,152021530,07/21/2015,835 MARTIN L KING JR DR NW,102,Vine City,L,33.75504,-84.41457,
LARCENY-FROM VEHICLE,152020773,07/21/2015,1993 BENT CREEK WAY SW,410,Campbellton Road,R,33.70084,-84.46568,
LARCENY-FROM VEHICLE,152020520,07/21/2015,1247 BYEWOOD LN SW,403,Oakland City,S,33.71803,-84.42981,
LARCENY-FROM VEHICLE,152020925,07/21/2015,1310 DRAYCOTT PL NW,201,Margaret Mitchell,A,33.83303,-84.43143,
LARCENY-FROM VEHICLE,152020604,07/21/2015,2497 FORREST PARK RD SE,308,Leila Valley,Z,33.68641,-84.36054,
LARCENY-FROM VEHICLE,152022878,07/21/2015,3500 PEACHTREE RD NE @PHIPPS PLAZA,208,North Buckhead,B,33.85252,-84.36116,
LARCENY-FROM VEHICLE,152022559,07/21/2015,645 GRESHAM AVE SE,612,East Atlanta,W,33.73677,-84.34613,
LARCENY-FROM VEHICLE,152022551,07/21/2015,3232 PEACHTREE RD NE,208,Buckhead Forest,B,33.84413,-84.37409,
LARCENY-FROM VEHICLE,152021819,07/21/2015,702 LAKESHORE CIR NE,211,Lindridge/Martin Manor,F,33.81653,-84.36547,
LARCENY-FROM VEHICLE,152022503,07/21/2015,3393 PEACHTREE RD NE,210,Lenox,B,33.84676,-84.36212,
LARCENY-FROM VEHICLE,152021943,07/21/2015,540 HUMPHRIES ST SW,303,Mechanicsville,V,33.7399,-84.40488,
LARCENY-FROM VEHICLE,152022080,07/21/2015,1575 MORELAND AVE SE,607,Custer/McDonough/Guice,W,33.7118,-84.35004,
LARCENY-FROM VEHICLE,152021306,07/21/2015,441 16TH ST NW @IKEA,501,Atlantic Station,E,33.78874,-84.40468,
LARCENY-FROM VEHICLE,152020478,07/21/2015,193 MOURY AVE SW,305,The Villages at Carver,Y,33.71299,-84.3913,
LARCENY-FROM VEHICLE,152020443,07/21/2015,2517 DONALD LEE HOLLOWELL PKWY NW,109,Center Hill,J,33.77605,-84.46824,
LARCENY-FROM VEHICLE,152020396,07/21/2015,376 NELSON ST SW,507,Castleberry Hill,M,33.75108,-84.39988,
LARCENY-FROM VEHICLE,152021245,07/21/2015,3393 NORTHSIDE PKWY NW,202,West Paces Ferry/Northside,A,33.84688,-84.42812,
LARCENY-FROM VEHICLE,152020310,07/21/2015,795 POLLARD BLVD SW,304,Summerhill,V,33.73328,-84.391,
LARCENY-FROM VEHICLE,152020391,07/21/2015,238 WALKER ST SW,507,Castleberry Hill,M,33.74821,-84.40256,
LARCENY-FROM VEHICLE,152012927,07/21/2015,658 WHITEHALL ST SW,303,Adair Park,V,33.74166,-84.40937,
LARCENY-FROM VEHICLE,152021077,07/21/2015,797 STOKESWOOD AVE SE,612,East Atlanta,W,33.73265,-84.34498,
LARCENY-FROM VEHICLE,152020462,07/21/2015,2124 CHESHIRE BRIDGE RD NE,212,Lindridge/Martin Manor,F,33.8145,-84.35554,
LARCENY-NON VEHICLE,152021293,07/21/2015,112 COURTLAND ST NE,510,Downtown,M,33.7574,-84.38475,
LARCENY-NON VEHICLE,152022425,07/21/2015,1940 BREWER BLVD SW,306,Sylvan Hills,X,33.70149,-84.41166,
LARCENY-NON VEHICLE,152021475,07/21/2015,191 PEACHTREE ST NE,510,Downtown,M,33.75879,-84.3864,
LARCENY-NON VEHICLE,152022067,07/21/2015,3343 PEACHTREE RD NE,208,Lenox,B,33.84748,-84.36737,
LARCENY-NON VEHICLE,152021605,07/21/2015,1116 MARTIN L KING JR DR SW @WASHINGTON PARK BRAN,104,Just Us,T,33.75399,-84.42408,
LARCENY-NON VEHICLE,152021477,07/21/2015,3804 MARTIN L KING JR DR SW,114,Old Gordon,H,33.76797,-84.51322,
LARCENY-NON VEHICLE,152021535,07/21/2015,265 PEACHTREE CENTER AVE NE @MARIOTT MARQUIS,509,Downtown,M,33.76158,-84.38496,
LARCENY-NON VEHICLE,152022724,07/21/2015,431 COLLIER RIDGE DR NW,112,Collier Heights,I,33.76694,-84.47626,
LARCENY-NON VEHICLE,152021316,07/21/2015,2800 MARTIN L KING JR DR SW,405,Harland Terrace,I,33.75431,-84.4793,
LARCENY-NON VEHICLE,152021200,07/21/2015,2959 FORREST HILLS DR SW,311,Hammond Park,X,33.67414,-84.39962,
LARCENY-NON VEHICLE,152021995,07/21/2015,2030 SUMTER ST NW,203,Bolton,D,33.8149,-84.45372,
LARCENY-NON VEHICLE,152022541,07/21/2015,275 BAKER ST NW,508,Downtown,M,33.76206,-84.39568,
LARCENY-NON VEHICLE,152022438,07/21/2015,1387 BENTEEN PARK DR SE,607,Benteen Park,W,33.71397,-84.36173,
LARCENY-NON VEHICLE,152022211,07/21/2015,852 RALPH D ABERNATHY BLVD SW,401,West End,T,33.73815,-84.41543,
LARCENY-NON VEHICLE,152022545,07/21/2015,12 BROAD ST SW,511,Downtown,M,33.7532,-84.39201,
LARCENY-NON VEHICLE,152022790,07/21/2015,800 HUTCHENS RD SE @APS SOUTH ATLANTA HS,313,South River Gardens,Z,33.67102,-84.36187,
LARCENY-NON VEHICLE,152020696,07/21/2015,865 DILL AVE SW,301,Capitol View,X,33.71851,-84.4164,
LARCENY-NON VEHICLE,152021912,07/21/2015,225 BAKER ST NW,508,Downtown,M,33.76387,-84.39477,
LARCENY-NON VEHICLE,152021396,07/21/2015,1001 PIEDMONT AVE NE,502,Midtown,E,33.78201,-84.38028,
LARCENY-NON VEHICLE,152021594,07/21/2015,1034 NORTHCLIFFE DR NW,205,Wildwood (NPU-C),C,33.82021,-84.42192,
AUTO THEFT,152022639,07/21/2015,837 BERNE ST SE,605,Grant Park,W,33.73636,-84.3601,
AUTO THEFT,152021136,07/21/2015,1744 MADRONA ST NW,107,Grove Park,J,33.77036,-84.44412,
AUTO THEFT,152020999,07/21/2015,1931 OANA ST SW,306,Sylvan Hills,X,33.70191,-84.41333,
AUTO THEFT,152021691,07/21/2015,570 LYNHURST DR SW @APS WEST MANOR ES,406,,I,33.73969,-84.48974,
AUTO THEFT,152021868,07/21/2015,2175 PIEDMONT RD NE,211,Lindridge/Martin Manor,F,33.81716,-84.36632,
AUTO THEFT,152021069,07/21/2015,201 MOURY AVE SW,305,The Villages at Carver,Y,33.71691,-84.39276,
AUTO THEFT,152021297,07/21/2015,571 WIMBLEDON RD NE,212,Piedmont Heights,F,33.80647,-84.36849,
AUTO THEFT,152022475,07/21/2015,2214 SPRINGDALE RD SW,309,Perkerson,X,33.6941,-84.41376,
AUTO THEFT,152021386,07/21/2015,1993 BENT CREEK WAY SW,410,Campbellton Road,R,33.70084,-84.46568,
AUTO THEFT,152020742,07/21/2015,795 POLLARD BLVD SW,304,Summerhill,V,33.73328,-84.391,
AUTO THEFT,152020450,07/21/2015,2600 OLD HAPEVILLE RD SW,310,Browns Mill Park,Z,33.6835,-84.39366,
AUTO THEFT,152020003,07/21/2015,201 MOURY AVE SW,305,The Villages at Carver,Y,33.71347,-84.39079,
AUTO THEFT,152010739,07/20/2015,242 CITYLINE AVE NE,603,Old Fourth Ward,M,33.77024,-84.3783,
AUTO THEFT,152011286,07/20/2015,3901 CAMPBELLTON RD SW,412,Kings Forest,P,33.69231,-84.51621,
AUTO THEFT,152011336,07/20/2015,1005 BALDWIN ST SW,104,Ashview Heights,T,33.74647,-84.42057,
AUTO THEFT,152010879,07/20/2015,967 WHITE ST SW,401,West End,T,33.73244,-84.41956,
AUTO THEFT,152011090,07/20/2015,3235 MOUNT GILEAD PL SW,409,Southwest,R,33.69619,-84.49465,
AUTO THEFT,152011101,07/20/2015,1458 OLIVE ST SW,408,Venetian Hills,S,33.71534,-84.43123,
AUTO THEFT,152012374,07/20/2015,460 THOMASVILLE BLVD SE,308,Thomasville Heights,Z,33.70602,-84.35939,
AUTO THEFT,152012436,07/20/2015,2500 CENTER ST NW @ETHERIDGE COURT APT,113,Carey Park,G,33.79092,-84.47306,
AUTO THEFT,152012897,07/20/2015,1994 BENT CREEK WAY SW,410,Campbellton Road,R,33.7011,-84.46631,
AUTO THEFT,152012936,07/20/2015,507 JOSEPH E LOWERY  BLVD,401,West End,T,33.74097,-84.41809,
AUTO THEFT,152002652,07/20/2015,373 LEGACY DR SW,104,Harris Chiles,T,33.74387,-84.41937,
AUTO THEFT,152012599,07/20/2015,1427 HOSEA L WILLIAMS DR SE,609,Edgewood,O,33.75315,-84.34091,
AUTO THEFT,152011410,07/20/2015,765 MCDANIEL ST SW,302,Pittsburgh,V,33.73396,-84.40177,
AUTO THEFT,152011425,07/20/2015,1240 OAKLAND DR SW,403,Oakland City,S,33.72138,-84.42733,
AUTO THEFT,152011196,07/20/2015,1444 LUCILE AVE SW @Multiple,404,Westview,T,33.74253,-84.43524,
LARCENY-NON VEHICLE,152011279,07/20/2015,1315 PEACHTREE ST NE @PEACHTREE BRANCH,502,Midtown,E,33.79074,-84.38452,
LARCENY-NON VEHICLE,152011360,07/20/2015,848 BEECHWOOD AVE SW,301,Capitol View,X,33.72003,-84.4157,
LARCENY-NON VEHICLE,152011046,07/20/2015,85 MOUNT ZION RD SW,312,Glenrose Heights,Z,33.67291,-84.39153,
LARCENY-NON VEHICLE,152010963,07/20/2015,2479 ABNER TER NW,110,Carver Hills,G,33.80063,-84.46635,
LARCENY-NON VEHICLE,152012385,07/20/2015,359 OLIVER ST NW,103,English Avenue,L,33.76435,-84.41537,
LARCENY-NON VEHICLE,152011529,07/20/2015,2601 SHARONDALE DR NE,206,Garden Hills,B,33.82543,-84.37177,
LARCENY-NON VEHICLE,152010735,07/20/2015,3201 DOWNWOOD CIR NW,201,,C,33.84158,-84.42564,
LARCENY-NON VEHICLE,152011982,07/20/2015,1040 HAMPTON ST NW,501,Home Park,E,33.78314,-84.40701,
LARCENY-NON VEHICLE,152011812,07/20/2015,163 PONCE DE LEON AVE NE,505,Midtown,E,33.77211,-84.38209,
LARCENY-NON VEHICLE,152011705,07/20/2015,1332 ALMONT DR SW,403,Oakland City,S,33.72572,-84.43148,
LARCENY-NON VEHICLE,152011811,07/20/2015,664 11TH ST NW,501,Home Park,E,33.78269,-84.40878,
LARCENY-NON VEHICLE,152011610,07/20/2015,901 BOLTON RD NW,114,Bankhead/Bolton,H,33.77948,-84.49901,
AUTO THEFT,152010993,07/20/2015,376 MATHEWSON PL SW,404,Westview,T,33.74495,-84.43593,
LARCENY-NON VEHICLE,152011633,07/20/2015,3130 SLATON DR NW,206,Peachtree Heights West,B,33.84005,-84.38612,
LARCENY-NON VEHICLE,152010722,07/20/2015,112 BOULEVARD NE ,604,Sweet Auburn,M,33.75723,-84.37275,
LARCENY-NON VEHICLE,152011496,07/20/2015,1968 PEACHTREE RD NW ,207,,E,33.81,-84.39583,
LARCENY-NON VEHICLE,152011497,07/20/2015,721 MIAMI CIR NE,211,Lindbergh/Morosgo,B,33.82966,-84.3638,
LARCENY-NON VEHICLE,152010684,07/20/2015,75 PEACHTREE PL NE,503,Midtown,E,33.78068,-84.38494,
LARCENY-NON VEHICLE,152012239,07/20/2015,3909 CAMPBELLTON RD SW,412,Kings Forest,P,33.6924,-84.51637,
LARCENY-NON VEHICLE,152012267,07/20/2015,2745 OLD HAPEVILLE RD SW,311,Glenrose Heights,Z,33.67992,-84.39348,
LARCENY-NON VEHICLE,152011314,07/20/2015,303 PARKWAY DR NE (CHICK FILL A),604,Old Fourth Ward,M,33.76286,-84.37405,
LARCENY-NON VEHICLE,152011862,07/20/2015,645 HILLPINE DR NE,213,Morningside/Lenox Park,F,33.79256,-84.36591,
LARCENY-NON VEHICLE,151971997,07/20/2015,229  PEACHTREE ST NE,508,Downtown,M,33.76044,-84.38702,
LARCENY-NON VEHICLE,152012553,07/20/2015,1050 HILL ST,304,Grant Park,W,33.72582,-84.37827,
LARCENY-FROM VEHICLE,152012223,07/20/2015,250 PIEDMONT AVE NE @HILTON OFFICE TOWER,509,Downtown,M,33.76126,-84.38223,
LARCENY-FROM VEHICLE,152011014,07/20/2015,395 BEVERLY RD NE,502,Ansley Park,E,33.79683,-84.37618,
LARCENY-FROM VEHICLE,152010941,07/20/2015,2059 W CEDAR LN SW,409,Adams Park,R,33.71372,-84.45579,
LARCENY-FROM VEHICLE,152011657,07/20/2015,2722 DEERWOOD LN SW,414,Ben Hill,P,33.67275,-84.5152,
LARCENY-FROM VEHICLE,152012446,07/20/2015,1150 ASYTOR AVE,306,Sylvan Hills,X,33.70137,-84.42678,
LARCENY-FROM VEHICLE,152013010,07/20/2015,965 CUNNINGHAM PL SW,104,Harris Chiles,T,33.7434,-84.41972,
LARCENY-FROM VEHICLE,152012149,07/20/2015,3144 CASCADE RD SW @CASCADE UNITED METH,409,Cascade Heights,I,33.71949,-84.49157,
LARCENY-FROM VEHICLE,152012938,07/20/2015,178 MOURY AVE SW,305,The Villages at Carver,Y,33.71347,-84.39079,
LARCENY-FROM VEHICLE,152012727,07/20/2015,2095 TIGER FLOWERS DR NW,108,Dixie Hills,J,33.76041,-84.45583,
LARCENY-FROM VEHICLE,152012853,07/20/2015,156 MOURY AVE SW,305,The Villages at Carver,Y,33.71265,-84.38851,
LARCENY-FROM VEHICLE,152012583,07/20/2015,2893 LAKEWOOD AVE SW ,306,Sylvan Hills,X,33.6976,-84.41162,
LARCENY-FROM VEHICLE,152010528,07/20/2015,269 BOULDER PARK LN SW,407,Adamsville,H,33.75135,-84.50392,
LARCENY-FROM VEHICLE,152010488,07/20/2015,963 MARTIN ST SE,304,Peoplestown,V,33.72818,-84.38352,
LARCENY-FROM VEHICLE,152011585,07/20/2015,373 LEGACY DR SW,104,Harris Chiles,T,33.74387,-84.41937,
LARCENY-FROM VEHICLE,152011712,07/20/2015,1223 LYNWAY LN SW,406,Cascade Heights,I,33.72193,-84.48683,
LARCENY-FROM VEHICLE,152011841,07/20/2015,2430 CHESHIRE BRIDGE RD NE,212,Lindridge/Martin Manor,F,33.82115,-84.35224,
LARCENY-FROM VEHICLE,152002730,07/20/2015,3400 MARTIN L KING JR DR SW,407,Adamsville,H,33.75443,-84.49916,
LARCENY-FROM VEHICLE,152010753,07/20/2015,609 VIRGINIA AVE NE,601,Virginia Highland,F,33.78138,-84.36691,
LARCENY-FROM VEHICLE,152010825,07/20/2015,25 HONOUR CIR NW,202,Tuxedo Park,A,33.85311,-84.38461,
LARCENY-FROM VEHICLE,152010792,07/20/2015,1445 MONROE DR NE,213,Morningside/Lenox Park,F,33.79407,-84.36714,
LARCENY-FROM VEHICLE,152010795,07/20/2015,1110 RENAISSANCE WAY NE,603,Old Fourth Ward,M,33.76666,-84.37833,
LARCENY-FROM VEHICLE,152012088,07/20/2015,77 W PACES FERRY RD NW,206,South Tuxedo Park,B,33.84064,-84.38193,
LARCENY-FROM VEHICLE,152012001,07/20/2015,3393 PEACHTREE RD NE @LENOX MALL,210,Lenox,B,33.84676,-84.36212,
LARCENY-FROM VEHICLE,152011919,07/20/2015,3378 GREENBRIAR PKWY SW,413,,P,33.68387,-84.50204,
LARCENY-FROM VEHICLE,152011102,07/20/2015,3601 TINSLEY WAY SW,414,Princeton Lakes,P,33.6623,-84.51522,
LARCENY-FROM VEHICLE,152011281,07/20/2015,2002 LAKEWOOD WAY SW ,307,Lakewood Heights,Y,33.70226,-84.39452,
LARCENY-FROM VEHICLE,152011093,07/20/2015,826 DIXIE AVE NE,602,Inman Park,N,33.75686,-84.36069,
LARCENY-FROM VEHICLE,152011364,07/20/2015,3509 MARTIN L KING JR DR NW,111,Adamsville,H,33.7581,-84.50258,
LARCENY-FROM VEHICLE,152011445,07/20/2015,634 W PEACHTREE ST NW,509,Downtown,M,33.77097,-84.38753,
LARCENY-NON VEHICLE,152012844,07/20/2015,2539 PIEDMONT RD NE @TARGET - PIEDMONT,211,Lindbergh/Morosgo,B,33.82403,-84.36328,
LARCENY-NON VEHICLE,152012794,07/20/2015,755 HANK AARON DR SW,304,Summerhill,V,33.73624,-84.389,
LARCENY-NON VEHICLE,152012175,07/20/2015,3730 CARMIA DR SW,414,Princeton Lakes,P,33.65528,-84.5102,
LARCENY-NON VEHICLE,152012148,07/20/2015,1455 MORELAND AVE SE,607,Custer/McDonough/Guice,W,33.71478,-84.35014,
LARCENY-NON VEHICLE,152012012,07/20/2015,2539 PIEDMONT RD NE @TARGET - PIEDMONT,211,Lindbergh/Morosgo,B,33.82403,-84.36328,
LARCENY-NON VEHICLE,152012186,07/20/2015,2539 PIEDMONT RD NE,211,Lindbergh/Morosgo,B,33.82403,-84.36328,
BURGLARY-NONRES,152000929,07/20/2015,121 JOSEPH E LOWERY BLVD SW,104,Ashview Heights,T,33.7514,-84.41764,
BURGLARY-NONRES,152010665,07/20/2015,2020 HOWELL MILL RD NW @PUBLIX - HOWELL,205,Wildwood (NPU-C),C,33.81022,-84.41347,
BURGLARY-NONRES,152010592,07/20/2015,2345 PEACHTREE RD NE,211,Peachtree Hills,B,33.81878,-84.38861,
BURGLARY-RESIDENCE,152011546,07/20/2015,1402 DESOTO AVE SW,301,Capitol View,X,33.7166,-84.41163,
LARCENY-NON VEHICLE,152010761,07/20/2015,50 MOUNT ZION RD SW,312,Glenrose Heights,Z,33.67273,-84.39067,
LARCENY-NON VEHICLE,152010859,07/20/2015,1688 PEACHTREE ST NW,207,Brookwood,E,33.79978,-84.39232,
LARCENY-NON VEHICLE,151821578,07/20/2015,2950 SPRINGDALE RD,311,Hammond Park,X,33.67479,-84.41619,
BURGLARY-RESIDENCE,152012165,07/20/2015,784 PONCE DE LEON PL NE,601,Virginia Highland,F,33.77602,-84.3638,
BURGLARY-RESIDENCE,152011865,07/20/2015,3615 GINNIS RD SW,407,Fairburn Mays,H,33.73176,-84.51109,
BURGLARY-RESIDENCE,152011848,07/20/2015,2189 BELVEDERE AVE SW,409,Adams Park,R,33.72116,-84.46004,
