UC2_Literal,Report Number,Report Date,Location,Beat,Neigborhood,NPU,Lat,Long,
ROBBERY-PEDESTRIAN,162440223,08/31/2016,2740 DEERWOOD LN SW,414,Ben Hill,P,33.67237,-84.51522,
ROBBERY-PEDESTRIAN,162440236,08/31/2016,3150 FAIRBURN RD SW @MT GILEAD CEMETERY,414,Ben Hill,P,33.66903,-84.51522,
ROBBERY-PEDESTRIAN,162442636,08/31/2016,1308 MAYSON TURNER RD NW,106,Bankhead,K,33.76394,-84.43033,
AGG ASSAULT,162440439,08/31/2016,2001 SYLVAN RD SW,306,Sylvan Hills,X,33.69981,-84.4184,
AGG ASSAULT,162443016,08/31/2016,625 JAMES P BRAWLEY DR NW,103,English Avenue,L,33.77173,-84.41225,
AGG ASSAULT,162443026,08/31/2016,1606 ARTHUR LANGFORD JR PL SW,307,Joyland,Y,33.71032,-84.39769,
AGG ASSAULT,162442764,08/31/2016,2253 ROSWELL ST SW ,413,Fairburn,P,33.6929,-84.51957,
AGG ASSAULT,162442911,08/31/2016,2030 BOLTON RD NW,203,Riverside,D,33.81145,-84.47546,
AGG ASSAULT,162441698,08/31/2016,2591 ETHERIDGE DR NW,113,Carey Park,G,33.7881,-84.47292,
BURGLARY-RESIDENCE,162422717,08/31/2016,1805 MARY GEORGE AVE NW,110,Scotts Crossing,G,33.80429,-84.46555,
BURGLARY-RESIDENCE,162440399,08/31/2016,3127 LENOX RD NE,210,Pine Hills,B,33.84005,-84.35799,
BURGLARY-RESIDENCE,162440123,08/31/2016,72 FINCH DR SE,310,Swallow Circle/Baywood,Z,33.69527,-84.3861,
BURGLARY-RESIDENCE,162441156,08/31/2016,696 CATHERINE STREET SW,301,Adair Park,V,33.72567,-84.41039,
BURGLARY-RESIDENCE,162441257,08/31/2016,2909 CAMPBELLTON RD SW @CASCADE PINES APTS,409,Southwest,R,33.69872,-84.48418,
BURGLARY-RESIDENCE,162442574,08/31/2016,368 LAKEMOORE DR NE,209,North Buckhead,B,33.86658,-84.37548,
BURGLARY-RESIDENCE,162443103,08/31/2016,527 CONSTELLATION OVERLO SW,407,Mays,H,33.74204,-84.50308,
BURGLARY-RESIDENCE,162442948,08/31/2016,740 PASLEY AVE SE,612,East Atlanta,W,33.73407,-84.33723,
BURGLARY-RESIDENCE,162442983,08/31/2016,1366 AKRIDGE ST NW,105,Hunter Hills,K,33.75807,-84.43264,
BURGLARY-RESIDENCE,162442156,08/31/2016,407 LINDSEY DR SE,310,Lakewood,Z,33.69444,-84.37577,
BURGLARY-RESIDENCE,162442143,08/31/2016,3 EMMA LN NE,209,North Buckhead,B,33.86473,-84.37432,
BURGLARY-NONRES,162440435,08/31/2016,290 14TH ST NW,501,Home Park,E,33.78616,-84.3966,
BURGLARY-NONRES,162440630,08/31/2016,80 WALNUT ST SW,101,Atlanta University Center,T,33.75248,-84.40594,
BURGLARY-NONRES,162440925,08/31/2016,1100 HOWELL MILL RD NW,501,Home Park,E,33.7858,-84.41208,
BURGLARY-RESIDENCE,162443106,08/31/2016,2473 RUTHERFORD ST NW,203,Riverside,D,33.81793,-84.46947,
BURGLARY-RESIDENCE,162441946,08/31/2016,964 JOSEPH E BOONE BLVD NW,105,Washington Park,K,33.76339,-84.41896,
BURGLARY-RESIDENCE,162441252,08/31/2016,875 HANK AARON DR SW;,304,Peoplestown,V,33.73078,-84.38821,
BURGLARY-RESIDENCE,162442355,08/31/2016,385 LEGACY DR SW,104,Harris Chiles,T,33.74494,-84.41937,
LARCENY-NON VEHICLE,162441178,08/31/2016,1280 CAROLINE ST NE,609,Edgewood,O,33.75957,-84.34602,
LARCENY-NON VEHICLE,162441214,08/31/2016,835 MARTIN L KING JR DR NW,102,Vine City,L,33.75504,-84.41457,
LARCENY-NON VEHICLE,162442909,08/31/2016,1111 EUCLID AVE NE,602,Inman Park,N,33.764,-84.35057,
LARCENY-NON VEHICLE,162442693,08/31/2016,2539 PIEDMONT RD,211,Lindbergh/Morosgo,B,33.82403,-84.36328,
LARCENY-NON VEHICLE,162441981,08/31/2016,824 DONALD LEE HOLLOWELL PKWY NW,103,English Avenue,L,33.77282,-84.41423,
LARCENY-NON VEHICLE,162442093,08/31/2016,2525 PIEDMONT RD NE @HOME DEPOT,211,Lindbergh/Morosgo,B,33.824,-84.36521,
LARCENY-NON VEHICLE,162442524,08/31/2016,1145 RALPH D ABERNATHY BLVD SW,401,West End,T,33.73859,-84.42597,
LARCENY-NON VEHICLE,162442012,08/31/2016,3440 PEACHTREE RD NE,208,North Buckhead,B,33.85166,-84.36235,
LARCENY-NON VEHICLE,162442050,08/31/2016,835 MARTIN L KING JR DR NW,102,Vine City,L,33.75504,-84.41457,
LARCENY-FROM VEHICLE,162440762,08/31/2016,1925 MONROE DR,212,Piedmont Heights,F,33.80856,-84.37506,
LARCENY-FROM VEHICLE,162440006,08/31/2016,655 CLEVELAND AVE SW,309,Perkerson,X,33.6824,-84.41029,
LARCENY-FROM VEHICLE,162431569,08/31/2016,60 ANDREW INTERNATIONAL,509,Downtown,M,33.75969,-84.38606,
LARCENY-FROM VEHICLE,162440886,08/31/2016,1185 MOTON AVE SW,302,Pittsburgh,V,33.72251,-84.39694,
LARCENY-FROM VEHICLE,162441144,08/31/2016,2411 LAUREL CIR NW,111,Westhaven,I,33.75661,-84.47131,
LARCENY-FROM VEHICLE,162442731,08/31/2016,1150 AUSTIN AVE,608,Inman Park,N,33.76199,-84.35035,
LARCENY-FROM VEHICLE,162442401,08/31/2016,999 PEACHTREE ST NE,503,Midtown,E,33.78111,-84.3837,
LARCENY-FROM VEHICLE,162442405,08/31/2016,1159 MORELAND AVE SE,607,Woodland Hills,W,33.72261,-84.34979,
LARCENY-FROM VEHICLE,162441817,08/31/2016,1427 WOODMONT LN NW,203,Hills Park,D,33.80386,-84.43437,
LARCENY-FROM VEHICLE,162441347,08/31/2016,521 MORELAND AVE SE,607,Ormewood Park,W,33.74023,-84.34936,
LARCENY-FROM VEHICLE,162441266,08/31/2016,2025 MEADOR AVE SE,307,Lakewood Heights,Y,33.69888,-84.38054,
LARCENY-FROM VEHICLE,162441985,08/31/2016,566 HIGHLAND AVE NE,603,Old Fourth Ward,M,33.76154,-84.36872,
LARCENY-FROM VEHICLE,162441896,08/31/2016,590 WAYNES CT SE,313,South River Gardens,Z,33.67032,-84.3692,
LARCENY-FROM VEHICLE,162441966,08/31/2016,3725 PRINCETON LAKES PKWY SW,414,Princeton Lakes,P,33.65777,-84.50877,
LARCENY-FROM VEHICLE,162442950,08/31/2016,871 WHEELER ST NW,103,English Avenue,L,33.77438,-84.41627,
LARCENY-FROM VEHICLE,162442760,08/31/2016,1657 KENMORE ST SW,403,Cascade Avenue/Road,S,33.72609,-84.44231,
LARCENY-FROM VEHICLE,162442715,08/31/2016,1445 MACKLONE ST NE,609,Edgewood,O,33.75584,-84.34038,
LARCENY-FROM VEHICLE,162442685,08/31/2016,3756 MELVIN DR SW,412,Kings Forest,P,33.70794,-84.51184,
LARCENY-FROM VEHICLE,162442736,08/31/2016,2980 JONESBORO RD SE,313,South River Gardens,Z,33.67339,-84.37144,
LARCENY-FROM VEHICLE,162441119,08/31/2016,999 LEE ST SW,402,Oakland City,S,33.72797,-84.41784,
LARCENY-NON VEHICLE,162440652,08/31/2016,400 EDGEWOOD AVE NE,604,Sweet Auburn,M,33.75464,-84.37465,
LARCENY-NON VEHICLE,162441655,08/31/2016,1874 PIEDMONT AVE,212,Piedmont Heights,F,33.80721,-84.36643,
LARCENY-NON VEHICLE,162441931,08/31/2016,1065 PEACHTREE ST NE,503,Midtown,E,33.78363,-84.38295,
LARCENY-NON VEHICLE,162443182,08/31/2016,1692 LANGSTON AVE SW,306,Sylvan Hills,X,33.70874,-84.42224,
LARCENY-NON VEHICLE,162442590,08/31/2016,60 ANDREW YOUNG INTERNA BLVD NE,509,Downtown,M,33.75991,-84.38522,
LARCENY-NON VEHICLE,162440981,08/31/2016,4575 ST ANDREWS DR SW,413,Fairway Acres,P,33.68705,-84.53782,
LARCENY-NON VEHICLE,162441158,08/31/2016,2427 MORELAND AVENUE SE,308,Leila Valley,Z,33.688,-84.35091,
LARCENY-NON VEHICLE,162448022,08/31/2016,6000 N TERMINAL PKWY,706,,,33.64184,-84.4477,
LARCENY-NON VEHICLE,162442978,08/31/2016,1801 HOWELL MILL RD NW,204,Berkeley Park,D,33.80388,-84.41278,
LARCENY-NON VEHICLE,162441338,08/31/2016,8 JOHNSON RD NW,110,Grove Park,J,33.78028,-84.45485,
LARCENY-NON VEHICLE,162441295,08/31/2016,2154 MARTIN L KING JR DR SW,405,Florida Heights,I,33.75093,-84.46006,
AUTO THEFT,162440178,08/31/2016,3 JOSEPH E LOWERY BLVD SW,104,Ashview Heights,T,33.75459,-84.41766,
AUTO THEFT,162440932,08/31/2016,1675 NISKEY LAKE RD SW,412,,P,33.70868,-84.53464,
AUTO THEFT,162440978,08/31/2016,1167 WEDGEWOOD DR NW,113,Carey Park,G,33.787,-84.47552,
AUTO THEFT,162441304,08/31/2016,1925 MONROE DR NE,212,Piedmont Heights,F,33.80856,-84.37506,
AUTO THEFT,162441486,08/31/2016,2748 DONALD LEE HOLLOWELL PKWY NW,112,Collier Heights,I,33.7777,-84.47719,
AUTO THEFT,162442871,08/31/2016,3725 PRINCETON LAKES PKWY SW,414,Princeton Lakes,P,33.65777,-84.50877,
AUTO THEFT,162442625,08/31/2016,880 CHEROKEE AVE,,Grant Park,W,33.73056,-84.37352,
AUTO THEFT,162431895,08/30/2016,1280 CAROLINE ST NE,609,Edgewood,O,33.75957,-84.34602,
AUTO THEFT,162430887,08/30/2016,965 SELLS AVE SW,104,Harris Chiles,T,33.74601,-84.42093,
AUTO THEFT,162431199,08/30/2016,740 COOPER ST SW,303,Mechanicsville,V,33.73473,-84.39699,
AUTO THEFT,162430610,08/30/2016,502 QUILLIAN AVE SE,611,East Lake,O,33.73888,-84.29753,
AUTO THEFT,162433136,08/30/2016,180 UNIVERSITY AVE SW,302,Pittsburgh,V,33.72164,-84.39375,
AUTO THEFT,162431983,08/30/2016,525 GLEN IRIS DR NE,603,Old Fourth Ward,M,33.76819,-84.36763,
AUTO THEFT,162430706,08/30/2016,1800 BOND DR SW,307,Betmar LaVilla,Y,33.70731,-84.40176,
AUTO THEFT,162433050,08/30/2016,823 SKIPPER DR NW,112,Collier Heights,I,33.77764,-84.48985,
AUTO THEFT,162432037,08/30/2016,457 FLAT SHOALS AVE SE,612,East Atlanta,W,33.74143,-84.3469,
AUTO THEFT,162432694,08/30/2016,2456 MARTIN L KING JR DR SW,405,Harland Terrace,I,33.75166,-84.46789,
LARCENY-NON VEHICLE,162432192,08/30/2016,170 CLAY ST SE,610,Kirkwood,O,33.74864,-84.33021,
AUTO THEFT,162431770,08/30/2016,2799 PIEDMONT RD NE,206,Peachtree Park,B,33.83047,-84.36763,
AUTO THEFT,162430993,08/30/2016,556 NORTHSIDE DR SW,303,Pittsburgh,V,33.74043,-84.40806,
LARCENY-NON VEHICLE,162432518,08/30/2016,1285 SHANTER TRL SW,409,Horseshoe Community,I,33.72083,-84.49969,
LARCENY-NON VEHICLE,162432698,08/30/2016,2572 LENOX RD NE,210,Pine Hills,B,33.82517,-84.35295,
LARCENY-NON VEHICLE,162433158,08/30/2016,1950 HOSEA L WILLIAMS DR NE,610,Kirkwood,O,33.75255,-84.32375,
LARCENY-NON VEHICLE,162431648,08/30/2016,780 BELLEMEADE AVE NW,207,Berkeley Park,D,33.80021,-84.41395,
LARCENY-NON VEHICLE,162431181,08/30/2016,3264 VERDANT DR SW,411,Greenbriar,R,33.68397,-84.49505,
LARCENY-NON VEHICLE,162431116,08/30/2016,1150 SPRING ST NW,503,Midtown,E,33.78611,-84.38993,
LARCENY-NON VEHICLE,162432985,08/30/2016,4635 HEATHERWOOD DR SW,412,,Q,33.71548,-84.53846,
LARCENY-NON VEHICLE,162430881,08/30/2016,1337 PEACHTREE ST NE,502,Midtown,E,33.79121,-84.3854,
LARCENY-NON VEHICLE,162432691,08/30/2016,400 W PEACHTREE ST NW,504,Downtown,M,33.76614,-84.3876,
LARCENY-FROM VEHICLE,162431407,08/30/2016,3500 ATLANTA INDUSTRIAL PKWY NW,114,Atlanta Industrial Park,G,33.79664,-84.49672,
LARCENY-NON VEHICLE,162430803,08/30/2016,1150 MURPHY AVE SW,301,Oakland City,S,33.72296,-84.42045,
LARCENY-FROM VEHICLE,162430790,08/30/2016,120 ANDERSON AVE SW,108,,I,33.75104,-84.44598,
LARCENY-FROM VEHICLE,162430855,08/30/2016,826 MARIETTA ST NW,504,Marietta Street Artery,E,33.77477,-84.4067,
LARCENY-FROM VEHICLE,162430649,08/30/2016,500 NORTHSIDE CIR NW,207,Loring Heights,E,33.79724,-84.40668,
LARCENY-FROM VEHICLE,162430652,08/30/2016,I-20 WB EXPY NW / I-285 NB EXPY NW,112,Collier Heights,I,33.76476,-84.49282,
LARCENY-FROM VEHICLE,162430751,08/30/2016,1132 MORNINGSIDE PL NE,213,Morningside/Lenox Park,F,33.80632,-84.35335,
LARCENY-FROM VEHICLE,162432238,08/30/2016,2841 GREENBRIAR PKWY SW @GREENBRIAR MALL,411,Greenbriar,R,33.68677,-84.49773,
LARCENY-FROM VEHICLE,162432372,08/30/2016,50 MOUNT ZION RD SW @BRANDYWINE TOWNHOUS,312,Glenrose Heights,Z,33.66982,-84.38995,
LARCENY-FROM VEHICLE,162433094,08/30/2016,794 N HIGHLAND AVE NE,601,Virginia Highland,F,33.77614,-84.35269,
LARCENY-FROM VEHICLE,162432465,08/30/2016,1816 AVON AVE SW,408,Venetian Hills,S,33.72228,-84.44717,
LARCENY-FROM VEHICLE,162433073,08/30/2016,755 HANK AARON DR SW @TURNER FIELD,304,Summerhill,V,33.73624,-84.389,
LARCENY-FROM VEHICLE,162432567,08/30/2016,2405 FAIRBURN RD SW @BEN HILL PARK,413,,P,33.6889,-84.51291,
LARCENY-FROM VEHICLE,162430722,08/30/2016,475 SEMINOLE AVE NE,602,Inman Park,N,33.7673,-84.34997,
LARCENY-FROM VEHICLE,162430548,08/30/2016,599 WHITEHALL ST SW,303,Pittsburgh,V,33.74277,-84.40756,
LARCENY-FROM VEHICLE,162430812,08/30/2016,33 PEACHTREE PL NW,503,Midtown,E,33.78072,-84.38841,
LARCENY-FROM VEHICLE,162432735,08/30/2016,770 DECKNER AVE SW @PERKERSON PARK,301,Capitol View,X,33.71208,-84.41314,
LARCENY-FROM VEHICLE,162431788,08/30/2016,1280 W PEACHTREE ST NW,502,Midtown,E,33.78938,-84.38789,
LARCENY-FROM VEHICLE,162432892,08/30/2016,604 RANKIN ST NE,603,Old Fourth Ward,M,33.76729,-84.3665,
LARCENY-FROM VEHICLE,162433036,08/30/2016,1500 MCLENDON AVE NE @CANDLER PARK,608,Candler Park,N,33.76879,-84.33785,
LARCENY-FROM VEHICLE,162432937,08/30/2016,695 NORTH AVE NE @MASQUERADE CLUB,603,Old Fourth Ward,M,33.77073,-84.3645,
LARCENY-FROM VEHICLE,162432646,08/30/2016,1000 BECKWITH ST SW,104,Ashview Heights,T,33.75229,-84.4204,
LARCENY-FROM VEHICLE,162432588,08/30/2016,576 LEE ST SW,401,West End,T,33.73921,-84.41367,
LARCENY-FROM VEHICLE,162432470,08/30/2016,112 COURTLAND ST NE,510,Downtown,M,33.75756,-84.38434,
LARCENY-FROM VEHICLE,162431675,08/30/2016,24 DANIEL ST SE,604,Old Fourth Ward,M,33.75368,-84.3707,
LARCENY-FROM VEHICLE,162431098,08/30/2016,314 LUCKIE ST NW,508,Downtown,M,33.76296,-84.39669,
LARCENY-FROM VEHICLE,162431478,08/30/2016,46 SIMPSON ST,508,Downtown,M,33.76322,-84.38922,
LARCENY-FROM VEHICLE,162431508,08/30/2016,458 WOODWARD AVE SE,605,Grant Park,W,33.74562,-84.37266,
LARCENY-FROM VEHICLE,162431275,08/30/2016,295 PICKFAIR WAY SW,307,Lakewood Heights,Y,33.7048,-84.39983,
LARCENY-NON VEHICLE,162431720,08/30/2016,1190 MEMORIAL DR SE,609,Edgewood,O,33.74788,-84.34859,
LARCENY-NON VEHICLE,162432884,08/30/2016,835 MARTIN LUTHER KING BLVD NW,102,Vine City,L,33.75504,-84.41457,
LARCENY-NON VEHICLE,162431998,08/30/2016,1275 CAROLINE ST NE @TARGET - CAROLINE,609,Edgewood,O,33.75674,-84.34619,
LARCENY-NON VEHICLE,162430872,08/30/2016,2539 PIEDMONT RD NE ,211,Lindbergh/Morosgo,B,33.82403,-84.36328,
LARCENY-NON VEHICLE,162431465,08/30/2016,4285 ROSWELL RD NE,209,North Buckhead,B,33.87157,-84.38094,
LARCENY-NON VEHICLE,162431828,08/30/2016,3330 PIEDMONT RD NE @Multiple,208,Buckhead Forest,B,33.84564,-84.37462,
LARCENY-NON VEHICLE,162432406,08/30/2016,2625 PIEDMONT RD NE,211,Lindbergh/Morosgo,B,33.82742,-84.36532,
BURGLARY-RESIDENCE,162430106,08/30/2016,2338 BOLTON RD NW,203,Bolton,D,33.81982,-84.46124,
LARCENY-NON VEHICLE,162432291,08/30/2016,3599 MARTIN L KING JR DR NW,111,Adamsville,H,33.75933,-84.50433,
LARCENY-NON VEHICLE,162432861,08/30/2016,2479 ABNER TER NW @FLIPPER TEMPLE,110,Scotts Crossing,G,33.80106,-84.46803,
LARCENY-NON VEHICLE,162430045,08/30/2016,1388 JOSEPH E BOONE BLVD NW,105,Hunter Hills,K,33.7633,-84.43337,
BURGLARY-RESIDENCE,162430063,08/30/2016,1209 DRUID PL NE,608,Candler Park,N,33.76873,-84.34783,
BURGLARY-RESIDENCE,162432610,08/30/2016,112 COURTLAND ST NE,510,Downtown,M,33.75756,-84.38434,
BURGLARY-RESIDENCE,162431735,08/30/2016,1616 BOULEVARD LORRAINE SW,409,Adams Park,R,33.7119,-84.46095,
BURGLARY-RESIDENCE,162430659,08/30/2016,866 EUCLID AVE NE,602,Inman Park,N,33.75687,-84.35881,
BURGLARY-NONRES,162430516,08/30/2016,769 LONGLEAF DR NE,208,North Buckhead,B,33.85449,-84.36258,
BURGLARY-NONRES,162430770,08/30/2016,3214 ROSWELL RD NW,206,South Tuxedo Park,B,33.84267,-84.37907,
BURGLARY-NONRES,162430968,08/30/2016,470 WHITEHALL ST SW,507,Castleberry Hill,M,33.74383,-84.4029,
BURGLARY-NONRES,162432013,08/30/2016,678 JOSEPH E BOONE BLVD NW,102,Vine City,L,33.76324,-84.40972,
BURGLARY-RESIDENCE,162432792,08/30/2016,1751 S GORDON ST SW,404,Westview,T,33.73984,-84.44518,
BURGLARY-RESIDENCE,162431426,08/30/2016,1135 MARTIN L KING JR DR NW,105,Washington Park,K,33.75402,-84.42516,
BURGLARY-RESIDENCE,162431650,08/30/2016,745 FAIRBURN RD NW,114,Fairburn Heights,H,33.7759,-84.49979,
BURGLARY-RESIDENCE,162431103,08/30/2016,769 LAWTON ST SW,402,West End,T,33.73395,-84.42363,
AGG ASSAULT,162432727,08/30/2016,774 MCDONOUGH BLVD SE,607,Benteen Park,W,33.71088,-84.3616,
AGG ASSAULT,162430061,08/30/2016,2657 LENOX RD NE,210,Pine Hills,B,33.82662,-84.35358,
AGG ASSAULT,162431404,08/30/2016,1925 CAMPBELLTON RD SW,408,Venetian Hills,S,33.70886,-84.4521,
AGG ASSAULT,162432374,08/30/2016,62 HARWELL RD NW,111,,I,33.7538,-84.493,
AGG ASSAULT,162430121,08/30/2016,540 NORFOLK ST NW,106,Bankhead,K,33.76947,-84.41885,
AGG ASSAULT,162430745,08/30/2016,1341 MONTREAT AVE SW,402,Oakland City,S,33.72949,-84.43152,
AGG ASSAULT,162432851,08/30/2016,411 PARKWAY DR NE,603,Old Fourth Ward,M,33.76559,-84.37304,
AGG ASSAULT,162432411,08/30/2016,1634 LAKEWOOD AVE SE,307,Lakewood Heights,Y,33.70965,-84.37962,
AGG ASSAULT,162431865,08/30/2016,I285 SB / 166 W,412,Meadowbrook Forest,P,33.69019,-84.50624,
AGG ASSAULT,162430159,08/30/2016,3086 MIDDLETON RD NW,111,,I,33.7523,-84.4902,
AGG ASSAULT,162430265,08/30/2016,2517 DONALD LEE HOLLOWELL PKWY NW,109,Center Hill,J,33.77605,-84.46824,
ROBBERY-PEDESTRIAN,162431688,08/30/2016,1250 MECASLIN ST NW,501,Home Park,E,33.78846,-84.39991,
ROBBERY-PEDESTRIAN,162431348,08/30/2016,1270 CAROLINE ST NE,609,Edgewood,O,33.75849,-84.34649,
ROBBERY-PEDESTRIAN,162432653,08/30/2016,241 PEACHTREE ST NE,509,Downtown,M,33.76073,-84.38745,
ROBBERY-RESIDENCE,162433211,08/30/2016,2980 JONESBORO RD SE,313,South River Gardens,Z,33.67339,-84.37144,
ROBBERY-PEDESTRIAN,162432911,08/30/2016,4472 CAMPBELLTON RD SW,413,Ben Hill,P,33.6632,-84.52404,
ROBBERY-PEDESTRIAN,162432606,08/30/2016,3144 MARTIN L KING JR DR SW,406,,I,33.74995,-84.4899,
ROBBERY-PEDESTRIAN,162430227,08/30/2016,I-75 SB EXPY / I-20 WB EXPY,512,Downtown,M,33.74516,-84.39011,
ROBBERY-PEDESTRIAN,162430451,08/30/2016,360 CANDLER ST NE,608,Candler Park,N,33.76417,-84.34583,
ROBBERY-PEDESTRIAN,162421334,08/29/2016,300 TWIN TENDRILS SW,412,Midwest Cascade,Q,33.73058,-84.5342,
ROBBERY-PEDESTRIAN,162420265,08/29/2016,3350 MOUNT GILEAD RD SW,409,Southwest,R,33.6982,-84.49859,
ROBBERY-PEDESTRIAN,162422120,08/29/2016,2909 CAMPBELLTON RD SW,409,Southwest,R,33.69872,-84.48418,
ROBBERY-PEDESTRIAN,162332220,08/29/2016,2909 CAMPBELLTON RD SW @CASCADE PINES APTS,409,Southwest,R,33.69872,-84.48418,
HOMICIDE,162412206,08/29/2016,2020 PHILLIPS DR SE,308,Thomasville Heights,Z,33.69868,-84.35356,
ROBBERY-COMMERCIAL,162420796,08/29/2016,2100 METROPOLITAN PKWY SW;,306,Sylvan Hills,X,33.697,-84.40768,
ROBBERY-PEDESTRIAN,162421590,08/29/2016,1240 W PEACHTREE ST NE,502,Midtown,E,33.78881,-84.38779,
AGG ASSAULT,162411570,08/29/2016,2260 FAIRBURN RD SW,412,Ben Hill Acres,P,33.69265,-84.51049,
AGG ASSAULT,162411445,08/29/2016,3144 MARTIN LUTHER KING JR DR SW,406,,I,33.75108,-84.48898,
AGG ASSAULT,162422188,08/29/2016,37 WHITEFOORD DR NE,609,Edgewood,O,33.75446,-84.34174,
AGG ASSAULT,162422027,08/29/2016,2078 DETROIT AVE NW,107,Grove Park,J,33.76695,-84.45561,
AGG ASSAULT,162421820,08/29/2016,401 YONKERS AVE,107,Grove Park,J,33.76636,-84.45523,
AGG ASSAULT,162422654,08/29/2016,2288 BAKER RD NW,109,Center Hill,J,33.76969,-84.46283,
AGG ASSAULT,162421671,08/29/2016,711 LEE ST SW ,401,West End,T,33.73584,-84.4141,
AGG ASSAULT,162420296,08/29/2016,1098 ADA AVE NW,109,Almond Park,G,33.78371,-84.46327,
AGG ASSAULT,162420603,08/29/2016,526 PONCE DE LEON AVE NE,506,Midtown,E,33.77432,-84.36959,
BURGLARY-RESIDENCE,162421654,08/29/2016,772 BENDER ST SW;,302,Pittsburgh,V,33.73376,-84.40626,
BURGLARY-RESIDENCE,162421600,08/29/2016,79 MOURY AVE SE,305,South Atlanta,Y,33.71297,-84.38667,
BURGLARY-RESIDENCE,162422736,08/29/2016,720 LEGACY PL SW,412,Midwest Cascade,Q,33.72324,-84.52459,
BURGLARY-RESIDENCE,162420062,08/29/2016,732 CRESTWELL CIR SW,407,Mays,H,33.74501,-84.50382,
BURGLARY-RESIDENCE,162421010,08/29/2016,500 NORTHSIDE CIR NW,207,Loring Heights,E,33.79724,-84.40668,
BURGLARY-RESIDENCE,162421022,08/29/2016,2117 BOLTON RD NW,203,Riverside,D,33.8131,-84.46975,
BURGLARY-RESIDENCE,162422447,08/29/2016,580 W END PL SW,401,West End,T,33.7393,-84.42459,
BURGLARY-RESIDENCE,162422245,08/29/2016,741 MOROSGO DR NE,211,Lindbergh/Morosgo,B,33.82296,-84.36346,
BURGLARY-RESIDENCE,162421230,08/29/2016,639 UTOY CIR SW,407,Ridgecrest Forest,H,33.74406,-84.52386,
BURGLARY-NONRES,162420387,08/29/2016,4472 CAMPBELLTON RD SW,413,Elmco Estates,P,33.69572,-84.53464,
BURGLARY-NONRES,162422605,08/29/2016,1550 RALPH D ABERNATHY BLVD SW,404,Westview,T,33.7437,-84.43859,
BURGLARY-RESIDENCE,162421978,08/29/2016,2586 COUNTY LINE RD SW,413,Wildwood Forest,P,33.68474,-84.5358,
LARCENY-NON VEHICLE,162422103,08/29/2016,1105 RESEARCH CENTER ATL DR SW,406,,,33.72835,-84.5079,
LARCENY-NON VEHICLE,162421112,08/29/2016,2525 PIEDMONT RD NE @HOME DEPOT,211,Lindbergh/Morosgo,B,33.824,-84.36521,
LARCENY-NON VEHICLE,162421440,08/29/2016,1990 DONALD LEE HOLLOWELL PKWY NW,107,Grove Park,J,33.77617,-84.44968,
LARCENY-NON VEHICLE,162421560,08/29/2016,37 W PACES FERRY RD NW,206,South Tuxedo Park,B,33.84033,-84.3808,
LARCENY-NON VEHICLE,162421701,08/29/2016,1275 CAROLINE ST NE @TARGET - CAROLINE,609,Edgewood,O,33.75674,-84.34619,
LARCENY-NON VEHICLE,162421763,08/29/2016,2779 LAKEWOOD AVE SW,306,Sylvan Hills,X,33.69729,-84.40943,
LARCENY-NON VEHICLE,162421988,08/29/2016,1801 HOWELL MILL RD NW      ,204,Berkeley Park,D,33.80388,-84.41278,
LARCENY-NON VEHICLE,162422077,08/29/2016,850 OAK ST,401,West End,T,33.74057,-84.4168,
LARCENY-FROM VEHICLE,162421958,08/29/2016,2798 PEEK RD NW,112,Collier Heights,I,33.77743,-84.47815,
LARCENY-FROM VEHICLE,162420955,08/29/2016,1947 BADER AVE SW;,306,Sylvan Hills,X,33.70144,-84.41453,
LARCENY-FROM VEHICLE,162422785,08/29/2016,2900 LANDRUM DR SW,409,Southwest,R,33.70623,-84.48372,
LARCENY-FROM VEHICLE,162421198,08/29/2016,687 CRESTHILL AVE NE,601,Virginia Highland,F,33.78338,-84.3649,
LARCENY-NON VEHICLE,162420915,08/29/2016,400 W PEACHTREE ST NW,504,Downtown,M,33.76614,-84.3876,
LARCENY-NON VEHICLE,162331958,08/29/2016,3393 PEACHTREE RD NE,210,Lenox,B,33.84676,-84.36212,
LARCENY-NON VEHICLE,162421045,08/29/2016,2115 PIEDMONT RD NE @SQUIRE INN MOTEL NE,212,Morningside/Lenox Park,F,33.81235,-84.36578,
LARCENY-NON VEHICLE,162421101,08/29/2016,260 18TH ST NW,501,Atlantic Station,E,33.79215,-84.39682,
LARCENY-NON VEHICLE,162421013,08/29/2016,25 PEACHTREE ST SE,510,Downtown,M,33.75445,-84.38954,
LARCENY-NON VEHICLE,162421714,08/29/2016,1107 COLBY CT SE,612,East Atlanta,W,33.72875,-84.32885,
LARCENY-NON VEHICLE,162422451,08/29/2016,55 MAPLE ST NW,102,Vine City,L,33.75569,-84.40528,
LARCENY-NON VEHICLE,162421021,08/29/2016,920 NISKEY LAKE CIR SW ,412,Midwest Cascade,Q,33.72902,-84.53332,
LARCENY-NON VEHICLE,162422071,08/29/2016,2065 DEFOORS FERRY RD NW,204,,C,33.81172,-84.4257,
LARCENY-NON VEHICLE,162422691,08/29/2016,3260 DONALD LEE HOLLOWELL PKWY NW,114,Bankhead/Bolton,H,33.78735,-84.49452,
LARCENY-NON VEHICLE,162428062,08/29/2016,6000 S TERMINAL PKWY,704,,,33.63751,-84.44824,
LARCENY-NON VEHICLE,162421100,08/29/2016,1579 MORELAND AVE SE,607,Custer/McDonough/Guice,W,33.7114,-84.34963,
LARCENY-NON VEHICLE,162421330,08/29/2016,1885 JONESBORO RD SE,307,Lakewood Heights,Y,33.7032,-84.37701,
LARCENY-NON VEHICLE,162421527,08/29/2016,2625 PIEDMONT RD NE,211,Lindbergh/Morosgo,B,33.82678,-84.36699,
LARCENY-NON VEHICLE,162420389,08/29/2016,485 FLAT SHOALS AVE SE,612,East Atlanta,W,33.74097,-84.34645,
LARCENY-NON VEHICLE,162428040,08/29/2016,6000 S TERMINAL PKWY,704,,,33.63751,-84.44824,
LARCENY-FROM VEHICLE,162421313,08/29/2016,816 GERTRUDE PL NW,110,Grove Park,J,33.77709,-84.44443,
LARCENY-FROM VEHICLE,162421204,08/29/2016,3030 HUMPHRIES DR SE,312,Orchard Knob,Z,33.67322,-84.37603,
LARCENY-FROM VEHICLE,162421186,08/29/2016,1053 CASCADE CIR SW @JOHN A WHITE GOLF CO,403,Cascade Avenue/Road,S,33.72606,-84.44956,
LARCENY-FROM VEHICLE,162420645,08/29/2016,1455 ELLSWORTH INDUSTRIAL BLVD,203,Blandtown,D,33.79579,-84.42575,
LARCENY-FROM VEHICLE,162421413,08/29/2016,146 PEACHTREE CIR NE ,502,Ansley Park,E,33.7937,-84.38422,
LARCENY-FROM VEHICLE,162421200,08/29/2016,2716 MARTIN L KING JR DR SW,405,Harland Terrace,I,33.75395,-84.47612,
LARCENY-FROM VEHICLE,162421386,08/29/2016,294 PINE TREE DR NE,206,Garden Hills,B,33.82982,-84.37769,
LARCENY-FROM VEHICLE,162421331,08/29/2016,1616 HUBER ST NW,203,Blandtown,D,33.79894,-84.42516,
LARCENY-FROM VEHICLE,162420874,08/29/2016,410 14TH STNW,506,,,33.72835,-84.5079,
LARCENY-FROM VEHICLE,162420872,08/29/2016,116 PONCE DE LEON AVE NE,505,Midtown,E,33.77248,-84.38382,
LARCENY-FROM VEHICLE,162420692,08/29/2016,1092 HUFF RD NW,203,Blandtown,D,33.7891,-84.42417,
LARCENY-FROM VEHICLE,162420993,08/29/2016,194 ROCKY FORD RD NE,610,Kirkwood,O,33.75792,-84.319,
LARCENY-FROM VEHICLE,162421417,08/29/2016,116 PONCE DE LEON AVE,505,Midtown,E,33.77248,-84.38382,
LARCENY-FROM VEHICLE,162420910,08/29/2016,1707 WILDWOOD RD,213,Morningside/Lenox Park,F,33.80127,-84.34901,
LARCENY-FROM VEHICLE,162422291,08/29/2016,130 LAWSHE ST SW,101,Atlanta University Center,T,33.75126,-84.41132,
LARCENY-FROM VEHICLE,162422585,08/29/2016,685 11TH ST NW,501,Home Park,E,33.78332,-84.40974,
LARCENY-FROM VEHICLE,162422412,08/29/2016,650 HAMILTON AVE SE,607,Boulevard Heights,W,33.72622,-84.3667,
LARCENY-FROM VEHICLE,162422402,08/29/2016,361 10TH ST NE,503,Midtown,E,33.78168,-84.37555,
LARCENY-FROM VEHICLE,162422032,08/29/2016,3030 HEADLAND DR SW,411,Greenbriar,R,33.68841,-84.48742,
LARCENY-FROM VEHICLE,162422211,08/29/2016,177 LAWTON ST,104,Ashview Heights,T,33.74986,-84.42348,
LARCENY-FROM VEHICLE,162422164,08/29/2016,1500 SOUTHLAND CIR NW,203,Hills Park,D,33.79914,-84.43234,
LARCENY-FROM VEHICLE,162422645,08/29/2016,3111 HICKMAN DR NW,111,,I,33.75456,-84.4888,
LARCENY-FROM VEHICLE,162422667,08/29/2016,1450 RALPH D ABERNATHY BLVD SW,404,Westview,T,33.74116,-84.43595,
LARCENY-FROM VEHICLE,162421497,08/29/2016,360 MARIETTA ST NW,507,Downtown,M,33.76269,-84.39702,
LARCENY-FROM VEHICLE,162421482,08/29/2016,3861 ROSWELL RD NE,209,North Buckhead,B,33.8596,-84.37979,
LARCENY-FROM VEHICLE,162421615,08/29/2016,270 ELMIRA PL NE,608,Candler Park,N,33.76163,-84.34723,
LARCENY-FROM VEHICLE,162421525,08/29/2016,3074 CASCADE RD SW,409,Cascade Heights,I,33.71906,-84.48818,
LARCENY-FROM VEHICLE,162421866,08/29/2016,2143 MARTIN L KING JR DR NW,108,Florida Heights,I,33.75113,-84.45894,
LARCENY-FROM VEHICLE,162421629,08/29/2016,704 COOPER ST SW,303,Mechanicsville,V,33.7369,-84.39706,
LARCENY-FROM VEHICLE,162421766,08/29/2016,132 E LAKE TER SE,611,Kirkwood,O,33.74892,-84.31376,
LARCENY-FROM VEHICLE,162420587,08/29/2016,525 GLEN IRIS DR NE,603,Old Fourth Ward,M,33.76819,-84.36763,
LARCENY-FROM VEHICLE,162420117,08/29/2016,36 DANIEL ST SE,604,Old Fourth Ward,M,33.75339,-84.3708,
LARCENY-FROM VEHICLE,162420605,08/29/2016,3334 COLLIER CT,114,Fairburn Heights,H,33.76753,-84.49673,
AUTO THEFT,162420624,08/29/2016,291 FIELDING LN SW,406,Peyton Forest,I,33.74758,-84.48333,
AUTO THEFT,162420996,08/29/2016,435 JOSEPH E LOWERY BLVD SW,104,Harris Chiles,T,33.74279,-84.41771,
AUTO THEFT,162420778,08/29/2016,116 PONCE DE LEON AVE NE ,505,Midtown,E,33.77248,-84.38382,
AUTO THEFT,162421804,08/29/2016,2798 PEEK RD NW,112,Collier Heights,I,33.77743,-84.47815,
AUTO THEFT,162421649,08/29/2016,101 HAMILTON E HOLMES DR NW,108,Westhaven,I,33.75558,-84.46807,
AUTO THEFT,162421573,08/29/2016,2261 CASCADE RD SW,406,Cascade Avenue/Road,S,33.72274,-84.46264,
AUTO THEFT,162422587,08/29/2016,480 JOHN WESLEY DOBBS AVE NE,604,Old Fourth Ward,M,33.75942,-84.37151,
AUTO THEFT,162420601,08/29/2016,183 MOUNT ZION RD SE,312,Glenrose Heights,Z,33.67268,-84.38507,
AUTO THEFT,162422021,08/29/2016,448 BOULEVARD SE,605,Grant Park,W,33.74203,-84.36756,
AUTO THEFT,162412105,08/28/2016,2975 HEADLAND DRIVE SW,411,Greenbriar,R,33.68845,-84.49328,
AUTO THEFT,162410955,08/28/2016,4431 ROLLING HILL RD SW,413,Elmco Estates,P,33.6884,-84.53281,
AUTO THEFT,162410830,08/28/2016,67 JOHNSON RD NW,110,Grove Park,J,33.78348,-84.45327,
AUTO THEFT,162410855,08/28/2016,3883 BRANCH DR SW ,407,Baker Hills,H,33.76165,-84.52285,
AUTO THEFT,162411835,08/28/2016,1086 WYLIE ST SE,606,Reynoldstown,N,33.75262,-84.35155,
AUTO THEFT,162411326,08/28/2016,447 TARRAGON WAY SW,407,Wilson Mill Meadows,H,33.75044,-84.51735,
AUTO THEFT,162410960,08/28/2016,445 CLEVELAND AVE SE,312,Rosedale Heights,Z,33.68149,-84.37152,
AUTO THEFT,162411014,08/28/2016,2020 BOLTON RD NW,203,Riverside,D,33.81125,-84.47594,
AUTO THEFT,162412013,08/28/2016,224 RACINE ST SW,104,Mozley Park,K,33.74909,-84.44107,
AUTO THEFT,162411670,08/28/2016,1451 CENTRA VILLA DR SW,409,Adams Park,R,33.71576,-84.4536,
AUTO THEFT,162410214,08/28/2016,101 HAMILTON E HOLMES DR NW,108,Westhaven,I,33.75558,-84.46807,
AUTO THEFT,162410823,08/28/2016,4087 CORNELL BLVD SW,407,Baker Hills,H,33.76009,-84.52125,
AUTO THEFT,162412474,08/28/2016,1122 CAMPBELLTON RD SW,403,Oakland City,S,33.71811,-84.42526,
LARCENY-FROM VEHICLE,162411742,08/28/2016,706 PENN AVE NE,505,Midtown,E,33.7739,-84.37921,
LARCENY-FROM VEHICLE,162411572,08/28/2016,190 MARIETTA ST,507,Downtown,M,33.75601,-84.39736,
LARCENY-FROM VEHICLE,162411581,08/28/2016,2055 VERBENA ST NW,108,Penelope Neighbors,J,33.75428,-84.45354,
LARCENY-FROM VEHICLE,162412321,08/28/2016,695 NORTH AVE NE @MASQUERADE CLUB,603,Old Fourth Ward,M,33.77073,-84.3645,
LARCENY-FROM VEHICLE,162412081,08/28/2016,2020 PEACHTREE RD NW @SHEPHERD CENTER,207,,E,33.80991,-84.39361,
LARCENY-FROM VEHICLE,162412327,08/28/2016,3201 MARTIN L KING JR DR NW @GORDON VALLEY APTS,111,,I,33.75428,-84.49165,
LARCENY-FROM VEHICLE,162410557,08/28/2016,2331 BOLTON RD NW,203,Bolton,D,33.81909,-84.46179,
LARCENY-FROM VEHICLE,162410582,08/28/2016,450 14TH ST,501,Home Park,E,33.78596,-84.40217,
LARCENY-FROM VEHICLE,162412484,08/28/2016,1801 HOWELL MILL RD NW,204,Berkeley Park,D,33.80388,-84.41278,
LARCENY-FROM VEHICLE,162412476,08/28/2016,2591 ETHERIDGE DR NW,113,Carey Park,G,33.7881,-84.47292,
LARCENY-FROM VEHICLE,162412395,08/28/2016,470 CANDLER PARK DR NE,608,Candler Park,N,33.76698,-84.33965,
LARCENY-FROM VEHICLE,162411173,08/28/2016,1029 JOSEPH E BOONE BLVD NW,106,Bankhead,K,33.7637,-84.42125,
LARCENY-FROM VEHICLE,162411116,08/28/2016,565 WELLS ST SW,303,Mechanicsville,V,33.74005,-84.40649,
LARCENY-FROM VEHICLE,162411123,08/28/2016,431 TRABERT AVE NW,207,Loring Heights,E,33.79486,-84.40174,
LARCENY-FROM VEHICLE,162410980,08/28/2016,1012 WILLIAMS MILL RD NE,602,Poncey-Highland,N,33.76981,-84.35441,
LARCENY-FROM VEHICLE,162411120,08/28/2016,664 SEMINOLE AVE NE,602,Poncey-Highland,N,33.77258,-84.35105,
LARCENY-FROM VEHICLE,162411471,08/28/2016,1133 HUFF RD NW,203,Blandtown,D,33.78978,-84.42557,
LARCENY-FROM VEHICLE,162411448,08/28/2016,1225 WESTRIDGE RD SW,408,Venetian Hills,S,33.7218,-84.44716,
LARCENY-FROM VEHICLE,162411439,08/28/2016,349 DECATUR ST SE,604,Sweet Auburn,M,33.74993,-84.37706,
LARCENY-FROM VEHICLE,162410319,08/28/2016,808 MCDONOUGH BLVD SE,607,Benteen Park,W,33.70951,-84.3601,
LARCENY-FROM VEHICLE,162411459,08/28/2016,880 GLENWOOD AVE SE,606,Grant Park,W,33.74058,-84.35903,
LARCENY-FROM VEHICLE,162411227,08/28/2016,2325 BOLTON RD,201,,C,33.82065,-84.45274,
LARCENY-FROM VEHICLE,162411290,08/28/2016,977 PONCE DE LEON AVE NE,602,Poncey-Highland,N,33.77347,-84.35551,
LARCENY-FROM VEHICLE,162410300,08/28/2016,174 HAYGOOD AVE SE,304,Peoplestown,V,33.72654,-84.38229,
LARCENY-FROM VEHICLE,162410852,08/28/2016,665 TARRAGON WAY SW,407,Wilson Mill Meadows,H,33.7503,-84.52394,
LARCENY-FROM VEHICLE,162410309,08/28/2016,577 MARTINA DR NE,211,Peachtree Park,B,33.84219,-84.36898,
LARCENY-NON VEHICLE,162411406,08/28/2016,991 NATHAM DR SE,308,Rebel Valley Forest,Z,33.68896,-84.35751,
LARCENY-NON VEHICLE,162411087,08/28/2016,427 EDGEWOOD AVE SE,604,Sweet Auburn,M,33.75423,-84.37358,
LARCENY-NON VEHICLE,162410774,08/28/2016,17 HOWELL MILL PLANTATION,201,,C,33.83994,-84.42472,
LARCENY-NON VEHICLE,162410992,08/28/2016,3535 PINE FOREST DR SE,313,South River Gardens,Z,33.65793,-84.3544,
LARCENY-NON VEHICLE,162410659,08/28/2016,260 18TH ST ,501,Atlantic Station,E,33.79282,-84.39779,
LARCENY-NON VEHICLE,162410429,08/28/2016,80 JESSE HILL JR DR SE @GRADY,510,Downtown,M,33.75168,-84.38198,
LARCENY-NON VEHICLE,162402514,08/28/2016,3481 LAKESIDE DR NE,210,Buckhead Heights,B,33.84899,-84.3574,
LARCENY-NON VEHICLE,162412497,08/28/2016,804 PIEDMONT AVE NE,505,Midtown,E,33.77659,-84.38149,
LARCENY-FROM VEHICLE,162411490,08/28/2016,1252 PORTLAND AVE SE,612,East Atlanta,W,33.73925,-84.34652,
LARCENY-FROM VEHICLE,162411013,08/28/2016,2441 CHESHIRE BRIDGE RD NE,212,Lindridge/Martin Manor,F,33.82135,-84.35055,
LARCENY-FROM VEHICLE,162412492,08/28/2016,1392 MCPHERSON AVE SE,612,East Atlanta,W,33.74451,-84.34215,
LARCENY-NON VEHICLE,162411462,08/28/2016,835 MARTIN L KING JR DR NW,102,Vine City,L,33.75504,-84.41457,
LARCENY-NON VEHICLE,162411674,08/28/2016,208 HARALSON AVE NE,602,Inman Park,N,33.75957,-84.3506,
BURGLARY-RESIDENCE,162410241,08/28/2016,3000 CONTINENTAL COLONY PKWY SW,411,Greenbriar,R,33.68077,-84.4937,
BURGLARY-NONRES,162411457,08/28/2016,390 17TH ST NW,501,Atlantic Station,E,33.7902,-84.4003,
BURGLARY-RESIDENCE,162411480,08/28/2016,1940 DETROIT AVE NW,107,Grove Park,J,33.76675,-84.45042,
BURGLARY-NONRES,162410457,08/28/2016,2636 MARTIN L KING JR DR SW,405,Harland Terrace,I,33.75379,-84.47417,
BURGLARY-RESIDENCE,162411323,08/28/2016,2830 TUPELO ST SE,611,East Lake,O,33.7492,-84.29439,
BURGLARY-RESIDENCE,162411536,08/28/2016,492 RANKIN ST NE,603,Old Fourth Ward,M,33.76744,-84.37104,
BURGLARY-NONRES,162411376,08/28/2016,678 JOSEPH E BOONE BLVD NW,102,Vine City,L,33.76324,-84.40972,
BURGLARY-NONRES,162411517,08/28/2016,290 14TH ST NW,501,Home Park,E,33.78616,-84.3966,
BURGLARY-NONRES,162411193,08/28/2016,2200 CAMPBELLTON RD SW,410,Campbellton Road,R,33.70504,-84.46063,
BURGLARY-NONRES,162411095,08/28/2016,2115 MONROE DR NE,212,Piedmont Heights,F,33.81007,-84.3713,
BURGLARY-RESIDENCE,162412414,08/28/2016,235 BARFIELD AVE SW,405,Florida Heights,I,33.74945,-84.46208,
BURGLARY-RESIDENCE,162411453,08/28/2016,214 COLONIAL HOMES DR NW,205,Colonial Homes,C,33.81392,-84.39454,
BURGLARY-RESIDENCE,162411141,08/28/2016,1070 OLLIE CIR NW,105,Washington Park,K,33.76009,-84.42285,
AGG ASSAULT,162411411,08/28/2016,330 BROWNLEE RD SW,406,,I,33.74716,-84.49741,
AGG ASSAULT,162410159,08/28/2016,213 FAIRBURN RD NW,111,Adamsville,H,33.76136,-84.50424,
AGG ASSAULT,162412431,08/28/2016,2959 FORREST HILLS DR SW,311,Hammond Park,X,33.67403,-84.3995,
AGG ASSAULT,162411247,08/28/2016,1069 VALLEY VIEW RD SE,308,Leila Valley,Z,33.69137,-84.35303,
AGG ASSAULT,162411299,08/28/2016,581 MARTIN ST SE;,304,Summerhill,V,33.73884,-84.38428,
AGG ASSAULT,162412525,08/28/2016,1000 NEW TOWN CIR SE,308,Thomasville Heights,Z,33.70764,-84.36005,
ROBBERY-RESIDENCE,162410422,08/28/2016,875 HANK AARON DR SW,304,Peoplestown,V,33.73065,-84.38805,
AGG ASSAULT,162411446,08/28/2016,565 TERRY ST SE,304,Summerhill,V,33.73922,-84.38505,
ROBBERY-PEDESTRIAN,162410249,08/28/2016,880 OGLETHORPE AVE SW,401,West End,T,33.73574,-84.41684,
ROBBERY-PEDESTRIAN,162412358,08/28/2016,1040 MARTIN ST SE,305,Peoplestown,V,33.72569,-84.38305,
ROBBERY-PEDESTRIAN,162410419,08/28/2016,1195 WOODLAND AVE NE,213,Lindridge/Martin Manor,F,33.81476,-84.34905,
ROBBERY-PEDESTRIAN,162410061,08/28/2016,85 MOUNT ZION RD SW,312,Glenrose Heights,Z,33.67291,-84.39153,
ROBBERY-PEDESTRIAN,162400073,08/27/2016,329 14TH ST NW,501,Home Park,E,33.78635,-84.39797,
ROBBERY-PEDESTRIAN,162400544,08/27/2016,760 HOLMES ST NW,207,Berkeley Park,D,33.79944,-84.4137,
ROBBERY-PEDESTRIAN,162402414,08/27/2016,702 JOSEPH E LOWRY BLVD,401,,,33.37356,-50.44176,
ROBBERY-PEDESTRIAN,162400519,08/27/2016,1008 BRADY AVE NW,501,Home Park,E,33.78251,-84.41436,
ROBBERY-PEDESTRIAN,162400419,08/27/2016,1375 NORTHSIDE DR NW @SKYLINE MOTEL,207,Loring Heights,E,33.79209,-84.40677,
ROBBERY-PEDESTRIAN,162400324,08/27/2016,445 MARKHAM ST SW,507,Castleberry Hill,M,33.75262,-84.4012,
ROBBERY-PEDESTRIAN,162400316,08/27/2016,3335 MARTIN L KING JR DR NW,111,Adamsville,H,33.7551,-84.49652,
ROBBERY-PEDESTRIAN,162402411,08/27/2016,1559 JOHNSON RD NW,110,Rockdale,G,33.78839,-84.43786,
ROBBERY-PEDESTRIAN,162402408,08/27/2016,373 LEGACY DR SW,104,Harris Chiles,T,33.74387,-84.41937,
ROBBERY-RESIDENCE,162402820,08/27/2016,3660 RAMSEY CLOSE SW,414,Princeton Lakes,P,33.66413,-84.51241,
ROBBERY-RESIDENCE,162402345,08/27/2016,1371 KIMBERLY WAY SW,412,Ashley Courts,P,33.71771,-84.52315,
ROBBERY-PEDESTRIAN,162400183,08/27/2016,1888 CHESHIRE BRIDGE RD NE,212,Morningside/Lenox Park,F,33.81038,-84.36122,
ROBBERY-PEDESTRIAN,162401063,08/27/2016,2685 METROPOLITAN PKWY SW,309,Perkerson,X,33.68274,-84.40902,
ROBBERY-COMMERCIAL,162400202,08/27/2016,1959 LAKEWOOD AVE SE,307,Lakewood Heights,Y,33.70262,-84.38491,
ROBBERY-PEDESTRIAN,162401374,08/27/2016,2916 5TH ST SW,311,Hammond Park,X,33.67532,-84.40132,
ROBBERY-PEDESTRIAN,162402663,08/27/2016,274 ANDREW J HAIRSTON PL NW,102,Vine City,L,33.76216,-84.41409,
AGG ASSAULT,162400392,08/27/2016,445 CLEVELAND AVE SE,312,Rosedale Heights,Z,33.68149,-84.37152,
AGG ASSAULT,162400124,08/27/2016,600 PHIPPS BLVD NE,209,North Buckhead,B,33.85348,-84.3653,
AGG ASSAULT,162400944,08/27/2016,310 TWIN TENDRILS SW,412,Midwest Cascade,Q,33.7305,-84.53444,
AGG ASSAULT,162401420,08/27/2016,570 WINDSOR ST SW,303,Mechanicsville,V,33.73914,-84.3982,
AGG ASSAULT,162402483,08/27/2016,350 ANDREW J HAIRSTON PL NW,103,English Avenue,L,33.76424,-84.41396,
AGG ASSAULT,162401497,08/27/2016,1350 MAYSON TURNER RD NW,106,Bankhead,K,33.76471,-84.43109,
AGG ASSAULT,162400560,08/27/2016,1315 EASON ST NW ,105,Hunter Hills,K,33.75856,-84.43157,
AGG ASSAULT,162402811,08/27/2016,725 PONCE DE LEON AVE NE @BELTLINE BUSINESS,602,Poncey-Highland,N,33.77343,-84.36351,
AGG ASSAULT,162401290,08/27/2016,530 LINDSAY ST NW,103,English Avenue,L,33.76927,-84.4166,
AGG ASSAULT,162400274,08/27/2016,110 MARIETTA ST NW,511,Downtown,M,33.75674,-84.39257,
AGG ASSAULT,162401687,08/27/2016,685 COOPER ST SE,304,Mechanicsville,V,33.73618,-84.39718,
AGG ASSAULT,162400074,08/27/2016,1014 MAYSON TURNER RD NW,105,Washington Park,K,33.76083,-84.41973,
BURGLARY-RESIDENCE,162400748,08/27/2016,3390 FAIRBURN RD SW,414,Ben Hill,P,33.6639,-84.52377,
BURGLARY-RESIDENCE,162401494,08/27/2016,2665 FAIRBURN RD SW,413,Fairburn Tell,P,33.68147,-84.51547,
BURGLARY-RESIDENCE,162401209,08/27/2016,2000 ALBANY DR SW,409,Adams Park,R,33.71584,-84.45399,
BURGLARY-NONRES,162400193,08/27/2016,10 LAKESIDE VILLAGE DR SE,611,The Villages at East Lake,O,33.74336,-84.31606,
BURGLARY-NONRES,162400291,08/27/2016,2000 MOORES MILL RD NW,201,,C,33.82081,-84.45063,
BURGLARY-NONRES,162400515,08/27/2016,1174 PRYOR ST SW,304,Peoplestown,V,33.72293,-84.39323,
BURGLARY-NONRES,162401058,08/27/2016,2482 MARTIN L KING JR DR SW,405,Harland Terrace,I,33.75219,-84.46878,
BURGLARY-RESIDENCE,162402434,08/27/2016,598 JONES AVE NW,103,English Avenue,L,33.76403,-84.40692,
BURGLARY-RESIDENCE,162402870,08/27/2016,2637 OLD HAPEVILLE RD SW,310,Browns Mill Park,Z,33.68294,-84.39417,
BURGLARY-RESIDENCE,162332470,08/27/2016,581 ERIN AVE,301,Capitol View Manor,X,33.71949,-84.40666,
BURGLARY-RESIDENCE,162400301,08/27/2016,1371 KIMBERLY WAY SW,412,Ashley Courts,P,33.71771,-84.52315,
BURGLARY-RESIDENCE,162402111,08/27/2016,2190 VERBENA ST NW,108,Dixie Hills,J,33.7551,-84.4601,
LARCENY-NON VEHICLE,162401714,08/27/2016,230 18TH ST NW,501,Atlantic Station,E,33.79212,-84.39554,
LARCENY-NON VEHICLE,162402470,08/27/2016,3393 PEACHTREE RD NE @Multiple,210,Lenox,B,33.84676,-84.36212,
LARCENY-NON VEHICLE,162402710,08/27/2016,1275 CAROLINE ST NE @TARGET - CAROLINE,609,Edgewood,O,33.75674,-84.34619,
LARCENY-NON VEHICLE,162401921,08/27/2016,12 ATLANTA AVE SW,304,Peoplestown,V,33.73049,-84.38846,
LARCENY-FROM VEHICLE,162400534,08/27/2016,1375 NORTHSIDE DR NW @SKYLINE MOTEL,207,Loring Heights,E,33.79209,-84.40677,
LARCENY-FROM VEHICLE,162400706,08/27/2016,360 MARIETTA ST NW,507,Downtown,M,33.76269,-84.39702,
LARCENY-NON VEHICLE,162401619,08/27/2016,2975 HEADLAND DR SW ,411,Greenbriar,R,33.69168,-84.4872,
LARCENY-NON VEHICLE,162401418,08/27/2016,300 PETERS ST SW,507,Castleberry Hill,M,33.74651,-84.40219,
LARCENY-NON VEHICLE,162401336,08/27/2016,770 WILDWOOD RD NE,213,Morningside/Lenox Park,F,33.80382,-84.36258,
LARCENY-NON VEHICLE,162401596,08/27/2016,1038 NORTH AVE NE,602,Poncey-Highland,N,33.77129,-84.35352,
LARCENY-NON VEHICLE,162401332,08/27/2016,1097 BENTEEN AVE SE,607,Boulevard Heights,W,33.72496,-84.3675,
LARCENY-NON VEHICLE,162401936,08/27/2016,265 PEACHTREE CENTER AVE NE @Multiple,509,Downtown,M,33.76158,-84.38496,
LARCENY-NON VEHICLE,162401507,08/27/2016,1071 CHATTAHOOCHEE AVE NW,204,Underwood Hills,D,33.80147,-84.4223,
LARCENY-NON VEHICLE,162401864,08/27/2016,691 GRANT TER SE,304,Summerhill,V,33.73574,-84.38002,
LARCENY-FROM VEHICLE,162400926,08/27/2016,1045 AUDUBON CIR SW,406,Audobon Forest,I,33.72757,-84.47129,
LARCENY-FROM VEHICLE,162400156,08/27/2016,62 WALTON ST NW,508,Downtown,M,33.75624,-84.39093,
LARCENY-FROM VEHICLE,162400952,08/27/2016,435 JOSEPH E LOWERY BLVD SW,104,Harris Chiles,T,33.74275,-84.41815,
LARCENY-FROM VEHICLE,162400975,08/27/2016,821 RALPH MCGILL BLVD NE,602,Poncey-Highland,N,33.76792,-84.35911,
LARCENY-FROM VEHICLE,162400979,08/27/2016,1039 GREENWOOD AVE NE,601,Virginia Highland,F,33.77649,-84.35324,
LARCENY-FROM VEHICLE,162400541,08/27/2016,120 ALDEN AVE NW,207,Brookwood,E,33.80111,-84.39731,
LARCENY-FROM VEHICLE,162400660,08/27/2016,536 TRABERT AVE NW,207,Loring Heights,E,33.7942,-84.40531,
LARCENY-FROM VEHICLE,162400680,08/27/2016,543 WHITEHALL ST SW,303,Mechanicsville,V,33.74329,-84.40567,
LARCENY-FROM VEHICLE,162400946,08/27/2016,1455 ELLSWORTH INDUSTRIAL BLVD NW,203,Blandtown,D,33.79579,-84.42575,
LARCENY-FROM VEHICLE,162400344,08/27/2016,123 MARIETTA ST NW,508,Downtown,M,33.75767,-84.39266,
LARCENY-FROM VEHICLE,162400387,08/27/2016,224 MILLS ST NW,504,Downtown,M,33.76524,-84.39469,
LARCENY-FROM VEHICLE,162400206,08/27/2016,270 15TH ST,502,Ansley Park,E,33.78862,-84.37798,
LARCENY-FROM VEHICLE,162401813,08/27/2016,92 CENTENNIAL OLYMPIC P DR NW,507,Downtown,M,33.75601,-84.39736,
LARCENY-FROM VEHICLE,162401484,08/27/2016,758 GRANT TER SE,605,Grant Park,W,33.73389,-84.3797,
LARCENY-FROM VEHICLE,162402158,08/27/2016,218 PETERS ST SW,507,Castleberry Hill,M,33.74856,-84.40049,
LARCENY-FROM VEHICLE,162402205,08/27/2016,3267 PINE MEADOW RD NW,202,West Paces Ferry/Northside,A,33.84419,-84.4237,
LARCENY-FROM VEHICLE,162402217,08/27/2016,770 DECKNER AVE SW @PERKERSON PARK,301,Capitol View,X,33.71272,-84.41349,
LARCENY-FROM VEHICLE,162402254,08/27/2016,3393 PEACHTREE RD NE @LENOX SQUARE ,210,Lenox,B,33.84676,-84.36212,
LARCENY-FROM VEHICLE,162402564,08/27/2016,375 18TH ST NW @TARGET - 18TH,501,Atlantic Station,E,33.79303,-84.39921,
LARCENY-FROM VEHICLE,162402630,08/27/2016,983 RALPH D ABERNATHY BLVD SW @HOWELL PARK,401,West End,T,33.73854,-84.42,
LARCENY-FROM VEHICLE,162402858,08/27/2016,2265 CAMP GROUND RD SW,412,Kings Forest,P,33.6926,-84.51356,
LARCENY-FROM VEHICLE,162401842,08/27/2016,990 EDGEWOOD AVE NE,602,Inman Park,N,33.75697,-84.35538,
LARCENY-FROM VEHICLE,162400060,08/27/2016,150 WALTON ST NW,508,Downtown,M,33.75812,-84.39292,
LARCENY-FROM VEHICLE,162401535,08/27/2016,895 RALPH D ABERNATHY BLVD SW,401,West End,T,33.7398,-84.41751,
LARCENY-FROM VEHICLE,162401543,08/27/2016,183 MOUNT ZION RD SE,312,Glenrose Heights,Z,33.67268,-84.38507,
LARCENY-FROM VEHICLE,162401560,08/27/2016,2315 VENETIAN DR SW,409,Adams Park,R,33.71786,-84.46451,
LARCENY-FROM VEHICLE,162401592,08/27/2016,1016 HOWELL MILL RD NW,501,Home Park,E,33.78183,-84.41244,
LARCENY-FROM VEHICLE,162401689,08/27/2016,2 WADDELL ST NE,602,Inman Park,N,33.75389,-84.36282,
LARCENY-FROM VEHICLE,162401707,08/27/2016,129 PALATKA ST SE,610,Kirkwood,O,33.74906,-84.32098,
LARCENY-FROM VEHICLE,162401414,08/27/2016,3201 MARTIN L KING JR DR NW @GORDON VALLEY APTS,111,,I,33.75428,-84.49165,
LARCENY-FROM VEHICLE,162401478,08/27/2016,2395 GLENWOOD AVE SE,611,East Lake,O,33.7399,-84.30865,
LARCENY-FROM VEHICLE,162400818,08/27/2016,191 HOWARD ST NE,610,Kirkwood,O,33.75771,-84.3229,
LARCENY-FROM VEHICLE,162402944,08/27/2016,415 FAIRBURN RD SW,407,Fairburn Mays,H,33.74349,-84.50968,
AUTO THEFT,162402779,08/27/2016,318 ALLENDALE DR SE,611,East Lake,O,33.7439,-84.2949,
AUTO THEFT,162401027,08/27/2016,1700 NORTHSIDE DR NW,207,Berkeley Park,D,33.80121,-84.40791,
AUTO THEFT,162400305,08/27/2016,556 NORTHSIDE DR,303,Pittsburgh,V,33.74007,-84.40778,
AUTO THEFT,162400335,08/27/2016,2907 3RD AVE SW,311,Hammond Park,X,33.67626,-84.40562,
AUTO THEFT,162401031,08/27/2016,391 GRANT PARK PL SE,605,Grant Park,W,33.73237,-84.37504,
AUTO THEFT,162402228,08/27/2016,2664 DONALD LEE HOLLOWELL PKWY NW,112,Collier Heights,I,33.77626,-84.47439,
AUTO THEFT,162401756,08/27/2016,1328 MONTREAT AVE SW,402,Oakland City,S,33.7292,-84.43098,
AUTO THEFT,162401500,08/27/2016,3167 PEACHTREE RD NE,206,Buckhead Village,B,33.84031,-84.37588,
AUTO THEFT,162401423,08/27/2016,1771 DREW DR NW,110,West Highlands,G,33.79036,-84.44821,
AUTO THEFT,162401386,08/27/2016,3450 CASCADE RD SW,406,,I,33.72265,-84.50091,
AUTO THEFT,162401211,08/27/2016,149 26TH ST NW,207,Brookwood,E,33.80253,-84.39776,
AUTO THEFT,162400939,08/27/2016,3096 DAWSON LN SW,414,Princeton Lakes,P,33.66901,-84.50993,
AUTO THEFT,162400433,08/27/2016,50 MOUNT ZION RD SW,312,Glenrose Heights,Z,33.67273,-84.39067,
AUTO THEFT,162400801,08/27/2016,1516 OLYMPIAN WAY SW,404,Westview,T,33.73532,-84.4374,
AUTO THEFT,162392174,08/26/2016,2788 FORREST HILLS DR SW @DAYS INN SOUTH,311,Hammond Park,X,33.67892,-84.39898,
AUTO THEFT,162392499,08/26/2016,3040 HEADLAND DR SW,411,Greenbriar,R,33.68948,-84.48818,
AUTO THEFT,162392130,08/26/2016,58 25TH ST NW,207,Brookwood,E,33.80053,-84.39546,
AUTO THEFT,162392588,08/26/2016,1040 W MARIETTA ST NW,106,Knight Park/Howell Station,K,33.78462,-84.42156,
AUTO THEFT,162391737,08/26/2016,808 PALATINE AVE SE,607,Ormewood Park,W,33.73233,-84.35624,
AUTO THEFT,162391292,08/26/2016,2524 MARTIN L KING JR DR SW,405,Harland Terrace,I,33.75285,-84.47033,
AUTO THEFT,162390791,08/26/2016,597 CUMBERLAND RD NE,213,Morningside/Lenox Park,F,33.79598,-84.36751,
AUTO THEFT,162390124,08/26/2016,2243 GARY CT NW,109,Center Hill,J,33.76936,-84.46046,
AUTO THEFT,162391680,08/26/2016,654 KENNESAW AVE NE,603,Old Fourth Ward,M,33.77241,-84.37031,
AUTO THEFT,162392713,08/26/2016,1840 CAMPBELLTON RD SW,408,,R,33.70979,-84.44865,
AUTO THEFT,162393136,08/26/2016,902 DONALD LEE HOLLOWELL PKWY NW,103,English Avenue,L,33.7728,-84.41689,
LARCENY-FROM VEHICLE,162390955,08/26/2016,2611 SPRINGDALE RD SW,309,Perkerson,X,33.68394,-84.41521,
LARCENY-FROM VEHICLE,162391583,08/26/2016,1471 LA FRANCE ST NE,609,Edgewood,O,33.76047,-84.33909,
LARCENY-FROM VEHICLE,162391939,08/26/2016,1628 BELMONT AVE SW,301,Capitol View,X,33.71024,-84.40969,
LARCENY-FROM VEHICLE,162391990,08/26/2016,14 PEACHTREE AVE,206,Garden Hills,B,33.8349,-84.38166,
LARCENY-FROM VEHICLE,162390480,08/26/2016,PEACHTREE ST NE / 6TH ST NE,505,Midtown,E,33.77736,-84.38442,
LARCENY-FROM VEHICLE,162390716,08/26/2016,180 NORTHSIDE DR SW @PASCHAL'S RESTAURANT,507,Castleberry Hill,M,33.74936,-84.40346,
LARCENY-FROM VEHICLE,162390758,08/26/2016,1770 RICHMOND AVE SE,307,Lakewood Heights,Y,33.70583,-84.37521,
LARCENY-FROM VEHICLE,162392241,08/26/2016,721 LONGLEAF DR NE,209,North Buckhead,B,33.85534,-84.36408,
LARCENY-FROM VEHICLE,162391296,08/26/2016,1229 ALMONT DR SW,403,Oakland City,S,33.7261,-84.42803,
LARCENY-FROM VEHICLE,162393213,08/26/2016,798 N HIGHLAND AVE NE,601,Virginia Highland,F,33.77628,-84.35284,
LARCENY-FROM VEHICLE,162393234,08/26/2016,700 MAIDEN LN NE ,601,Virginia Highland,F,33.77458,-84.36368,
LARCENY-FROM VEHICLE,162392201,08/26/2016,743 Edgewood Ave NE,602,Inman Park,N,33.75468,-84.36305,
LARCENY-FROM VEHICLE,162392869,08/26/2016,2841 GREENBRIAR PKWY SW @GREENBRIAR MALL,411,Greenbriar,R,33.68677,-84.49773,
LARCENY-FROM VEHICLE,162392886,08/26/2016,3180 ROSWELL RD NW,206,South Tuxedo Park,B,33.84193,-84.37974,
LARCENY-FROM VEHICLE,162392891,08/26/2016,1000 NORTHSIDE DR NW,501,Home Park,E,33.78196,-84.40835,
LARCENY-FROM VEHICLE,162392893,08/26/2016,290 LOOMIS AVE SE,605,Grant Park,W,33.74656,-84.37127,
LARCENY-FROM VEHICLE,162392460,08/26/2016,100 LUCKIE ST NW,508,Downtown,M,33.7573,-84.38992,
LARCENY-FROM VEHICLE,162392740,08/26/2016,1790 BOND DR SW,307,Betmar LaVilla,Y,33.70748,-84.40185,
LARCENY-FROM VEHICLE,162392342,08/26/2016,994 LANIER BLVD NE,601,Virginia Highland,F,33.7818,-84.3532,
LARCENY-FROM VEHICLE,162392347,08/26/2016,3173 KINGSTON RD NW,112,Collier Heights,I,33.77994,-84.49138,
LARCENY-FROM VEHICLE,162392350,08/26/2016,1155 LAVISTA RD NE,212,Lindridge/Martin Manor,F,33.81743,-84.351,
LARCENY-FROM VEHICLE,162223118,08/26/2016,1950 HOWELL MILL RD NW,205,Wildwood (NPU-C),C,33.80838,-84.41356,
LARCENY-NON VEHICLE,162391739,08/26/2016,1957 BOYD TRACE LN NW,110,West Highlands,G,33.79531,-84.4522,
LARCENY-NON VEHICLE,162393007,08/26/2016,565 WELLS ST SW,303,Mechanicsville,V,33.74005,-84.40649,
LARCENY-NON VEHICLE,162391265,08/26/2016,365 E PACES FERRY RD NE,206,Buckhead Village,B,33.83856,-84.37561,
LARCENY-NON VEHICLE,162391802,08/26/2016,3393 PEACHTREE RD NE @LENOX MALL,210,Lenox,B,33.84676,-84.36212,
LARCENY-NON VEHICLE,162392649,08/26/2016,55 TRINITY AVE SW @Multiple,512,Downtown,M,33.74799,-84.39034,
LARCENY-NON VEHICLE,162392490,08/26/2016,84 WALTON ST NW,508,Downtown,M,33.75672,-84.39123,
LARCENY-NON VEHICLE,162391665,08/26/2016,3040 HEADLAND DR SW,411,Greenbriar,R,33.68948,-84.48818,
LARCENY-NON VEHICLE,162390369,08/26/2016,3434 PEACHTREE RD NE,208,North Buckhead,B,33.8504,-84.36226,
LARCENY-NON VEHICLE,162391588,08/26/2016,89 ELLIS ST NE,510,Downtown,M,33.75813,-84.38477,
LARCENY-NON VEHICLE,162382244,08/26/2016,3850 JONESBORO RD,308,South River Gardens,Z,33.65088,-84.36362,
LARCENY-NON VEHICLE,162392976,08/26/2016,3263 DONALD LEE HOLLOWELL PKWY NW,114,English Park,G,33.78784,-84.49384,
LARCENY-FROM VEHICLE,162392094,08/26/2016,1074 MEMORIAL DR SE,606,Reynoldstown,N,33.7472,-84.35235,
LARCENY-NON VEHICLE,162391092,08/26/2016,2685 METROPOLITAN PKWY SW,309,Perkerson,X,33.68274,-84.40902,
LARCENY-NON VEHICLE,162381970,08/26/2016,3015 JONESBORO RD SE,312,Orchard Knob,Z,33.67229,-84.37254,
LARCENY-NON VEHICLE,162390580,08/26/2016,855 W PEACHTREE ST NE,505,Midtown,E,33.77773,-84.38718,
LARCENY-NON VEHICLE,162391279,08/26/2016,835 MLK JR DR NW,102,Vine City,L,33.75504,-84.41457,
LARCENY-NON VEHICLE,162391823,08/26/2016,2525 PIEDMONT RD NE @HOME DEPOT,211,Lindbergh/Morosgo,B,33.824,-84.36521,
LARCENY-NON VEHICLE,162391538,08/26/2016,3393 PEACHTREE RD NE ,210,Lenox,B,33.84676,-84.36212,
LARCENY-NON VEHICLE,162392283,08/26/2016,835 MARTIN L KING JR DR NW,102,Vine City,L,33.75504,-84.41457,
LARCENY-NON VEHICLE,162392355,08/26/2016,3393 NE PEACHTREE RD,,Lenox,B,33.84676,-84.36212,
BURGLARY-RESIDENCE,162393160,08/26/2016,2119 GLENWOOD AVE SE,611,East Lake,O,33.74005,-84.31802,
BURGLARY-RESIDENCE,162391206,08/26/2016,4300 NOTTING HILL DR SW,413,Arlington Estates,P,33.69499,-84.53507,
BURGLARY-RESIDENCE,162392206,08/26/2016,2909 CAMPBELLTON RD SW,409,Southwest,R,33.69869,-84.48265,
BURGLARY-RESIDENCE,162391433,08/26/2016,1325 NISKEY LAKE RD SW,412,Niskey Lake,P,33.71841,-84.53414,
BURGLARY-RESIDENCE,162391686,08/26/2016,765 MCDANIEL ST SW,302,Pittsburgh,V,33.73396,-84.40177,
LARCENY-NON VEHICLE,162390788,08/26/2016,1568 JONESBORO RD SE @FIRE STATION 2,307,South Atlanta,Y,33.71033,-84.3813,
BURGLARY-RESIDENCE,162391643,08/26/2016,1760 NORTHSIDE DR NW,205,Channing Valley,C,33.80406,-84.40896,
BURGLARY-RESIDENCE,162393155,08/26/2016,2391 PAUL AVE NW,203,Riverside,D,33.81966,-84.47463,
BURGLARY-RESIDENCE,162391367,08/26/2016,2918 RIDGEVIEW DR SW,411,Greenbriar,R,33.66632,-84.49396,
BURGLARY-RESIDENCE,162392524,08/26/2016,2389 GLENWOOD AVE SE,611,East Lake,O,33.73979,-84.30874,
BURGLARY-RESIDENCE,162393107,08/26/2016,2575 FORREST AVE NW,203,Riverside,D,33.81419,-84.4723,
BURGLARY-RESIDENCE,162390262,08/26/2016,230 18TH ST NW,501,Atlantic Station,E,33.79231,-84.39541,
BURGLARY-RESIDENCE,162390094,08/26/2016,2171 PEACHTREE RD NE,207,,E,33.81347,-84.39228,
AGG ASSAULT,162391659,08/26/2016,200 BAKER ST NW,508,Downtown,M,33.76203,-84.39512,
AGG ASSAULT,162390007,08/26/2016,1935 ALISON CT,410,Fort Valley,R,33.70055,-84.45149,
AGG ASSAULT,162392868,08/26/2016,1905 PIEDMONT CIR NE,212,Piedmont Heights,F,33.80885,-84.36635,
AGG ASSAULT,162391425,08/26/2016,1890 MYRTLE DR SW,410,Campbellton Road,R,33.70405,-84.45488,
AGG ASSAULT,162390366,08/26/2016,1420 DONNELLY AVE SW,402,West End,T,33.73724,-84.43417,
AGG ASSAULT,162392032,08/26/2016,1975 ALISON CT SW,410,Campbellton Road,R,33.70081,-84.45327,
ROBBERY-PEDESTRIAN,162390202,08/26/2016,1600 ELLSWORTH INDUSTRIAL BLVD NW,203,Blandtown,D,33.79826,-84.42811,
ROBBERY-PEDESTRIAN,162390109,08/26/2016,1181 MCPHERSON AVE SE,612,East Atlanta,W,33.74299,-84.34879,
ROBBERY-PEDESTRIAN,162393144,08/26/2016,110 MARIETTA STREET NW,507,Downtown,M,33.75355,-84.39484,
ROBBERY-PEDESTRIAN,162392899,08/26/2016,500 RICHARD ALLEN BLVD SW,407,Fairburn Mays,H,33.74054,-84.51162,
ROBBERY-PEDESTRIAN,162391162,08/26/2016,3500 CASTLEGATE DR NW,202,Kingswood,A,33.85097,-84.41434,
ROBBERY-PEDESTRIAN,162390394,08/26/2016,1040 HUFF RD NW,203,Blandtown,D,33.78868,-84.42207,
ROBBERY-PEDESTRIAN,162392922,08/26/2016,183 PRYOR ST SW ,512,Downtown,M,33.75029,-84.39184,
ROBBERY-PEDESTRIAN,162393142,08/26/2016,2500 CENTER ST NW @ETHERIDGE COURT APT,113,Carey Park,G,33.79088,-84.4723,
ROBBERY-PEDESTRIAN,162393195,08/26/2016,123 MARIETTA ST NW,508,Downtown,M,33.75767,-84.39266,
ROBBERY-RESIDENCE,162383041,08/25/2016,405 FAIRBURN RD SW,407,Wildwood (NPU-H),H,33.74367,-84.50959,
AGG ASSAULT,162382865,08/25/2016,3012 JONESBORO RD SE,313,South River Gardens,Z,33.67225,-84.37156,
AGG ASSAULT,162381113,08/25/2016,960 CONSTITUTION RD SE,308,Norwood Manor,Z,33.69307,-84.35805,
AGG ASSAULT,162380024,08/25/2016,1033 HOLLYWOOD RD NW,110,Almond Park,G,33.78373,-84.45794,
AGG ASSAULT,162382813,08/25/2016,415 FAIRBURN RD SW,407,Fairburn Mays,H,33.74349,-84.50968,
AGG ASSAULT,162382605,08/25/2016,1092 JUNIPER ST NE,503,Midtown,E,33.78419,-84.38237,
AGG ASSAULT,162382715,08/25/2016,3855 COLLIER DR NW,114,Carroll Heights,H,33.77032,-84.51279,
AGG ASSAULT,162380837,08/25/2016,428 BECKWITH COURT,101,Atlanta University Center,T,33.75389,-84.40445,
BURGLARY-RESIDENCE,162380905,08/25/2016,1112 MOORES MILL RD NW,201,Brandon,C,33.83519,-84.42347,
BURGLARY-RESIDENCE,162372752,08/25/2016,213 FAIRBURN RD,111,Adamsville,H,33.76136,-84.50424,
BURGLARY-RESIDENCE,162381920,08/25/2016,353 LINCOLN ST SW,307,Joyland,Y,33.7124,-84.40019,
BURGLARY-RESIDENCE,162382376,08/25/2016,285 HUNNICUTT ST NW,504,Downtown,M,33.76673,-84.39656,
BURGLARY-RESIDENCE,162382436,08/25/2016,1138 BOULDERCREST DR SE,612,East Atlanta,W,33.72357,-84.33192,
BURGLARY-NONRES,162380418,08/25/2016,717 LEE ST SW,401,West End,T,33.73463,-84.41436,
BURGLARY-RESIDENCE,162381702,08/25/2016,2662 HOOD AVE NW,109,Center Hill,J,33.76895,-84.46961,
BURGLARY-RESIDENCE,162382419,08/25/2016,1065 CAMILLA ST SW,104,Ashview Heights,T,33.75063,-84.42258,
BURGLARY-RESIDENCE,162380355,08/25/2016,904 CONFEDERATE CT SE,607,Ormewood Park,W,33.72928,-84.36159,
BURGLARY-RESIDENCE,162381331,08/25/2016,1713 WILLMA DR NW,110,West Highlands,G,33.79222,-84.44725,
LARCENY-NON VEHICLE,162381832,08/25/2016,1225 CAROLINE ST NE ,609,Edgewood,O,33.75605,-84.34813,
LARCENY-NON VEHICLE,162381712,08/25/2016,3030 HEADLAND DR SW,411,Greenbriar,R,33.68841,-84.48742,
LARCENY-NON VEHICLE,162382806,08/25/2016,1371 MARKET ST NW,501,Atlantic Station,E,33.7921,-84.39466,
LARCENY-NON VEHICLE,162382869,08/25/2016,807 CASCADE AVE SW,404,Cascade Avenue/Road,S,33.73323,-84.43795,
LARCENY-NON VEHICLE,162383014,08/25/2016,2690 METROPOLITAN PKWY SW,309,Perkerson,X,33.68169,-84.40737,
LARCENY-NON VEHICLE,162381348,08/25/2016,171 17TH ST NW,501,Atlantic Station,E,33.79151,-84.39364,
LARCENY-NON VEHICLE,162381623,08/25/2016,535 LEE ST SW,401,West End,T,33.74042,-84.41435,
LARCENY-NON VEHICLE,162372501,08/25/2016,3393 PEACHTREE RD NE @LENOX MALL,210,Lenox,B,33.84676,-84.36212,
LARCENY-NON VEHICLE,162381713,08/25/2016,1450 DONNELLY AVE SW,402,West End,T,33.73772,-84.43479,
LARCENY-FROM VEHICLE,162381013,08/25/2016,1805 JONESBORO RD SE,307,Lakewood Heights,Y,33.70471,-84.37885,
LARCENY-NON VEHICLE,162381406,08/25/2016,349 DECATUR ST SE,604,Sweet Auburn,M,33.74988,-84.37788,
LARCENY-NON VEHICLE,162383033,08/25/2016,641 NORTH AVE NE,603,Old Fourth Ward,M,33.77103,-84.36618,
LARCENY-NON VEHICLE,162381383,08/25/2016,640 GLEN IRIS DR NE,603,Old Fourth Ward,M,33.77207,-84.36779,
LARCENY-NON VEHICLE,162381767,08/25/2016,3438 PEACHTREE RD NE,208,North Buckhead,B,33.85307,-84.36404,
LARCENY-NON VEHICLE,162380907,08/25/2016,811 JUNIPER ST NE,505,Midtown,E,33.77725,-84.38285,
LARCENY-FROM VEHICLE,162380880,08/25/2016,4186 BEVERLY LN NE,209,North Buckhead,B,33.86915,-84.37654,
LARCENY-NON VEHICLE,162381986,08/25/2016,580 THOMASVILLE BLVD SE,308,Thomasville Heights,Z,33.70504,-84.36332,
LARCENY-NON VEHICLE,162381919,08/25/2016,321 ELIZABETH ST NE,602,Inman Park,N,33.76329,-84.35822,
LARCENY-NON VEHICLE,162381802,08/25/2016,1020 HANK AARON DR,304,Peoplestown,V,33.72677,-84.38771,
LARCENY-NON VEHICLE,162381872,08/25/2016,150 10TH ST NE,503,Midtown,E,33.78185,-84.38199,
LARCENY-NON VEHICLE,162382410,08/25/2016,165 MARION PL NE,609,Edgewood,O,33.75795,-84.34501,
LARCENY-NON VEHICLE,162380508,08/25/2016,3155 ROSWELL RD NE,208,Buckhead Forest,B,33.84119,-84.37852,
LARCENY-NON VEHICLE,162380649,08/25/2016,448 RALPH MCGILL BLVD NE,603,Old Fourth Ward,M,33.76405,-84.37274,
LARCENY-NON VEHICLE,162380737,08/25/2016,12 ATLANTA AVE SW,304,Peoplestown,V,33.73049,-84.38846,
LARCENY-FROM VEHICLE,162383160,08/25/2016,1735 DEFOOR PL NW,204,Underwood Hills,D,33.80224,-84.42161,
LARCENY-FROM VEHICLE,162383205,08/25/2016,585 MCDANIEL ST SW,303,Mechanicsville,V,33.73896,-84.40206,
LARCENY-FROM VEHICLE,162383219,08/25/2016,1950 HOWELL MILL RD NW,205,Wildwood (NPU-C),C,33.80838,-84.41356,
LARCENY-FROM VEHICLE,162383020,08/25/2016,929 CHARLES ALLEN DR NE @APS GRADY HS,506,Midtown,E,33.78119,-84.37151,
LARCENY-FROM VEHICLE,162383197,08/25/2016,405 FAIRBURN RD SW,407,Wildwood (NPU-H),H,33.74367,-84.50959,
LARCENY-FROM VEHICLE,162381385,08/25/2016,2124 SPINK ST NW,203,Riverside,D,33.81354,-84.47157,
LARCENY-FROM VEHICLE,162380727,08/25/2016,1455 ELLSWORTH INDUSTRIAL BLVD NW,203,Blandtown,D,33.79579,-84.42575,
LARCENY-FROM VEHICLE,162380866,08/25/2016,1598 BOULEVARD LORRAINE SW,409,Adams Park,R,33.71246,-84.46039,
LARCENY-FROM VEHICLE,162380179,08/25/2016,1556 CENTRA VILLA DR SW,408,Venetian Hills,S,33.71321,-84.45368,
LARCENY-FROM VEHICLE,162380253,08/25/2016,49 BOULEVARD SE,604,Sweet Auburn,M,33.75253,-84.3721,
LARCENY-FROM VEHICLE,162380270,08/25/2016,908 BOWEN ST NW,207,Berkeley Park,D,33.79665,-84.41751,
LARCENY-FROM VEHICLE,162380324,08/25/2016,45 IVY TRL NE,209,North Buckhead,B,33.85681,-84.38056,
LARCENY-FROM VEHICLE,162380687,08/25/2016,3224 W SHADOWLAWN AVE NE,208,Buckhead Forest,B,33.84366,-84.37547,
LARCENY-FROM VEHICLE,162381926,08/25/2016,2144 PEACHTREE RD NW,207,,C,33.81305,-84.39261,
LARCENY-FROM VEHICLE,162382069,08/25/2016,755 HANK AARON DR SW ,304,Summerhill,V,33.73624,-84.389,
LARCENY-FROM VEHICLE,162382110,08/25/2016,331 LAKEMOORE DR NE,209,North Buckhead,B,33.86599,-84.377,
LARCENY-FROM VEHICLE,162382183,08/25/2016,499 NORTHSIDE CIR NW,207,Loring Heights,E,33.79766,-84.40596,
LARCENY-FROM VEHICLE,162382516,08/25/2016,3242 WELLINGTON WALK SW,414,Princeton Lakes,P,33.66213,-84.51446,
LARCENY-FROM VEHICLE,162382787,08/25/2016,1033 HEMPHILL AVE NW ,501,Home Park,E,33.7816,-84.40423,
LARCENY-FROM VEHICLE,162382805,08/25/2016,861 SYLVAN PL SW,306,Sylvan Hills,X,33.70523,-84.41695,
LARCENY-FROM VEHICLE,162381429,08/25/2016,292 9TH ST,503,Midtown,E,33.78057,-84.37765,
LARCENY-FROM VEHICLE,162380904,08/25/2016,200 14TH ST NW,501,Home Park,E,33.7865,-84.39366,
LARCENY-FROM VEHICLE,162380983,08/25/2016,2325 MARIETTA BLVD NW,201,,C,33.82065,-84.45274,
LARCENY-FROM VEHICLE,162381756,08/25/2016,1770 HOWELL MILL RD NW,204,Underwood Hills,D,33.80267,-84.41502,
AUTO THEFT,162382861,08/25/2016,537 PARK AVE SE @GRANT PARK,605,Grant Park,W,33.74029,-84.3699,
AUTO THEFT,162381292,08/25/2016,551LAWTON ST SW,401,West End,T,33.74009,-84.42314,
AUTO THEFT,162380746,08/25/2016,3561 PARC CIR SW,409,Southwest,R,33.69983,-84.49765,
AUTO THEFT,162383100,08/25/2016,1156 MEMORIAL DR SE,606,Reynoldstown,N,33.74781,-84.34977,
AUTO THEFT,162381811,08/25/2016,490 WHITEHALL ST SW,507,Castleberry Hill,M,33.74348,-84.40341,
AUTO THEFT,162372531,08/24/2016,2325 MARIETTA BLVD NW,201,,C,33.82065,-84.45274,
AUTO THEFT,162371162,08/24/2016,203 13TH ST NE,503,Midtown,E,33.78529,-84.38072,
LARCENY-FROM VEHICLE,162371713,08/24/2016,178 BRANTLEY ST NE,606,Reynoldstown,N,33.75821,-84.34988,
LARCENY-FROM VEHICLE,162370010,08/24/2016,667 FAIRBURN RD NW,114,Fairburn Heights,H,33.77332,-84.50005,
LARCENY-FROM VEHICLE,162371771,08/24/2016,2841 GREENBRIAR PKWY SW @GREENBRIAR MALL,411,Greenbriar,R,33.68845,-84.49328,
LARCENY-FROM VEHICLE,162372465,08/24/2016,95 MARTIN L KING JR DR SW,511,Downtown,M,33.75161,-84.39112,
LARCENY-FROM VEHICLE,162372274,08/24/2016,847 PARSONS ST SW,101,Atlanta University Center,T,33.75092,-84.41535,
LARCENY-FROM VEHICLE,162372339,08/24/2016,441 16TH ST NW @IKEA,501,Atlantic Station,E,33.78874,-84.40468,
LARCENY-FROM VEHICLE,162371746,08/24/2016,2915 PEACHTREE RD NE,206,Garden Hills,B,33.83465,-84.38212,
LARCENY-FROM VEHICLE,162372507,08/24/2016,2678 SANTA BARBARA DR NW,112,Collier Heights,I,33.76553,-84.47573,
LARCENY-FROM VEHICLE,162372535,08/24/2016,1117 LEE ST SW,402,Oakland City,S,33.72459,-84.42107,
LARCENY-FROM VEHICLE,162372686,08/24/2016,2716 MARTIN L KING JR DR SW,405,Harland Terrace,I,33.75395,-84.47612,
LARCENY-FROM VEHICLE,162371849,08/24/2016,75 MANGUM ST SW,507,Castleberry Hill,M,33.75249,-84.4,
LARCENY-FROM VEHICLE,162372082,08/24/2016,48 DANIEL ST SE,604,Old Fourth Ward,M,33.7528,-84.37053,
LARCENY-FROM VEHICLE,162372192,08/24/2016,3201 ATLANTA INDUSTRIAL PKWY NW,114,Atlanta Industrial Park,G,33.79198,-84.4949,
LARCENY-FROM VEHICLE,162372199,08/24/2016,812 PARSONS ST SW,101,Atlanta University Center,T,33.75071,-84.41416,
LARCENY-FROM VEHICLE,162370841,08/24/2016,3405 LENOX RD NE ,210,Lenox,B,33.848,-84.35947,
LARCENY-FROM VEHICLE,162370004,08/24/2016,718 MCGILL PL NE,603,Old Fourth Ward,M,33.76554,-84.37683,
LARCENY-FROM VEHICLE,162371110,08/24/2016,1597 SYLVAN RD SW,306,Sylvan Hills,X,33.71126,-84.41839,
LARCENY-FROM VEHICLE,162371481,08/24/2016,1587 HOWELL MILL RD NW,207,Berkeley Park,D,33.79835,-84.41575,
LARCENY-FROM VEHICLE,162371614,08/24/2016,1052 W PEACHTREE ST NW,503,Midtown,E,33.7834,-84.38845,
LARCENY-FROM VEHICLE,162371616,08/24/2016,1016 HOWELL MILL RD NW,501,Home Park,E,33.78183,-84.41244,
LARCENY-FROM VEHICLE,162370933,08/24/2016,2417 GLENWOOD AVE SE,611,East Lake,O,33.73977,-84.30789,
LARCENY-FROM VEHICLE,162370319,08/24/2016,458 EDGEWOOD AVE NE,604,Sweet Auburn,M,33.75452,-84.37268,
LARCENY-FROM VEHICLE,162370503,08/24/2016,1185 COLLIER RD NW,204,,C,33.81136,-84.4253,
LARCENY-FROM VEHICLE,162370536,08/24/2016,1040 HUFF RD,203,Blandtown,D,33.78949,-84.42125,
LARCENY-FROM VEHICLE,162370566,08/24/2016,358 FRASER ST SE,605,Capitol Gateway,V,33.74513,-84.38612,
LARCENY-FROM VEHICLE,162371678,08/24/2016,1595 MARIETTA BLVD NW,203,Hills Park,D,33.79848,-84.43337,
LARCENY-FROM VEHICLE,162370747,08/24/2016,76 4TH ST NW,505,Midtown,E,33.77487,-84.38975,
LARCENY-FROM VEHICLE,162370036,08/24/2016,330 AUBURN AVE NE,604,Sweet Auburn,M,33.75574,-84.37678,
LARCENY-NON VEHICLE,162372761,08/24/2016,2370 METROPOLITAN PKWY SW,309,Perkerson,X,33.69014,-84.40807,
LARCENY-NON VEHICLE,162371546,08/24/2016,3030 HEADLAND DR SW,411,Greenbriar,R,33.68841,-84.48742,
LARCENY-NON VEHICLE,162372245,08/24/2016,3574 TUXEDO RD NW,202,Tuxedo Park,A,33.85307,-84.40587,
LARCENY-NON VEHICLE,162371106,08/24/2016,542 FORMWALT ST SW,303,Mechanicsville,V,33.74003,-84.39543,
LARCENY-NON VEHICLE,162370652,08/24/2016,1708 PEACHTREE ST NW,207,Brookwood,E,33.80064,-84.39277,
LARCENY-NON VEHICLE,162378036,08/24/2016,8700 SPINE RD,703,,,33.64275,-84.43867,
LARCENY-NON VEHICLE,162371914,08/24/2016,933 PEACHTREE ST NE,503,Midtown,E,33.78013,-84.38355,
LARCENY-NON VEHICLE,162371872,08/24/2016,1819 PEACHTREE RD NE,207,Brookwood Hills,E,33.80377,-84.39312,
LARCENY-FROM VEHICLE,162370120,08/24/2016,3181 DONALD LEE HOLLOWELL PKWY NW @PETRO TRUCK STOP,113,Brookview Heights,G,33.78652,-84.49013,
LARCENY-FROM VEHICLE,162371833,08/24/2016,3852 JONESBORO RD SE,313,South River Gardens,Z,33.65044,-84.3659,
LARCENY-NON VEHICLE,162371140,08/24/2016,835 MARTIN L KING JR DR NW,102,Vine City,L,33.75504,-84.41457,
LARCENY-NON VEHICLE,162371523,08/24/2016,595 PIEDMONT AVE NE @PUBLIX - PIEDMONT,603,Old Fourth Ward,M,33.77067,-84.38023,
LARCENY-NON VEHICLE,162371425,08/24/2016,1371 MARKET ST NW,501,Atlantic Station,E,33.7921,-84.39466,
LARCENY-NON VEHICLE,162372266,08/24/2016,1801 HOWELL MILL RD NW,204,Berkeley Park,D,33.80388,-84.41278,
BURGLARY-NONRES,162371447,08/24/2016,404 W ONTARIO AVE SW,404,Westview,T,33.74424,-84.43942,
BURGLARY-NONRES,162370572,08/24/2016,3377 PEACHTREE RD NE,210,Lenox,B,33.84779,-84.36633,
BURGLARY-NONRES,162370669,08/24/2016,1655 MEMORIAL DR SE,610,Kirkwood,O,33.74718,-84.3338,
BURGLARY-RESIDENCE,162371805,08/24/2016,749 GLENGARY WAY NE,209,North Buckhead,B,33.86992,-84.36302,
BURGLARY-RESIDENCE,162371417,08/24/2016,79 MOURY AVE SE,305,South Atlanta,Y,33.71297,-84.38667,
BURGLARY-RESIDENCE,162372005,08/24/2016,587 TYLER ST NW,102,Vine City,L,33.76293,-84.40668,
BURGLARY-RESIDENCE,162371220,08/24/2016,358 SCHOEN ST SE,307,Lakewood Heights,Y,33.70467,-84.3751,
BURGLARY-RESIDENCE,162372215,08/24/2016,23 LARKIN PL SW,507,Castleberry Hill,M,33.74749,-84.40414,
AGG ASSAULT,162371108,08/24/2016,1661 AUDREY PL NW,113,Lincoln Homes,G,33.8005,-84.47608,
AGG ASSAULT,162372579,08/24/2016,3170 DONALD LEE HOLLOWELL PKWY NW,112,Collier Heights,I,33.78577,-84.49055,
AGG ASSAULT,162371908,08/24/2016,275 PRYOR ST SW,512,Downtown,M,33.74747,-84.39415,
AGG ASSAULT,162370445,08/24/2016,3390 FAIRBURN RD SW,414,Ben Hill,P,33.6632,-84.52404,
AGG ASSAULT,162370209,08/24/2016,313 SKIPPER PL NW,112,Collier Heights,I,33.78134,-84.49154,
AGG ASSAULT,162372662,08/24/2016,180 RALPH D ABERNATHY BLVD SW ,303,Mechanicsville,V,33.73682,-84.39347,
ROBBERY-PEDESTRIAN,162370436,08/24/2016,1030 CREW ST,304,Peoplestown,V,33.72677,-84.38918,
ROBBERY-PEDESTRIAN,162372661,08/24/2016,1071 CHATTAHOOCHEE AVE NW,204,Underwood Hills,D,33.80147,-84.4223,
ROBBERY-PEDESTRIAN,162372370,08/24/2016,2636 MARTIN L KING JR DR SW,405,Harland Terrace,I,33.75277,-84.47429,
ROBBERY-PEDESTRIAN,162362929,08/23/2016,132 JOSEPH E LOWERY BLVD NW,105,Washington Park,K,33.75871,-84.41774,
ROBBERY-PEDESTRIAN,162362897,08/23/2016,871 PINEHURST TER SW,402,Oakland City,S,33.73137,-84.43188,
ROBBERY-PEDESTRIAN,162362760,08/23/2016,3221 MARTIN L KING JR DR NW,111,,I,33.75284,-84.49256,
ROBBERY-RESIDENCE,162360363,08/23/2016,1930 FLAT SHOALS RD SE,612,East Atlanta,W,33.72852,-84.32493,
ROBBERY-PEDESTRIAN,162360457,08/23/2016,2500 CENTER ST NW @ETHERIDGE COURT APT,113,Carey Park,G,33.79088,-84.4723,
ROBBERY-COMMERCIAL,162362447,08/23/2016,825 MARTIN L KING JR DR NW @METRO PCS,102,Vine City,L,33.75488,-84.41378,
ROBBERY-PEDESTRIAN,162361088,08/23/2016,1999 PRYOR RD SW,307,Lakewood Heights,Y,33.70007,-84.39946,
AGG ASSAULT,162361926,08/23/2016,2591 ETHERIDGE DR NW,113,Carey Park,G,33.7881,-84.47292,
ROBBERY-RESIDENCE,162362307,08/23/2016,1695 PRYOR RD SW,307,Betmar LaVilla,Y,33.7084,-84.39506,
AGG ASSAULT,162362184,08/23/2016,351 S BEND AVE SE,307,Lakewood Heights,Y,33.70432,-84.37693,
AGG ASSAULT,162361554,08/23/2016,680 NEW TOWN CIR SE,308,Thomasville Heights,Z,33.7082,-84.36129,
AGG ASSAULT,162352791,08/23/2016,882 DILL AVE SW,301,Capitol View,X,33.71831,-84.4171,
AGG ASSAULT,162361656,08/23/2016,856 WINDSOR ST SW,303,Mechanicsville,V,33.73152,-84.39725,
AGG ASSAULT,162362862,08/23/2016,3793 LEESBURG CT SW,407,Wisteria Gardens,H,33.75561,-84.51179,
AGG ASSAULT,162360067,08/23/2016,2764 MANGO CIR NW,113,Monroe Heights,G,33.79597,-84.47992,
AGG ASSAULT,162360488,08/23/2016,3 LIVERMORE ST SE,307,Lakewood Heights,Y,33.70815,-84.37968,
AGG ASSAULT,162362645,08/23/2016,309 EDGEWOOD AVE SE @FIRE STATION 4,604,Sweet Auburn,M,33.75418,-84.37733,
AGG ASSAULT,162360797,08/23/2016,1813 SYLVAN RD SW,306,Sylvan Hills,X,33.70544,-84.41832,
BURGLARY-RESIDENCE,162361733,08/23/2016,155 CHAPPELL RD NW,105,Hunter Hills,K,33.75898,-84.43332,
BURGLARY-RESIDENCE,162361824,08/23/2016,3350 MOUNT GILEAD RD SW,409,Southwest,R,33.69757,-84.49871,
BURGLARY-RESIDENCE,162361830,08/23/2016,349 DECATUR ST SE,604,Sweet Auburn,M,33.74988,-84.37788,
BURGLARY-RESIDENCE,162361774,08/23/2016,384 16TH ST NW,501,Home Park,E,33.78937,-84.39923,
BURGLARY-RESIDENCE,162361150,08/23/2016,290 POLAR ROCK RD SW ,310,Polar Rock,Z,33.69714,-84.39905,
BURGLARY-RESIDENCE,162360295,08/23/2016,214 COLONIAL HOMES DR NW,205,Colonial Homes,C,33.81392,-84.39454,
BURGLARY-RESIDENCE,162360817,08/23/2016,224 RACINE ST SW,104,Mozley Park,K,33.74909,-84.44107,
BURGLARY-RESIDENCE,162361283,08/23/2016,887 CRESTWELL CIR SW,407,Mays,H,33.74514,-84.50232,
BURGLARY-RESIDENCE,162362501,08/23/2016,736 CELESTE LN SW,407,Mays,H,33.74194,-84.50561,
BURGLARY-RESIDENCE,162361363,08/23/2016,300 GLENN STREET SW,303,Mechanicsville,V,33.73797,-84.39772,
BURGLARY-NONRES,162360918,08/23/2016,3520 PIEDMONT RD NE,208,Buckhead Forest,B,33.85033,-84.37846,
BURGLARY-NONRES,162360741,08/23/2016,3379 MARTIN L KING JR DR NW,111,Adamsville,H,33.75499,-84.49826,
BURGLARY-RESIDENCE,162362303,08/23/2016,768 BROOKRIDGE DR NE,601,Virginia Highland,F,33.78617,-84.36214,
BURGLARY-RESIDENCE,162361474,08/23/2016,520 PARK VALLEY DR NW,109,Center Hill,J,33.76915,-84.46282,
BURGLARY-RESIDENCE,162362671,08/23/2016,654 ELBRIDGE DR NW,106,,J,33.7731,-84.43252,
LARCENY-NON VEHICLE,162362579,08/23/2016,506 MORELAND AVE NE,602,Inman Park,N,33.76813,-84.34952,
LARCENY-NON VEHICLE,162361527,08/23/2016,3334 PEACHTREE RD NE @ONE BUCKHEAD LOOP,208,North Buckhead,B,33.84911,-84.37075,
LARCENY-NON VEHICLE,162362205,08/23/2016,3730 CARMIA DR SW ,414,Princeton Lakes,P,33.65573,-84.5109,
LARCENY-NON VEHICLE,162360120,08/23/2016,635 LINDBERGH DR NE,211,Lindbergh/Morosgo,B,33.8213,-84.36689,
LARCENY-NON VEHICLE,162360224,08/23/2016,1720 MARTIN L KING JR DR SW,104,Mozley Park,K,33.75083,-84.44341,
LARCENY-NON VEHICLE,162360364,08/23/2016,1683 LAKEWOOD AVE SE,307,Lakewood Heights,Y,33.7083,-84.38035,
LARCENY-NON VEHICLE,162360828,08/23/2016,305 JOSEPH E LOWERY BLVD NW,102,Vine City,L,33.763,-84.41736,
LARCENY-NON VEHICLE,162362413,08/23/2016,1104 MORELAND AVE SE,607,East Atlanta,W,33.7246,-84.34932,
LARCENY-NON VEHICLE,162362450,08/23/2016,3393 PEACHTREE RD NE @LENOX MALL,210,Lenox,B,33.84676,-84.36212,
LARCENY-NON VEHICLE,162361418,08/23/2016,2525 PIEDMONT RD NE @HOME DEPOT,211,Lindbergh/Morosgo,B,33.824,-84.36521,
LARCENY-NON VEHICLE,162361752,08/23/2016,520 BOULEVARD SE,605,Grant Park,W,33.7407,-84.36764,
LARCENY-NON VEHICLE,162362115,08/23/2016,1275 CAROLINE ST NE @TARGET - CAROLINE,609,Edgewood,O,33.75674,-84.34619,
LARCENY-NON VEHICLE,162361358,08/23/2016,2221 PEACHTREE RD NE,211,,E,33.81509,-84.39149,
LARCENY-NON VEHICLE,162362749,08/23/2016,2539 PIEDMONT RD NE @TARGET - PIEDMONT,211,Lindbergh/Morosgo,B,33.82403,-84.36328,
LARCENY-NON VEHICLE,162362964,08/23/2016,3393 PEACHTREE RD NE @LENOX MALL,210,Lenox,B,33.84676,-84.36212,
LARCENY-NON VEHICLE,162362795,08/23/2016,2841 GREENBRIAR PKWY SW @GREENBRIAR MALL,411,Greenbriar,R,33.68677,-84.49773,
LARCENY-NON VEHICLE,162362863,08/23/2016,2539 PIEDMONT RD,211,Lindbergh/Morosgo,B,33.82403,-84.36328,
LARCENY-NON VEHICLE,162362722,08/23/2016,3500 PEACHTREE RD NE @PHIPPS PLAZA,208,North Buckhead,B,33.85302,-84.36278,
LARCENY-NON VEHICLE,162361597,08/23/2016,3393 PEACHTREE RD RD,210,Lenox,B,33.84676,-84.36212,
LARCENY-FROM VEHICLE,162361241,08/23/2016,1731 CASCADE TER SW,404,Cascade Avenue/Road,S,33.72831,-84.44409,
LARCENY-FROM VEHICLE,162362561,08/23/2016,2591 PIEDMONT RD NE,211,Lindbergh/Morosgo,B,33.82494,-84.36684,
LARCENY-FROM VEHICLE,162361771,08/23/2016,275 COLLIER RD NW,207,,E,33.80841,-84.39752,
LARCENY-FROM VEHICLE,162362505,08/23/2016,2689 SHARONDALE DR NE,206,Garden Hills,B,33.82778,-84.36974,
LARCENY-NON VEHICLE,162362469,08/23/2016,250 GEORGIA AVE SE @GEORGIA HILL BRANCH,605,Grant Park,W,33.73682,-84.37945,
LARCENY-NON VEHICLE,162362284,08/23/2016,415 ARMOUR DR,212,,F,33.81267,-84.37412,
LARCENY-NON VEHICLE,162361716,08/23/2016,2350 CHESHIRE BRIDGE RD NE,212,Lindridge/Martin Manor,F,33.81914,-84.3515,
LARCENY-NON VEHICLE,162362396,08/23/2016,28 WALTON ST NW,511,Downtown,M,33.75432,-84.38978,
LARCENY-FROM VEHICLE,162362852,08/23/2016,609 VIRGINIA AVE NE @TROLLEY SQUARE,601,Virginia Highland,F,33.78122,-84.36635,
LARCENY-FROM VEHICLE,162362989,08/23/2016,979 LANIER BLVD NE,601,Virginia Highland,F,33.78144,-84.35244,
LARCENY-FROM VEHICLE,162363019,08/23/2016,1950 RAMBLING DR SW,306,Sylvan Hills,X,33.70135,-84.4062,
LARCENY-FROM VEHICLE,162363032,08/23/2016,1080 EUCLID AVE NE @MURPHY HIGH SCHOOL,602,Inman Park,N,33.76448,-84.35193,
LARCENY-FROM VEHICLE,162363108,08/23/2016,1164 ALTA AVE NE,602,Inman Park,N,33.76084,-84.34997,
LARCENY-FROM VEHICLE,162361509,08/23/2016,462 HOOPER ST SE,611,East Lake,O,33.73984,-84.29086,
LARCENY-FROM VEHICLE,162361610,08/23/2016,930 HOWELL MILL RD NW,501,Home Park,E,33.77987,-84.41063,
LARCENY-FROM VEHICLE,162361616,08/23/2016,3601 MARTIN L KING JR DR NW,111,Adamsville,H,33.76011,-84.50557,
LARCENY-FROM VEHICLE,162361635,08/23/2016,1495 CHATTAHOOCHEE AVE,204,Underwood Hills,D,33.80887,-84.43622,
LARCENY-FROM VEHICLE,162361677,08/23/2016,1071 CHATTAHOOCHEE AVE,204,Underwood Hills,D,33.80147,-84.4223,
LARCENY-FROM VEHICLE,162361894,08/23/2016,625 LAMBERT ST NW,103,English Avenue,L,33.77096,-84.40411,
LARCENY-FROM VEHICLE,162361916,08/23/2016,100 GREENSFERRY AVE SW,101,,T,33.74714,-84.41106,
LARCENY-FROM VEHICLE,162361937,08/23/2016,1455 ELLSWORTH INDUSTRIAL BLVD NW,203,Blandtown,D,33.79579,-84.42575,
LARCENY-FROM VEHICLE,162361417,08/23/2016,178 MOURY AVE SW,305,The Villages at Carver,Y,33.71347,-84.39079,
LARCENY-FROM VEHICLE,162361096,08/23/2016,2309 CARVER DR NW,108,Dixie Hills,J,33.76018,-84.46322,
LARCENY-FROM VEHICLE,162361249,08/23/2016,1730 TAYLOR ST NW,204,Underwood Hills,D,33.80171,-84.42123,
LARCENY-FROM VEHICLE,162361348,08/23/2016,2345 ADAMS DR NW,203,Bolton,D,33.81881,-84.45333,
LARCENY-FROM VEHICLE,162361218,08/23/2016,1319 PASADENA AVE NE,213,Morningside/Lenox Park,F,33.79856,-84.34353,
LARCENY-FROM VEHICLE,162360557,08/23/2016,187 MOURY AVE SW,305,The Villages at Carver,Y,33.71449,-84.39138,
LARCENY-FROM VEHICLE,162360593,08/23/2016,790 HUFF RD NW,203,Blandtown,D,33.78768,-84.41319,
LARCENY-FROM VEHICLE,162360620,08/23/2016,937 GLEN ARDEN WAY NE,601,Virginia Highland,F,33.78472,-84.35655,
LARCENY-FROM VEHICLE,162360668,08/23/2016,144 MORELAND AVE NE,606,Reynoldstown,N,33.75736,-84.3496,
LARCENY-FROM VEHICLE,162360759,08/23/2016,2115 PIEDMONT RD NE,212,Morningside/Lenox Park,F,33.81235,-84.36578,
LARCENY-FROM VEHICLE,162360508,08/23/2016,238 S COLONIAL HOMES CIR,205,Ben Hill,P,33.67112,-84.51528,
LARCENY-FROM VEHICLE,162360997,08/23/2016,957 N HIGHLAND AVE NE,601,Virginia Highland,F,33.78067,-84.35357,
LARCENY-FROM VEHICLE,162360503,08/23/2016,1101 ROSEWOOD DR NE,601,Virginia Highland,F,33.78553,-84.35099,
LARCENY-FROM VEHICLE,162361440,08/23/2016,3050 MARTIN L KING JR DR SW,405,Harland Terrace,I,33.75237,-84.48653,
LARCENY-FROM VEHICLE,162360934,08/23/2016,1228 STATE ST NW,501,Home Park,E,33.78833,-84.399,
LARCENY-FROM VEHICLE,162360439,08/23/2016,762 COURTENAY DR NE,213,Morningside/Lenox Park,F,33.79053,-84.36177,
LARCENY-FROM VEHICLE,162360528,08/23/2016,545 OVERBROOK DR NW,205,Collier Hills,C,33.81266,-84.40575,
AUTO THEFT,162362812,08/23/2016,1114 OAKLAND DR SW,403,Oakland City,S,33.72458,-84.42711,
AUTO THEFT,162362768,08/23/2016,3550 CAMPBELLTON RD SW,413,,P,33.68984,-84.50491,
AUTO THEFT,162362681,08/23/2016,30 HAYGOOD AVE SW @FOUR CORNERS PARK,304,Peoplestown,V,33.72645,-84.38851,
AUTO THEFT,162360380,08/23/2016,3260 DONALD LEE HOLLOWELL PKWY NW,114,Bankhead/Bolton,H,33.78735,-84.49452,
AUTO THEFT,162360001,08/23/2016,2365 PEACHTREE RD NE @PUBLIX - PEACH BAT,211,Peachtree Hills,B,33.82002,-84.38776,
AUTO THEFT,162362134,08/23/2016,501 PULLIAM ST SW,303,Mechanicsville,V,33.74038,-84.39273,
AUTO THEFT,162360240,08/23/2016,599 WHITEHALL ST SW,303,Pittsburgh,V,33.74277,-84.40756,
LARCENY-NON VEHICLE,162362276,08/23/2016,460 E LAKE BLVD SE,611,The Villages at East Lake,O,33.74072,-84.31311,
AUTO THEFT,162362928,08/23/2016,3393 PEACHTREE RD NE @LENOX MALL,210,Lenox,B,33.84676,-84.36212,
AUTO THEFT,162352483,08/22/2016,3755 CARMIA DR SW,414,Princeton Lakes,P,33.65571,-84.50908,
AUTO THEFT,162352084,08/22/2016,827 FRASER ST,304,Summerhill,V,33.73176,-84.38793,
AUTO THEFT,162351362,08/22/2016,2880 RENFRO DR NW,112,Collier Heights,I,33.76782,-84.47208,
AUTO THEFT,162350094,08/22/2016,608 14TH ST NW,501,Home Park,E,33.78578,-84.40707,
AUTO THEFT,162351719,08/22/2016,2251 MARIETTA BLVD NW ,203,,C,33.81831,-84.44881,
AUTO THEFT,162351114,08/22/2016,1259 EPWORTH ST SW,403,Venetian Hills,S,33.72066,-84.43107,
AUTO THEFT,162350964,08/22/2016,499 NORTHSIDE CIR NW,207,Loring Heights,E,33.79742,-84.40671,
AUTO THEFT,162350417,08/22/2016,3901 CAMPBELLTON RD SW,412,Kings Forest,P,33.69231,-84.51621,
AUTO THEFT,162342346,08/22/2016,3601 SW 3601 MARTIN LUTHER KING JR DR SW,111,Adamsville,H,33.75703,-84.50073,
AUTO THEFT,162353004,08/22/2016,109 BROMACK DR SE,310,Browns Mill Park,Z,33.68876,-84.38695,
AUTO THEFT,162352841,08/22/2016,40 ELLIS ST NE,510,Downtown,M,33.75849,-84.3858,
AUTO THEFT,162352782,08/22/2016,675 METROPOLITAN PKWY SW,301,Adair Park,V,33.73657,-84.40824,
AUTO THEFT,162352704,08/22/2016,3113 CAMPBELLTON RD SW,409,Southwest,R,33.69261,-84.49098,
AUTO THEFT,162352553,08/22/2016,2800 MARTIN L KING JR DR SW,405,Harland Terrace,I,33.75408,-84.47582,
AUTO THEFT,162352133,08/22/2016,1829 VENETIAN DR SW,408,Venetian Hills,S,33.71495,-84.44766,
LARCENY-FROM VEHICLE,162352543,08/22/2016,1371 KIMBERLY WAY SW,412,Ashley Courts,P,33.71771,-84.52315,
LARCENY-FROM VEHICLE,162351826,08/22/2016,1816 PEACHTREE RD NW,207,Brookwood Hills,E,33.80565,-84.39391,
LARCENY-FROM VEHICLE,162352572,08/22/2016,1820 PEACHTREE RD NW,207,Ardmore,E,33.80482,-84.39407,
LARCENY-FROM VEHICLE,162352692,08/22/2016,298 15TH ST NE,502,Ansley Park,E,33.78835,-84.37758,
LARCENY-FROM VEHICLE,162352858,08/22/2016,623 MORELAND AVE NE,608,Candler Park,N,33.7714,-84.34885,
LARCENY-FROM VEHICLE,162352892,08/22/2016,128 E ANDREWS DR NW,206,South Tuxedo Park,B,33.84251,-84.38311,
LARCENY-FROM VEHICLE,162352981,08/22/2016,3760 PRINCETON LAKES PKWY SW,414,Princeton Lakes,P,33.65806,-84.51051,
LARCENY-FROM VEHICLE,162352330,08/22/2016,3 FAIRLIE ST NW,511,Downtown,M,33.75527,-84.39232,
LARCENY-FROM VEHICLE,162350514,08/22/2016,2219 FAULKNER RD NE,212,Lindridge/Martin Manor,F,33.8128,-84.35877,
LARCENY-FROM VEHICLE,162350640,08/22/2016,881 FORREST CIR SE,313,South River Gardens,Z,33.67081,-84.35988,
LARCENY-FROM VEHICLE,162350719,08/22/2016,4585 REGENCY TRCE SW,412,Regency Trace,Q,33.70853,-84.53806,
LARCENY-FROM VEHICLE,162350818,08/22/2016,3600 PINE FOREST DRIVE SE,313,South River Gardens,Z,33.65631,-84.35375,
LARCENY-FROM VEHICLE,162350829,08/22/2016,115 W PEACHTREE PL NW,508,Downtown,M,33.7644,-84.39083,
LARCENY-FROM VEHICLE,162351831,08/22/2016,3658 ROSWELL RD NW,202,Tuxedo Park,A,33.85475,-84.38297,
LARCENY-FROM VEHICLE,162350121,08/22/2016,1185 COLLIER RD NW @GEORGIAN HILLS APTS,204,,C,33.81265,-84.42465,
LARCENY-FROM VEHICLE,162351812,08/22/2016,76 AIRLINE ST NE,604,Old Fourth Ward,M,33.75639,-84.36709,
LARCENY-FROM VEHICLE,162351845,08/22/2016,2001 SANDCREEK DR SW,412,Sandlewood Estates,P,33.70119,-84.54607,
LARCENY-FROM VEHICLE,162351906,08/22/2016,435 BOLTON RD NW,114,Fairburn Heights,H,33.76597,-84.5095,
LARCENY-FROM VEHICLE,162351911,08/22/2016,2809 PEACHTREE RD NE,206,Garden Hills,B,33.83157,-84.38498,
LARCENY-FROM VEHICLE,162352167,08/22/2016,240 NORTH AVE NE,505,Midtown,E,33.77134,-84.37932,
LARCENY-FROM VEHICLE,162352199,08/22/2016,365 CLEVELAND AVE SE @SOUTHEAST ATLANTA,312,Rosedale Heights,Z,33.67953,-84.37899,
LARCENY-FROM VEHICLE,162352300,08/22/2016,3393 PEACHTREE RD NE @LENOX MALL,210,Lenox,B,33.84676,-84.36212,
LARCENY-FROM VEHICLE,162350875,08/22/2016,376 CANDLER PARK DR NE,608,Candler Park,N,33.7645,-84.34015,
LARCENY-FROM VEHICLE,162350860,08/22/2016,29 WARREN ST SE,610,Kirkwood,O,33.75246,-84.3265,
LARCENY-FROM VEHICLE,162350028,08/22/2016,1061 HOWELL MILL RD NW,501,Home Park,E,33.78382,-84.4112,
LARCENY-FROM VEHICLE,162350125,08/22/2016,925 BOWEN ST NW,207,Berkeley Park,D,33.79722,-84.41797,
LARCENY-FROM VEHICLE,162351378,08/22/2016,1061 LEE ST SW,402,Oakland City,S,33.7258,-84.41957,
LARCENY-FROM VEHICLE,162351410,08/22/2016,180 UNIVERSITY AVE,307,Peoplestown,V,33.7218,-84.39327,
LARCENY-FROM VEHICLE,162351609,08/22/2016,1587 HOWELL MILL RD NW,207,Berkeley Park,D,33.79835,-84.41575,
LARCENY-FROM VEHICLE,162351725,08/22/2016,1240 MENLO DR NW,203,Blandtown,D,33.78834,-84.42458,
LARCENY-FROM VEHICLE,162351750,08/22/2016,89 MANGUM ST SW,507,Castleberry Hill,M,33.75198,-84.40045,
LARCENY-FROM VEHICLE,162351788,08/22/2016,201 MOURY AVE SW,305,The Villages at Carver,Y,33.71691,-84.39276,
LARCENY-FROM VEHICLE,162351081,08/22/2016,4017 MELVIN DR SW,412,,P,33.70847,-84.51994,
LARCENY-FROM VEHICLE,162351228,08/22/2016,1740 PEACHTREE ST NW,207,Brookwood,E,33.8016,-84.39336,
LARCENY-FROM VEHICLE,162350854,08/22/2016,1143 JOSEPH E BOONE BLVD NW,106,Bankhead,K,33.7636,-84.42524,
LARCENY-FROM VEHICLE,162351000,08/22/2016,446 HOPKINS ST SW,401,West End,T,33.74301,-84.43032,
LARCENY-FROM VEHICLE,162351051,08/22/2016,320 W PEACHTREE ST NW,508,Downtown,M,33.76312,-84.38787,
LARCENY-FROM VEHICLE,162351279,08/22/2016,100 10TH ST NW,503,Midtown,E,33.78095,-84.39033,
LARCENY-FROM VEHICLE,162350934,08/22/2016,396 LINDEN AVE NE,603,Old Fourth Ward,M,33.76998,-84.37408,
LARCENY-FROM VEHICLE,162350111,08/22/2016,1123 TUMLIN ST NW,501,Home Park,E,33.7854,-84.40046,
LARCENY-NON VEHICLE,162351403,08/22/2016,2696 LOGHAVEN DR NW,112,Collier Heights,I,33.76003,-84.47599,
LARCENY-NON VEHICLE,162351181,08/22/2016,900 JOSEPH E BOONE BLVD NW,102,Vine City,L,33.76337,-84.41688,
LARCENY-NON VEHICLE,162352224,08/22/2016,822 GLENDALE TER NE,506,Midtown,E,33.77701,-84.37671,
LARCENY-NON VEHICLE,162352248,08/22/2016,1631 ALVARADO TER SW,404,Westview,T,33.73408,-84.4411,
LARCENY-NON VEHICLE,162321233,08/22/2016,685 CLIFTON RD SE,612,East Atlanta,W,33.7354,-84.33025,
LARCENY-NON VEHICLE,162351483,08/22/2016,1355 RALPH D ABERNATHY BLVD SW,401,West End,T,33.7394,-84.43203,
LARCENY-NON VEHICLE,162358020,08/22/2016,9700 SPINE RD,703,,,33.64065,-84.43591,
LARCENY-NON VEHICLE,161941089,08/22/2016,741 BROOKLINE ST,301,Adair Park,V,33.72568,-84.41023,
LARCENY-NON VEHICLE,162351620,08/22/2016,887 W MARIETTA ST NW,103,English Avenue,L,33.78182,-84.41638,
LARCENY-NON VEHICLE,162352265,08/22/2016,2409 PIEDMONT RD NE,211,Lindbergh/Morosgo,B,33.82093,-84.36741,
LARCENY-NON VEHICLE,162351976,08/22/2016,2420 PIEDMONT RD RD,211,Lindbergh/Morosgo,B,33.82098,-84.3685,
LARCENY-FROM VEHICLE,162352449,08/22/2016,2339 BAKER RD NW,109,Center Hill,J,33.76986,-84.4638,
LARCENY-FROM VEHICLE,162352262,08/22/2016,576 W END PL SW,401,West End,T,33.73942,-84.42459,
LARCENY-FROM VEHICLE,162350736,08/22/2016,1700 COUNTY LINE RD SW,412,,Q,33.70687,-84.53581,
LARCENY-NON VEHICLE,162352523,08/22/2016,392 PARKWAY DR NE,603,Old Fourth Ward,M,33.76511,-84.37389,
LARCENY-NON VEHICLE,162352721,08/22/2016,595 PIEDMONT AVE NE @PUBLIX - PIEDMONT,603,Old Fourth Ward,M,33.77067,-84.38023,
LARCENY-NON VEHICLE,162350400,08/22/2016,761 SIDNEY MARCUS BLVD NE @QUICK TRIP - SIDNEY,211,Lindbergh/Morosgo,B,33.82545,-84.36218,
LARCENY-NON VEHICLE,162352358,08/22/2016,50 ALABAMA ST SW,511,Downtown,M,33.75194,-84.38964,
LARCENY-NON VEHICLE,162352882,08/22/2016,590 CASCADE AVE SW @KROGER - CASCADE,402,West End,T,33.73812,-84.43276,
LARCENY-NON VEHICLE,162351964,08/22/2016,1105 RESEARCH CENTER ATL DR SW,406,,,33.72835,-84.5079,
LARCENY-NON VEHICLE,162342164,08/22/2016,466 EDGEWOOD AVE,604,Old Fourth Ward,M,33.7543,-84.37215,
LARCENY-NON VEHICLE,162342176,08/22/2016,3390 STRATFORD RD,208,North Buckhead,B,33.849,-84.36673,
BURGLARY-NONRES,162351814,08/22/2016,3285 PEACHTREE RD NE,208,Peachtree Park,B,33.84481,-84.36924,
BURGLARY-RESIDENCE,162351633,08/22/2016,4213 PEACHTREE PARK DR NE,207,,E,33.81384,-84.38965,
BURGLARY-RESIDENCE,162352681,08/22/2016,2745 OLD HAPEVILLE RD SW,311,Glenrose Heights,Z,33.67992,-84.39348,
BURGLARY-RESIDENCE,162350983,08/22/2016,960 CONSTITUTION RD SE,308,Norwood Manor,Z,33.69307,-84.35805,
BURGLARY-NONRES,162351425,08/22/2016,1935 ALISON CT SW @FRANCISCAN CLUB APT,410,Campbellton Road,R,33.70045,-84.45381,
BURGLARY-RESIDENCE,162350589,08/22/2016,1247 JOSEPH E BOONE BLVD NW,106,Bankhead,K,33.76361,-84.42842,
BURGLARY-RESIDENCE,162352693,08/22/2016,1331 GRANT ST SE,305,Chosewood Park,Y,33.7185,-84.37706,
BURGLARY-NONRES,162350924,08/22/2016,425 LANGHORN ST SW,401,Westview,T,33.74363,-84.43301,
BURGLARY-NONRES,162350742,08/22/2016,2591 PIEDMONT RD NE,211,Lindbergh/Morosgo,B,33.82494,-84.36684,
BURGLARY-NONRES,162350937,08/22/2016,1833 DELOWE DR SW,410,Campbellton Road,R,33.7048,-84.4578,
BURGLARY-NONRES,162351076,08/22/2016,55 MAPLE ST NW,102,Vine City,L,33.75569,-84.40528,
BURGLARY-NONRES,162352393,08/22/2016,3182 ROSWELL RD NW,206,South Tuxedo Park,B,33.84215,-84.37968,
BURGLARY-NONRES,162350551,08/22/2016,1983 DELOWE DR SW @BRICKWOOD APTS,410,Campbellton Road,R,33.70046,-84.45775,
BURGLARY-NONRES,162350539,08/22/2016,60 W PEACHTREE PL NW,508,Downtown,M,33.76392,-84.38919,
BURGLARY-RESIDENCE,162351839,08/22/2016,3725 PRINCETON LAKES PKWY SW,414,Princeton Lakes,P,33.65777,-84.50877,
BURGLARY-RESIDENCE,162350928,08/22/2016,504 HOLDERNESS ST SW,401,West End,T,33.7413,-84.42688,
BURGLARY-RESIDENCE,162351286,08/22/2016,2426 PRAIRIE VIEW DR SW,405,Florida Heights,I,33.74702,-84.46747,
BURGLARY-RESIDENCE,162352190,08/22/2016,3725 PRINCETON LAKES PKWY SW,414,Princeton Lakes,P,33.65777,-84.50877,
BURGLARY-RESIDENCE,162351679,08/22/2016,771 LINDBERGH DR NE,211,Lindbergh/Morosgo,B,33.82055,-84.36241,
BURGLARY-RESIDENCE,162351899,08/22/2016,3871 REDWINE RD SW,414,Princeton Lakes,P,33.66005,-84.50994,
BURGLARY-RESIDENCE,162351767,08/22/2016,833 N GRAND AVE NW,109,Center Hill,J,33.77786,-84.46209,
AGG ASSAULT,162352274,08/22/2016,255 CLIFTON RD,610,Kirkwood,O,33.74634,-84.33198,
AGG ASSAULT,162350750,08/22/2016,1415 HAWKINS ST NW,105,Hunter Hills,K,33.76228,-84.43448,
AGG ASSAULT,162351699,08/22/2016,2444 FORREST PARK RD SE,308,Rebel Valley Forest,Z,33.68706,-84.35977,
AGG ASSAULT,162350567,08/22/2016,2745 OLD HAPEVILLE RD SW,311,Glenrose Heights,Z,33.67992,-84.39348,
AGG ASSAULT,162351092,08/22/2016,2170 CAMPBELLTON RD SW,410,Campbellton Road,R,33.70551,-84.45978,
AGG ASSAULT,162351925,08/22/2016,2190 VERBENA ST,109,Dixie Hills,J,33.7551,-84.4601,
AGG ASSAULT,162352755,08/22/2016,400 17TH ST,501,Atlantic Station,E,33.78949,-84.40165,
AGG ASSAULT,162352612,08/22/2016,3910 MELVIN DR SW,412,Kings Forest,P,33.70752,-84.51603,
AGG ASSAULT,162352639,08/22/2016,964 RALPH D ABERNATHY BLVD SW,401,West End,T,33.73773,-84.41962,
AGG ASSAULT,162352643,08/22/2016,96 THIRKELD AVE SE,305,South Atlanta,Y,33.71474,-84.38515,
AGG ASSAULT,162350349,08/22/2016,878 WOODROW ST SW,301,Oakland City,S,33.72414,-84.41626,
ROBBERY-PEDESTRIAN,162351882,08/22/2016,2630 MARTIN L KING JR DR SW,405,Harland Terrace,I,33.75377,-84.47405,
ROBBERY-COMMERCIAL,162352608,08/22/2016,1167 JOSEPH E BOONE BLVD NW,106,Bankhead,K,33.76378,-84.42565,
ROBBERY-COMMERCIAL,162351217,08/22/2016,2841 GREENBRIAR PKWY SW,411,Greenbriar,R,33.68677,-84.49773,
ROBBERY-PEDESTRIAN,162352022,08/22/2016,3041 LANDRUM DR SW,409,Southwest,R,33.7078,-84.48774,
ROBBERY-PEDESTRIAN,162350590,08/22/2016,180 PONCE DE LEON AVE NE,505,Midtown,E,33.77285,-84.38149,
ROBBERY-PEDESTRIAN,162341631,08/21/2016,35 CLEVELAND AVE SW,310,Browns Mill Park,Z,33.68141,-84.38999,
ROBBERY-PEDESTRIAN,162342099,08/21/2016,1117 LEE ST SW,402,Oakland City,S,33.72459,-84.42107,
ROBBERY-PEDESTRIAN,162342324,08/21/2016,65 JOSEPH E LOWERY BLVD NW @ASHBY MARTA STATION,102,Vine City,L,33.75644,-84.41736,
HOMICIDE,162341798,08/21/2016,1770 RICHMOND CIR SE,307,Lakewood Heights,Y,33.70695,-84.37414,
ROBBERY-PEDESTRIAN,162340517,08/21/2016,267 MARIETTA ST,512,Downtown,M,33.76071,-84.39469,
ROBBERY-PEDESTRIAN,162340548,08/21/2016,950 MARIETTA ST NW,504,Marietta Street Artery,E,33.77682,-84.40822,
ROBBERY-PEDESTRIAN,162342360,08/21/2016,2184 MARTIN L KING JR DR SW,108,Florida Heights,I,33.7526,-84.46294,
ROBBERY-PEDESTRIAN,162340434,08/21/2016,3200 STONE RD SW,411,Greenbriar,R,33.6697,-84.49403,
ROBBERY-PEDESTRIAN,162340175,08/21/2016,176 MILLS ST,504,Downtown,M,33.76522,-84.39328,
AGG ASSAULT,162340253,08/21/2016,57 13TH ST NE,503,Midtown,E,33.78553,-84.38569,
ROBBERY-PEDESTRIAN,162342157,08/21/2016,2480 SAINT PAUL AVE NW,113,Carey Park,G,33.78949,-84.46931,
ROBBERY-PEDESTRIAN,162342409,08/21/2016,119 MAYSON AVE NE,609,Edgewood,O,33.75666,-84.33834,
AGG ASSAULT,162340213,08/21/2016,50 HOLLY RD NW,105,West Lake,J,33.75639,-84.4381,
AGG ASSAULT,162340792,08/21/2016,1754 RICHMOND CIR SE,307,Lakewood Heights,Y,33.70698,-84.3745,
AGG ASSAULT,162342398,08/21/2016,1920 MOORES MILL RD NW,201,Ridgewood Heights,C,33.8225,-84.44904,
AGG ASSAULT,162340176,08/21/2016,1048 WASHINGTON ST SW,304,Peoplestown,V,33.72649,-84.39088,
AGG ASSAULT,162342019,08/21/2016,435 JOSEPH E LOWERY BLVD SW,104,Harris Chiles,T,33.74279,-84.41771,
AGG ASSAULT,162340364,08/21/2016,1145 MORLEY AVE SE,607,Boulevard Heights,W,33.72351,-84.36577,
AGG ASSAULT,162340819,08/21/2016,370 THOMASVILLE BLVD SE,308,Thomasville Heights,Z,33.70615,-84.35721,
BURGLARY-RESIDENCE,162341787,08/21/2016,200 PEYTON PL SW,405,Harland Terrace,I,33.7499,-84.47534,
BURGLARY-RESIDENCE,162341957,08/21/2016,1005 BALDWIN ST SW,104,Ashview Heights,T,33.74647,-84.42057,
BURGLARY-RESIDENCE,162342362,08/21/2016,1176 SELLS AVE SW,104,West End,T,33.745,-84.42612,
BURGLARY-RESIDENCE,162340454,08/21/2016,628 BOULEVARD NE,603,Old Fourth Ward,M,33.77201,-84.37169,
BURGLARY-RESIDENCE,162340043,08/21/2016,939 WASHINGTON ST,304,Peoplestown,V,33.72932,-84.39106,
BURGLARY-NONRES,162341018,08/21/2016,231 18TH ST NW,501,Atlantic Station,E,33.79249,-84.3954,
LARCENY-NON VEHICLE,162340052,08/21/2016,787 WINDSOR ST SW,303,Mechanicsville,V,33.73416,-84.39884,
LARCENY-NON VEHICLE,162341384,08/21/2016,415 FAIRBURN RD SW ,407,Fairburn Mays,H,33.74269,-84.51125,
LARCENY-NON VEHICLE,162341337,08/21/2016,3393 PEACHTREE RD NE,210,Lenox,B,33.84676,-84.36212,
LARCENY-NON VEHICLE,162341417,08/21/2016,2539 PIEDMONT RD NE @TARGET - PIEDMONT,211,Lindbergh/Morosgo,B,33.82403,-84.36328,
LARCENY-NON VEHICLE,162340957,08/21/2016,1801 HOWELL MILL RD NW,204,Berkeley Park,D,33.80388,-84.41278,
LARCENY-NON VEHICLE,162341636,08/21/2016,2975 HEADLAND DR SW @BIG LOTS - HEADLAND,411,Greenbriar,R,33.69168,-84.4872,
LARCENY-NON VEHICLE,162341470,08/21/2016,1723 LAKEWOOD AVE SE,307,Lakewood Heights,Y,33.70678,-84.38031,
LARCENY-NON VEHICLE,162341793,08/21/2016,230 CLEVELAND AVE SE,312,Rosedale Heights,Z,33.68075,-84.38217,
LARCENY-NON VEHICLE,162341522,08/21/2016,3495 BUCKHEAD LOOP NE,208,North Buckhead,B,33.85209,-84.3645,
LARCENY-NON VEHICLE,162341543,08/21/2016,3885 JONESBORO RD SE @HOME DEPOT,313,South River Gardens,Z,33.64883,-84.36584,
LARCENY-NON VEHICLE,162341944,08/21/2016,3393 PEACHTREE RD NE @LENOX MALL,210,Lenox,B,33.84676,-84.36212,
LARCENY-NON VEHICLE,162341351,08/21/2016,477 WILMER ST NE,603,Old Fourth Ward,M,33.7676,-84.36615,
LARCENY-FROM VEHICLE,162341325,08/21/2016,2040 PENELOPE ST NW,108,Penelope Neighbors,J,33.75267,-84.45228,
LARCENY-FROM VEHICLE,162340820,08/21/2016,15 BURBANK DR SW,105,Hunter Hills,K,33.75427,-84.42852,
LARCENY-FROM VEHICLE,162342046,08/21/2016,965 SELLS AVE SW,104,Harris Chiles,T,33.74601,-84.42093,
LARCENY-NON VEHICLE,162341863,08/21/2016,830 JOSEPH E LOWERY BLVD NW,106,Knight Park/Howell Station,K,33.77726,-84.41776,
LARCENY-NON VEHICLE,162341978,08/21/2016,2980 JONESBORO RD SE,313,South River Gardens,Z,33.67339,-84.37144,
LARCENY-NON VEHICLE,162340262,08/21/2016,3330 PIEDMONT RD NE,208,Buckhead Forest,B,33.84564,-84.37462,
LARCENY-FROM VEHICLE,162340916,08/21/2016,400 CENTRAL PARK PL NE,603,Old Fourth Ward,M,33.76602,-84.37815,
LARCENY-FROM VEHICLE,162341016,08/21/2016,2625  DELLWOOD DR NW,205,Peachtree Battle Alliance,C,33.82663,-84.40002,
LARCENY-FROM VEHICLE,162341051,08/21/2016,1093 WEST AVE SW,302,Pittsburgh,V,33.72494,-84.39593,
LARCENY-FROM VEHICLE,162341081,08/21/2016,2 7TH ST NE,505,Midtown,E,33.7788,-84.38703,
LARCENY-FROM VEHICLE,162341088,08/21/2016,3155 W ROXBORO RD NE,210,Pine Hills,B,33.84106,-84.35009,
LARCENY-FROM VEHICLE,162341121,08/21/2016,357 TERRY ST SE,605,Capitol Gateway,V,33.74523,-84.38483,
LARCENY-FROM VEHICLE,162340796,08/21/2016,743 LIBERTY COMMONS DR NW,102,Vine City,L,33.75615,-84.41602,
LARCENY-FROM VEHICLE,162342101,08/21/2016,1465 CHATTAHOOCHEE AVE NW,204,Underwood Hills,D,33.80787,-84.43494,
LARCENY-FROM VEHICLE,162342248,08/21/2016,1034 LENA ST NW,105,Washington Park,K,33.7564,-84.42248,
LARCENY-FROM VEHICLE,162342330,08/21/2016,1700 NORTHSIDE DR NW,207,Berkeley Park,D,33.80077,-84.40869,
LARCENY-FROM VEHICLE,162340152,08/21/2016,155 SNCC WAY SW,101,Atlanta University Center,T,33.75036,-84.41378,
LARCENY-FROM VEHICLE,162341225,08/21/2016,676 HIGHLAND AVE NE,604,Old Fourth Ward,M,33.76142,-84.36492,
LARCENY-FROM VEHICLE,162341298,08/21/2016,1735 DEFOOR PL NW,204,Underwood Hills,D,33.80224,-84.42161,
LARCENY-FROM VEHICLE,162341316,08/21/2016,1500 SOUTHLAND CIR NW,203,Hills Park,D,33.79918,-84.43166,
LARCENY-FROM VEHICLE,162341332,08/21/2016,3353 GREENBRIAR PKWY SW,413,,P,33.68409,-84.5012,
LARCENY-FROM VEHICLE,162341468,08/21/2016,2841 GREENBRIAR PKWY SW @GREENBRIAR MALL,411,Greenbriar,R,33.68677,-84.49773,
LARCENY-FROM VEHICLE,162341469,08/21/2016,1134 COLQUITT AVE NE,602,Inman Park,N,33.76457,-84.35028,
LARCENY-FROM VEHICLE,162340293,08/21/2016,502 FOUNDRY ST NW,102,Vine City,L,33.75902,-84.40386,
LARCENY-FROM VEHICLE,162341128,08/21/2016,58 6TH ST NE,505,Midtown,E,33.7775,-84.3853,
LARCENY-FROM VEHICLE,162340445,08/21/2016,49 BOULEVARD SE,604,Sweet Auburn,M,33.75275,-84.37186,
LARCENY-FROM VEHICLE,162340703,08/21/2016,1375 NORTHSIDE DR NW @SKYLINE MOTEL,207,Loring Heights,E,33.79209,-84.40677,
LARCENY-FROM VEHICLE,162340793,08/21/2016,905 WOODMERE DR NW,112,Collier Heights,I,33.77981,-84.48483,
LARCENY-FROM VEHICLE,162340795,08/21/2016,1007 EULALIA RD NE,210,Ridgedale Park,B,33.85213,-84.35452,
LARCENY-FROM VEHICLE,162341222,08/21/2016,1304 ALLENE AVE SW,301,Capitol View,X,33.7193,-84.41256,
LARCENY-FROM VEHICLE,162341739,08/21/2016,2410 CAMELLIA LN NE,211,Lindbergh/Morosgo,B,33.82162,-84.37153,
LARCENY-FROM VEHICLE,162341781,08/21/2016,1874 PEACHTREE RD NW,207,Ardmore,E,33.80624,-84.3944,
LARCENY-FROM VEHICLE,162341836,08/21/2016,3755 CARMIA DR SW,414,Princeton Lakes,P,33.65571,-84.50908,
LARCENY-FROM VEHICLE,162341880,08/21/2016,1963 HOWELL MILL RD NW       ,205,Channing Valley,C,33.8084,-84.41267,
LARCENY-FROM VEHICLE,162341886,08/21/2016,827 LYNN CIR SW,406,,I,33.73281,-84.48659,
LARCENY-FROM VEHICLE,162341969,08/21/2016,3460 KINGSBORO RD NE,210,Buckhead Heights,B,33.85019,-84.35765,
LARCENY-FROM VEHICLE,162341480,08/21/2016,871 PARSONS ST SW,101,Atlanta University Center,T,33.75099,-84.41617,
LARCENY-FROM VEHICLE,162340857,08/21/2016,1157 HUBBARD ST SW,302,Pittsburgh,V,33.72339,-84.40258,
LARCENY-FROM VEHICLE,162342182,08/21/2016,3833 PRINCETON LAKES CT SW,414,Princeton Lakes,P,33.65738,-84.51309,
LARCENY-FROM VEHICLE,162332666,08/21/2016,834 HANK AARON DR,304,Summerhill,V,33.73176,-84.38793,
AUTO THEFT,162341991,08/21/2016,445 CLEVELAND AVE SE,312,Rosedale Heights,Z,33.68149,-84.37152,
AUTO THEFT,162342333,08/21/2016,2 PORTER PLACE,508,Downtown,M,33.76478,-84.38752,
AUTO THEFT,162341159,08/21/2016,3378 GREENBRIAR PKWY SW,413,,P,33.68387,-84.50204,
AUTO THEFT,162341679,08/21/2016,974 ROSEDALE RD NE,601,Virginia Highland,F,33.78118,-84.34844,
AUTO THEFT,162341632,08/21/2016,2615 DONALD LEE HOLLOWELL PKWY NW,109,Center Hill,J,33.7762,-84.47236,
AUTO THEFT,162341513,08/21/2016,2060 PEACHTREE RD NW,207,,E,33.81115,-84.39289,
AUTO THEFT,162341007,08/21/2016,2637 OLD HAPEVILLE RD SW,310,Browns Mill Park,Z,33.68294,-84.39417,
AUTO THEFT,162340852,08/21/2016,780 FULTON TER SE,606,Reynoldstown,N,33.74895,-84.36176,
AUTO THEFT,162340497,08/21/2016,803 N HIGHLAND AVE NE,601,Atkins Park,F,33.7764,-84.35239,
AUTO THEFT,162340413,08/21/2016,1975 CAMPBELLTON RD,408,Cascade Avenue/Road,S,33.73358,-84.44205,
AUTO THEFT,162340303,08/21/2016,3071 DAWSON LN SW,414,Princeton Lakes,P,33.67134,-84.50928,
AUTO THEFT,162341010,08/21/2016,1257 HOLLY ST NW,501,Home Park,E,33.78912,-84.39568,
AUTO THEFT,162341243,08/21/2016,1965 RAMBLING DR SW,306,Sylvan Hills,X,33.70111,-84.40548,
AUTO THEFT,162332674,08/20/2016,3 JOSEPH E LOWERY BLVD,104,Ashview Heights,T,33.75459,-84.41766,
AUTO THEFT,162332525,08/20/2016,3000 CONTINENTAL COLONY PKWY SW,411,Greenbriar,R,33.68077,-84.4937,
AUTO THEFT,162332361,08/20/2016,3695 CASCADE RD SW,406,,,33.72531,-84.50923,
AUTO THEFT,162332229,08/20/2016,327 NELSON ST SW,507,Castleberry Hill,M,33.75163,-84.3986,
AUTO THEFT,162332152,08/20/2016,2662 OLDKNOW DR NW,112,Collier Heights,I,33.77155,-84.47456,
AUTO THEFT,162332568,08/20/2016,450 CAPITOL AVE,304,Summerhill,V,33.74188,-84.38779,
AUTO THEFT,162331225,08/20/2016,756 BELLEMEADE AVE NW,207,Berkeley Park,D,33.80019,-84.41308,
AUTO THEFT,162330322,08/20/2016,634 WHITEHALL ST SW,303,Adair Park,V,33.74179,-84.40844,
AUTO THEFT,162330104,08/20/2016,129 JAMES P BRAWLEY DR NW,102,Vine City,L,33.75822,-84.41247,
LARCENY-FROM VEHICLE,162332684,08/20/2016,634 WHITEHALL ST SW,303,Adair Park,V,33.74179,-84.40844,
LARCENY-FROM VEHICLE,162332363,08/20/2016,1858 LAKEWOOD TER SE,307,Lakewood Heights,Y,33.70287,-84.37984,
LARCENY-FROM VEHICLE,162331376,08/20/2016,691 JOHN WESLEY DOBBS AVE NE,604,Old Fourth Ward,M,33.75901,-84.36484,
LARCENY-FROM VEHICLE,162331003,08/20/2016,744 BONAVENTURE AVE NE,601,Virginia Highland,F,33.77489,-84.36108,
LARCENY-FROM VEHICLE,162331043,08/20/2016,2049 BROOKVIEW DR NW,205,Wildwood (NPU-C),C,33.81177,-84.41764,
LARCENY-FROM VEHICLE,162331067,08/20/2016,2038 SYLVAN RD SW,306,Sylvan Hills,X,33.6992,-84.41819,
LARCENY-FROM VEHICLE,162331156,08/20/2016,71 ELLIOTT ST SW @FIRE STATION 1,507,Castleberry Hill,M,33.75257,-84.39851,
LARCENY-FROM VEHICLE,162331242,08/20/2016,875 PARSONS ST SW,101,Atlanta University Center,T,33.75101,-84.41629,
LARCENY-FROM VEHICLE,162331327,08/20/2016,371 10TH ST NE,503,Midtown,E,33.78132,-84.37507,
LARCENY-FROM VEHICLE,162331330,08/20/2016,107 CHESTER AVE SE,606,Reynoldstown,N,33.75109,-84.35923,
LARCENY-FROM VEHICLE,162332094,08/20/2016,765 MCDAINEL STREET,302,Pittsburgh,V,33.72889,-84.3991,
LARCENY-FROM VEHICLE,162331334,08/20/2016,1357 SEABOARD INDUSTRIAL BLVD NW,204,Underwood Hills,D,33.80791,-84.43183,
LARCENY-FROM VEHICLE,162332069,08/20/2016,1359 ELLSWORTH INDUSTRIAL BLVD NW,203,Blandtown,D,33.79186,-84.4258,
LARCENY-FROM VEHICLE,162331385,08/20/2016,1400 DONALD LEE HOLLOWELL PKWY NW,106,Bankhead,K,33.77125,-84.43359,
LARCENY-FROM VEHICLE,162331715,08/20/2016,55 MAPLE ST NW,102,Vine City,L,33.75569,-84.40528,
LARCENY-FROM VEHICLE,162331800,08/20/2016,3833 PRINCETON LAKES CT SW,414,Princeton Lakes,P,33.65738,-84.51309,
LARCENY-FROM VEHICLE,162332402,08/20/2016,N HIGHLAND AVE NE / BLUE RIDGE AVE NE,602,Poncey-Highland,N,33.77243,-84.35252,
LARCENY-FROM VEHICLE,162331951,08/20/2016,2975 HEADLAND DR SW @BIG LOTS - HEADLAND,411,Greenbriar,R,33.69168,-84.4872,
LARCENY-FROM VEHICLE,162332197,08/20/2016,1737 S GORDON ST SW,404,Westview,T,33.74007,-84.44468,
LARCENY-FROM VEHICLE,162332198,08/20/2016,2765 BURTON RD NW,111,Westhaven,I,33.75617,-84.47842,
LARCENY-FROM VEHICLE,162332215,08/20/2016,950 GARIBALDI,302,Pittsburgh,V,33.73396,-84.40177,
LARCENY-FROM VEHICLE,162332756,08/20/2016,1350 SPRING ST NW,502,Midtown,E,33.79153,-84.38993,
LARCENY-FROM VEHICLE,162332548,08/20/2016,1327 BOULEVARD LORRAINE SW,409,Adams Park,R,33.71953,-84.45821,
LARCENY-FROM VEHICLE,162331803,08/20/2016,CAMP CREEK PKWY SW / CARMIA DR SW,414,Princeton Lakes,P,33.65488,-84.51022,
LARCENY-FROM VEHICLE,162331841,08/20/2016,825 MARTIN L KING JR DR NW @PUBLIX - MLK,102,Vine City,L,33.75488,-84.41378,
LARCENY-FROM VEHICLE,162332656,08/20/2016,1253 OAK GROVE AVE SE,612,East Atlanta,W,33.74278,-84.34657,
LARCENY-FROM VEHICLE,162330924,08/20/2016,355 ASHBURTON AVE SE,611,East Lake,O,33.74287,-84.2936,
LARCENY-FROM VEHICLE,162332773,08/20/2016,1380 ATLANTIC DR NW @PUBLIX - ATLANTIC,501,Atlantic Station,E,33.79282,-84.39779,
LARCENY-NON VEHICLE,162331275,08/20/2016,2334 LEILA LN SE,308,Leila Valley,Z,33.69034,-84.35478,
LARCENY-NON VEHICLE,162331312,08/20/2016,565 SAINT JOHNS AVE SW,306,Sylvan Hills,X,33.69929,-84.40751,
LARCENY-NON VEHICLE,162331208,08/20/2016,3342 PEACHTREE RD NE,208,North Buckhead,B,33.84746,-84.36983,
LARCENY-FROM VEHICLE,162330946,08/20/2016,911 REBEL FOREST DR SE,308,Rebel Valley Forest,Z,33.68774,-84.35974,
