UC2_Literal,Report Number,Report Date,Location,Beat,Neigborhood,NPU,Lat,Long,
ROBBERY-PEDESTRIAN,160312382,01/31/2016,356 5TH ST NE,506,Midtown,E,33.77556,-84.3757,
ROBBERY-PEDESTRIAN,160312291,01/31/2016,2685 METROPOLITAN PKWY SW,309,Perkerson,X,33.68274,-84.40902,
ROBBERY-PEDESTRIAN,160311797,01/31/2016,3500 PEACHTREE RD NE @PHIPPS PLAZA,208,North Buckhead,B,33.85252,-84.36116,
ROBBERY-PEDESTRIAN,160312429,01/31/2016,1024 AVON AVE SW,301,Capitol View,X,33.72193,-84.42156,
ROBBERY-PEDESTRIAN,160310156,01/31/2016,200 MITCHELL ST SW,512,Downtown,M,33.75169,-84.39458,
ROBBERY-PEDESTRIAN,160310414,01/31/2016,1850 METROPOLITAN PKWY SW,306,Sylvan Hills,X,33.70369,-84.40795,
ROBBERY-COMMERCIAL,160312205,01/31/2016,1120 RALPH D ABERNATHY BLVD SW,402,West End,T,33.73801,-84.42451,
ROBBERY-PEDESTRIAN,160312018,01/31/2016,477 WINDSOR ST SW @DUNBAR COMM CENTER,303,Mechanicsville,V,33.74129,-84.39941,
ROBBERY-PEDESTRIAN,160312500,01/31/2016,121 BAKER STREET,508,Downtown,M,33.7626,-84.39287,
ROBBERY-RESIDENCE,160311734,01/31/2016,3440 BOULDER PARK DR SW,407,Mays,H,33.75004,-84.50063,
AGG ASSAULT,160311994,01/31/2016,1687 THOMS DR NW,107,Grove Park,J,33.76918,-84.44312,
AGG ASSAULT,160312347,01/31/2016,I-75-85 NB EXPY SW / PRYOR ST SW,304,Peoplestown,V,33.72972,-84.39254,
AGG ASSAULT,160310295,01/31/2016,2479 ABNER TER,110,Scotts Crossing,G,33.80106,-84.46803,
AGG ASSAULT,160310260,01/31/2016,1813 SYLVAN RD SW,306,Sylvan Hills,X,33.70534,-84.41852,
AGG ASSAULT,160310885,01/31/2016,786 COOPER STREET,307,Lakewood Heights,Y,33.70026,-84.3942,
BURGLARY-RESIDENCE,160302910,01/31/2016,1997 E CEDAR LN SW          ,408,Venetian Hills,S,33.7121,-84.45416,
BURGLARY-RESIDENCE,160311639,01/31/2016,3540 N CAMP CREEK PKWY SW,414,,P,33.67051,-84.50299,
BURGLARY-RESIDENCE,160311548,01/31/2016,1627 JOBETH AVE,612,East Atlanta,W,33.73289,-84.33473,
BURGLARY-RESIDENCE,160311348,01/31/2016,1107 PEACHTREE PARK DR NE,207,,E,33.81369,-84.38933,
BURGLARY-RESIDENCE,160311139,01/31/2016,1005 BALDWIN ST SW,104,Ashview Heights,T,33.74647,-84.42057,
BURGLARY-RESIDENCE,160311130,01/31/2016,1160 OAK ST SW,401,West End,T,33.74051,-84.42581,
BURGLARY-RESIDENCE,160310477,01/31/2016,2115 PIEDMONT RD NE,212,Morningside/Lenox Park,F,33.81274,-84.36659,
BURGLARY-RESIDENCE,160310413,01/31/2016,2750 CAMPBELLTON RD SW,410,Campbellton Road,R,33.70123,-84.47831,
BURGLARY-RESIDENCE,160312518,01/31/2016,3200 STONE RD SW,411,Greenbriar,R,33.6697,-84.49403,
BURGLARY-RESIDENCE,160312498,01/31/2016,600 GREENSFERRY AVE SW,101,The Villages at Castleberry Hill,T,33.74662,-84.40755,
BURGLARY-NONRES,160312579,01/31/2016,1325 DONALD LEE HOLLOWELL PKWY NW,106,,J,33.7726,-84.43123,
BURGLARY-NONRES,160310836,01/31/2016,2770 LENOX RD NE,210,Pine Hills,B,33.83092,-84.35683,
BURGLARY-NONRES,160311352,01/31/2016,760 BOLTON RD NW @APS TOWNS ES,114,Carroll Heights,H,33.77629,-84.50389,
BURGLARY-NONRES,160310242,01/31/2016,1061 LEE ST SW,402,Oakland City,S,33.7258,-84.41957,
BURGLARY-NONRES,160310162,01/31/2016,2246 MARIETTA BLVD,203,Bolton,D,33.81676,-84.44813,
BURGLARY-RESIDENCE,160311463,01/31/2016,180 JACKSON ST NE,604,Sweet Auburn,M,33.75932,-84.37442,
BURGLARY-RESIDENCE,160312616,01/31/2016,510 HOLDERNESS ST SW,401,West End,T,33.74116,-84.42687,
BURGLARY-RESIDENCE,160312182,01/31/2016,369 MCDANIEL ST SW,101,The Villages at Castleberry Hill,T,33.74505,-84.40523,
LARCENY-NON VEHICLE,160311358,01/31/2016,3247 ROSWELL RD,209,Buckhead Forest,B,33.84376,-84.37894,
LARCENY-NON VEHICLE,160311293,01/31/2016,232 FORSYTH ST SW @GREYHOUND BUS DEPOT,512,Downtown,M,33.74852,-84.39636,
LARCENY-NON VEHICLE,160312502,01/31/2016,480 THOMASVILLE BLVD SE,308,Thomasville Heights,Z,33.70558,-84.3596,
LARCENY-NON VEHICLE,160310042,01/31/2016,3601 MARTIN L KING JR DR NW,111,Adamsville,H,33.76011,-84.50557,
LARCENY-NON VEHICLE,160311629,01/31/2016,1801 HOWELL MILL RD NW,204,Berkeley Park,D,33.80388,-84.41278,
LARCENY-NON VEHICLE,160311447,01/31/2016,2076 CAMPBELLTON RD SW,410,Campbellton Road,R,33.7065,-84.45701,
LARCENY-NON VEHICLE,160311238,01/31/2016,3030 HEADLAND DR SW,411,Greenbriar,R,33.68841,-84.48742,
LARCENY-NON VEHICLE,160311443,01/31/2016,2841 GREENBRIAR PKWY SW @Multiple,411,Greenbriar,R,33.68677,-84.49773,
LARCENY-NON VEHICLE,160312152,01/31/2016,1801 HOWELL MILL RD NW,204,Berkeley Park,D,33.80388,-84.41278,
LARCENY-NON VEHICLE,160312150,01/31/2016,1801 HOWELL MILL RD NW,204,Berkeley Park,D,33.80388,-84.41278,
LARCENY-NON VEHICLE,160312001,01/31/2016,3393 PEACHTREE RD NE,210,Lenox,B,33.84676,-84.36212,
LARCENY-FROM VEHICLE,160302696,01/31/2016,3000 MARTIN L KING JR DR SW,405,Harland Terrace,I,33.75307,-84.48493,
LARCENY-FROM VEHICLE,160310403,01/31/2016,370 TED TURNER DR NW,508,Downtown,M,33.76458,-84.38908,
LARCENY-FROM VEHICLE,160310318,01/31/2016,380 14 ST NW,501,Home Park,E,33.7862,-84.39981,
LARCENY-FROM VEHICLE,160310323,01/31/2016,464 EDGEWOOD AVE NE,604,Sweet Auburn,M,33.75448,-84.37234,
LARCENY-FROM VEHICLE,160310336,01/31/2016,2143 PEACHTREE RD NE,207,,E,33.81262,-84.39195,
LARCENY-FROM VEHICLE,160310342,01/31/2016,488 NELSON ST SW,507,Castleberry Hill,M,33.75017,-84.40342,
LARCENY-FROM VEHICLE,160310178,01/31/2016,900 WATKINS ST NW,504,Marietta Street Artery,E,33.77965,-84.40918,
LARCENY-FROM VEHICLE,160310303,01/31/2016,1215 EUCLID AVE NE,608,Candler Park,N,33.76602,-84.34802,
LARCENY-FROM VEHICLE,160310890,01/31/2016,311 COURTLAND ST NE,509,Downtown,M,33.76306,-84.38365,
LARCENY-FROM VEHICLE,160311920,01/31/2016,840 MARIETTA ST NW,504,Marietta Street Artery,E,33.77522,-84.40691,
LARCENY-FROM VEHICLE,160311891,01/31/2016,935 MARIETTA ST NW,504,Marietta Street Artery,E,33.7778,-84.40865,
LARCENY-FROM VEHICLE,160311609,01/31/2016,2555 BOLTON RD NW @ZONE 2 MINI PRECINCT,201,,C,33.82028,-84.45188,
LARCENY-FROM VEHICLE,160312445,01/31/2016,58 W PEACHTREE PL,508,Downtown,M,33.76401,-84.38898,
LARCENY-FROM VEHICLE,160312414,01/31/2016,2931 MIDDLETON RD NW,111,,I,33.75294,-84.48775,
LARCENY-FROM VEHICLE,160312501,01/31/2016,944 KATHERWOOD DR SW;,306,Sylvan Hills,X,33.71082,-84.41914,
LARCENY-FROM VEHICLE,160312542,01/31/2016,3200 STONE RD SW @WINDJAMMER APTS,411,Greenbriar,R,33.6688,-84.49345,
LARCENY-FROM VEHICLE,160312593,01/31/2016,360 MARIETTA ST NW,507,Downtown,M,33.76269,-84.39702,
LARCENY-FROM VEHICLE,160312141,01/31/2016,225 BAKER ST NW @AQUARIUM,508,Downtown,M,33.76387,-84.39477,
LARCENY-FROM VEHICLE,160311998,01/31/2016,591 EDGEWOOD AVE SE,604,Old Fourth Ward,M,33.75398,-84.36804,
LARCENY-FROM VEHICLE,160310818,01/31/2016,1464 WESTBORO DR SW,402,Oakland City,S,33.73202,-84.43511,
LARCENY-FROM VEHICLE,160310916,01/31/2016,1339 BERWICK AVE NE,213,Morningside/Lenox Park,F,33.79134,-84.35858,
LARCENY-FROM VEHICLE,160310893,01/31/2016,3443 KINGSBORO RD NE,210,Buckhead Heights,B,33.84984,-84.35795,
LARCENY-FROM VEHICLE,160311310,01/31/2016,265 WASHINGTON ST,512,Downtown,M,33.74786,-84.39075,
LARCENY-FROM VEHICLE,160310794,01/31/2016,112 COURTLAND ST NE,510,Downtown,M,33.7574,-84.38475,
LARCENY-FROM VEHICLE,160310568,01/31/2016,1098 PEACHTREE WALK NE,,Midtown,E,33.78456,-84.38628,
LARCENY-FROM VEHICLE,160311108,01/31/2016,215 NORTH AVE NE,603,Old Fourth Ward,M,33.77117,-84.38025,
LARCENY-FROM VEHICLE,160311013,01/31/2016,889 W PEACHTREE ST NE,505,Midtown,E,33.77889,-84.38717,
LARCENY-FROM VEHICLE,160310960,01/31/2016,2891 LAKEWOOD AVE SW,306,Sylvan Hills,X,33.69731,-84.41122,
LARCENY-FROM VEHICLE,160310331,01/31/2016,331 W PEACHTREE ST NE,508,Downtown,M,33.76372,-84.38742,
LARCENY-FROM VEHICLE,160310511,01/31/2016,730 9TH ST NW,501,Home Park,E,33.78052,-84.41055,
LARCENY-FROM VEHICLE,160310529,01/31/2016,1950 HOWELL MILL RD,205,Wildwood (NPU-C),C,33.80838,-84.41356,
LARCENY-FROM VEHICLE,160310203,01/31/2016,1138 BRIARCLIFF PL,601,Virginia Highland,F,33.77721,-84.35011,
LARCENY-FROM VEHICLE,160310204,01/31/2016,1510 ELLSWORTH INDUSTRIAL BLVD NW,203,Blandtown,D,33.79625,-84.42787,
LARCENY-FROM VEHICLE,160311119,01/31/2016,709 COOLEDGE AVE NE,601,Virginia Highland,F,33.78244,-84.36415,
LARCENY-FROM VEHICLE,160312499,01/31/2016,711 COSMOPOLITAN DR NE,211,Lindbergh/Morosgo,B,33.82144,-84.36218,
LARCENY-FROM VEHICLE,160312455,01/31/2016,445 CLEVELAND AVE SE,312,Rosedale Heights,Z,33.68149,-84.37152,
LARCENY-FROM VEHICLE,160311414,01/31/2016,698 NORTHSIDE DR SW,303,Pittsburgh,V,33.73955,-84.40808,
LARCENY-FROM VEHICLE,160311071,01/31/2016,I-285 SB EXPY SW / CAMPBELLTON RD SW,412,Meadowbrook Forest,P,33.69033,-84.5002,
LARCENY-NON VEHICLE,160311357,01/31/2016,669 ANTONE ST NW,207,Berkeley Park,D,33.79838,-84.41001,
LARCENY-NON VEHICLE,160310426,01/31/2016,88 W PACES FERRY RD NW,206,Peachtree Heights West,B,33.84084,-84.3836,
LARCENY-NON VEHICLE,160311334,01/31/2016,265 PEACHTREE CENTER AVE NE @Multiple,509,Downtown,M,33.76158,-84.38496,
LARCENY-NON VEHICLE,160310561,01/31/2016,135 ANDREW YOUNG INTERNA BLVD NE,510,Downtown,M,33.75956,-84.38365,
LARCENY-NON VEHICLE,160311510,01/31/2016,1420 DONNELLY AVE SW,402,West End,T,33.73724,-84.43417,
LARCENY-NON VEHICLE,160311397,01/31/2016,5 STAFFORD ST NW,105,Hunter Hills,K,33.75507,-84.42594,
AUTO THEFT,160310995,01/31/2016,50 MOUNT ZION RD SW,312,Glenrose Heights,Z,33.67273,-84.39067,
AUTO THEFT,160311133,01/31/2016,1511 LANGSTON AVE SW;,306,Sylvan Hills,X,33.71355,-84.42441,
AUTO THEFT,160311175,01/31/2016,2069 SANDTOWN RD SW,409,Adams Park,R,33.72052,-84.45466,
AUTO THEFT,160311207,01/31/2016,1558 VENETIAN DR SW @VENETIAN HILL BAPTS,408,Venetian Hills,S,33.71437,-84.43965,
AUTO THEFT,160311211,01/31/2016,765 MCDANIEL ST SW,302,Pittsburgh,V,33.73396,-84.40177,
AUTO THEFT,160310101,01/31/2016,1176 CHATTAHOOCHEE AVE NW,203,Blandtown,D,33.80058,-84.42561,
AUTO THEFT,160311371,01/31/2016,1416 RALPH D ABERNATHY BLVD SW,404,Westview,T,33.74019,-84.43455,
AUTO THEFT,160311311,01/31/2016,906 HUFF RD NW,203,Blandtown,D,33.78847,-84.41761,
AUTO THEFT,160310700,01/31/2016,3674 DOVER BLVD SW,407,Wisteria Gardens,H,33.7536,-84.50788,
AUTO THEFT,160300785,01/30/2016,1963 LEBANON DR NE,212,Piedmont Heights,F,33.80812,-84.37092,
AUTO THEFT,160302202,01/30/2016,1305 OAKLAND DRIVE,403,Venetian Hills,S,33.72114,-84.43083,
AUTO THEFT,160301146,01/30/2016,183 MOUNT ZION RD SE,312,Glenrose Heights,Z,33.67268,-84.38507,
AUTO THEFT,160302983,01/30/2016,500 MCDANIEL ST SW,303,Mechanicsville,V,33.74121,-84.4021,
AUTO THEFT,160302883,01/30/2016,3760 PRINCETON LAKES PKWY SW,414,Princeton Lakes,P,33.65806,-84.51051,
AUTO THEFT,160301601,01/30/2016,599 WHITEHALL ST SW,303,Pittsburgh,V,33.74277,-84.40756,
AUTO THEFT,160301307,01/30/2016,556 NORTHSIDE DR SW;,303,Pittsburgh,V,33.74007,-84.40778,
AUTO THEFT,160300891,01/30/2016,925 CANTERBURY RD NE,210,Pine Hills,B,33.8278,-84.3563,
AUTO THEFT,160300822,01/30/2016,50 MOUNT ZION RD SW,312,Glenrose Heights,Z,33.67273,-84.39067,
AUTO THEFT,160300393,01/30/2016,875 PIEDMONT AVE NE,505,Midtown,E,33.77848,-84.38081,
AUTO THEFT,160300178,01/30/2016,1544 PIEDMONT AVE NE @ANSLEY MALL,213,Piedmont Heights,F,33.79789,-84.37101,
AUTO THEFT,160301306,01/30/2016,716 PONCE DE LEON PL NE @PARIS ON PONCE,601,Virginia Highland,F,33.77389,-84.36396,
LARCENY-NON VEHICLE,160302591,01/30/2016,590 W PEACHTREE ST NW @RENAISSANCE HOTEL,509,Downtown,M,33.77023,-84.38815,
LARCENY-NON VEHICLE,160301731,01/30/2016,55 PHARR RD NW,206,Peachtree Heights West,B,33.83726,-84.38393,
LARCENY-NON VEHICLE,160301374,01/30/2016,1100 WHITE ST SW,402,West End,T,33.7336,-84.42399,
LARCENY-NON VEHICLE,160301149,01/30/2016,45 IVAN ALLEN JR BLVD NW,504,Downtown,M,33.76477,-84.38918,
LARCENY-NON VEHICLE,160301016,01/30/2016,1136 CRESCENT AVE NE,503,Midtown,E,33.78575,-84.38451,
LARCENY-NON VEHICLE,160301680,01/30/2016,265 PEACHTREE CENTER AVE NE ,509,Downtown,M,33.76158,-84.38496,
LARCENY-NON VEHICLE,160301458,01/30/2016,3724 MARTIN L KING JR DR SW,407,Adamsville,H,33.76461,-84.51027,
LARCENY-NON VEHICLE,160300755,01/30/2016,443 MORELAND AVE SE,606,Ormewood Park,W,33.74179,-84.34973,
LARCENY-NON VEHICLE,160302390,01/30/2016,400 LUCKIE ST NW,504,Downtown,M,33.76564,-84.39669,
LARCENY-NON VEHICLE,160301031,01/30/2016,3405 LENOX RD NE ,210,Lenox,B,33.848,-84.35947,
LARCENY-NON VEHICLE,160300941,01/30/2016,1416 ERIC ST SE,305,Chosewood Park,Y,33.71577,-84.37477,
LARCENY-NON VEHICLE,160302077,01/30/2016,1155 LAVISTA RD NE,212,Lindridge/Martin Manor,F,33.81806,-84.35082,
LARCENY-FROM VEHICLE,160302835,01/30/2016,2636 MARTIN L KING JR DR SW,405,Harland Terrace,I,33.75277,-84.47429,
LARCENY-FROM VEHICLE,160303172,01/30/2016,1611 BUCHANAN ST NW,207,Berkeley Park,D,33.79889,-84.41322,
LARCENY-FROM VEHICLE,160303089,01/30/2016,2716 MARTIN L KING JR DR SW,405,Harland Terrace,I,33.75395,-84.47612,
LARCENY-FROM VEHICLE,160303028,01/30/2016,1190 N HIGHLAND AVE NE,601,Virginia Highland,F,33.78709,-84.35544,
LARCENY-FROM VEHICLE,160303199,01/30/2016,1991 HOWELL MILL RD NW,205,Channing Valley,C,33.80902,-84.41277,
LARCENY-FROM VEHICLE,160303045,01/30/2016,1402 N HIGHLAND AVE NE,213,Morningside/Lenox Park,F,33.79282,-84.35257,
LARCENY-FROM VEHICLE,160303003,01/30/2016,670 TRABERT AVE NW,207,Berkeley Park,D,33.79492,-84.40988,
LARCENY-FROM VEHICLE,160302988,01/30/2016,1587 HOWELL MILL RD NW,207,Berkeley Park,D,33.79835,-84.41575,
LARCENY-FROM VEHICLE,160302843,01/30/2016,840 MARIETTA ST NW,504,Marietta Street Artery,E,33.77522,-84.40691,
LARCENY-FROM VEHICLE,160301286,01/30/2016,3840 KING HENRY RD SW,412,Kings Forest,P,33.70174,-84.51422,
LARCENY-FROM VEHICLE,160301412,01/30/2016,773 VERNER ST NW,207,Berkeley Park,D,33.79875,-84.41408,
LARCENY-FROM VEHICLE,160301414,01/30/2016,615 DELMAR AVE SE,605,Grant Park,W,33.73193,-84.36728,
LARCENY-FROM VEHICLE,160302183,01/30/2016,501 10TH STREET NE ,506,Midtown,E,33.78167,-84.37088,
LARCENY-FROM VEHICLE,160302112,01/30/2016,800 CHEROKEE AVE SE @ATLANTA ZOO,605,Grant Park,W,33.7338,-84.37184,
LARCENY-FROM VEHICLE,160301607,01/30/2016,200 14TH ST NW,501,Home Park,E,33.7865,-84.39366,
LARCENY-FROM VEHICLE,160301699,01/30/2016,75 MARTIN LUTHER KING JR DR SW,511,Downtown,M,33.75258,-84.38992,
LARCENY-FROM VEHICLE,160301442,01/30/2016,829 BECKWITH ST SW,101,Atlanta University Center,T,33.75233,-84.41473,
LARCENY-FROM VEHICLE,160302243,01/30/2016,2788 DEFOORS FERRY RD NW,201,,C,33.82114,-84.44713,
LARCENY-FROM VEHICLE,160302257,01/30/2016,292 MORELAND AVE NE,602,Inman Park,N,33.76227,-84.34972,
LARCENY-FROM VEHICLE,160302313,01/30/2016,578 ATLANTA STUDENT MOVE BLVD SW,101,Atlanta University Center,T,33.74906,-84.40647,
LARCENY-FROM VEHICLE,160302326,01/30/2016,196 NORTHSIDE DR NW,102,Vine City,L,33.7599,-84.40286,
LARCENY-FROM VEHICLE,160302459,01/30/2016,800 HUTCHENS RD SE,313,South River Gardens,Z,33.67102,-84.36187,
LARCENY-FROM VEHICLE,160302640,01/30/2016,3050 MARTIN L KING JR DR SW,405,Harland Terrace,I,33.75177,-84.4857,
LARCENY-FROM VEHICLE,160300984,01/30/2016,415 ARMOUR DR NE,212,,F,33.81267,-84.37412,
LARCENY-FROM VEHICLE,160302072,01/30/2016,931 MONROE DR NE @BELTLINE BUSINESS,506,Midtown,E,33.77909,-84.36717,
LARCENY-FROM VEHICLE,160302714,01/30/2016,3645 PEACHTREE RD NE,210,Ridgedale Park,B,33.85395,-84.35721,
LARCENY-FROM VEHICLE,160301214,01/30/2016,2490 VERBENA CIRCLE NW,108,Dixie Hills,J,33.75633,-84.46668,
LARCENY-FROM VEHICLE,160300080,01/30/2016,226 COURTLAND ST NE ,509,Downtown,M,33.76051,-84.38429,
LARCENY-FROM VEHICLE,160300480,01/30/2016,782 MAGNOLIA WAY NW,102,Vine City,L,33.75804,-84.41376,
LARCENY-FROM VEHICLE,160300944,01/30/2016,500 MCDANIEL ST SW;,303,Mechanicsville,V,33.74121,-84.40268,
LARCENY-NON VEHICLE,160302340,01/30/2016,1275 CAROLINE ST NE,609,Edgewood,O,33.75674,-84.34619,
LARCENY-NON VEHICLE,160301094,01/30/2016,610 SPRING ST NW,509,Downtown,M,33.77101,-84.38895,
LARCENY-NON VEHICLE,160300412,01/30/2016,387 HILL ST SE,605,Grant Park,W,33.74436,-84.37974,
LARCENY-NON VEHICLE,160302064,01/30/2016,455 NORTH AVE NE,603,Old Fourth Ward,M,33.77066,-84.37225,
LARCENY-NON VEHICLE,160301705,01/30/2016,2539 PIEDMONT RD NE ,211,Lindbergh/Morosgo,B,33.82403,-84.36328,
LARCENY-NON VEHICLE,160302184,01/30/2016,976 OAKLAND DR SW,402,Oakland City,S,33.72827,-84.42686,
LARCENY-NON VEHICLE,160302085,01/30/2016,835 MARTIN LUTHER KING JR DRIVE,102,Vine City,L,33.75504,-84.41457,
LARCENY-NON VEHICLE,160301687,01/30/2016,1960 DONALD LEE HOLLOWELL PKWY NW,107,Grove Park,J,33.77551,-84.44872,
LARCENY-NON VEHICLE,160302024,01/30/2016,595 PIEDMONT AVE NE @PUBLIX - PIEDMONT,603,Old Fourth Ward,M,33.77067,-84.38023,
LARCENY-NON VEHICLE,160302629,01/30/2016,364 HILL ST SE,605,Grant Park,W,33.74475,-84.37895,
LARCENY-NON VEHICLE,160302355,01/30/2016,852 RALPH D ABERNATHY BLVD SW,401,West End,T,33.73815,-84.41543,
BURGLARY-NONRES,160301390,01/30/2016,1200 W PACES FERRY RD NW,202,West Paces Ferry/Northside,A,33.84966,-84.42788,
BURGLARY-RESIDENCE,160302663,01/30/2016,600 GREENSFERRY AVE SW,101,The Villages at Castleberry Hill,T,33.74662,-84.40755,
BURGLARY-RESIDENCE,160302437,01/30/2016,2496 MEMORIAL DR SE,611,East Lake,O,33.74744,-84.30531,
BURGLARY-NONRES,160300581,01/30/2016,3535 NORTHSIDE PKWY NW,202,Randall Mill,A,33.85087,-84.42902,
BURGLARY-NONRES,160300756,01/30/2016,1201 W PACES FERRY RD NW,202,Randall Mill,A,33.85005,-84.42738,
BURGLARY-NONRES,160300171,01/30/2016,3050 MARTIN L KING JR DR SW,405,Harland Terrace,I,33.75177,-84.4857,
BURGLARY-RESIDENCE,160302614,01/30/2016,972 DONNELLY AVE SW,402,Oakland City,S,33.72834,-84.4198,
BURGLARY-RESIDENCE,160300880,01/30/2016,571 MAGNOLIA ST NW,102,Vine City,L,33.75822,-84.40622,
BURGLARY-RESIDENCE,160301738,01/30/2016,748 CELESTE LN SW,407,Mays,H,33.74158,-84.50561,
BURGLARY-RESIDENCE,160302038,01/30/2016,1598 OLYMPIAN CIR SW,404,Westview,T,33.73505,-84.43998,
AGG ASSAULT,160300719,01/30/2016,151 CLEVELAND AVE SW,310,Browns Mill Park,Z,33.68148,-84.39422,
AGG ASSAULT,160300066,01/30/2016,1381 KIMBERLY WAY SW,412,Ashley Courts,P,33.71745,-84.52265,
AGG ASSAULT,160302494,01/30/2016,1166 RALPH D ABERNATHY BLVD SW,402,West End,T,33.73818,-84.42588,
AGG ASSAULT,160303242,01/30/2016,80 JESSE HILL JR DR SE ,510,Downtown,M,33.75168,-84.38198,
AGG ASSAULT,160303151,01/30/2016,2785 ALLEGRO DR NW,112,Collier Heights,I,33.77454,-84.47884,
AGG ASSAULT,160301965,01/30/2016,2050 SYLVAN RD SW,306,Sylvan Hills,X,33.69852,-84.41798,
ROBBERY-RESIDENCE,160300204,01/30/2016,3724 MARTIN L KING JR DR SW,407,Adamsville,H,33.76461,-84.51027,
AGG ASSAULT,160300311,01/30/2016,SAINT JAMES AVE NW / HIGHTOWER RD NW,113,Carey Park,G,33.78595,-84.4726,
AGG ASSAULT,160302622,01/30/2016,415 FAIRBURN RD SW,407,Fairburn Mays,H,33.74349,-84.50968,
ROBBERY-COMMERCIAL,160302645,01/30/2016,566 BOULEVARD SE,605,Grant Park,W,33.73911,-84.36805,
ROBBERY-COMMERCIAL,160302339,01/30/2016,1130 MORELAND AVE SE,606,East Atlanta,W,33.7235,-84.34893,
ROBBERY-PEDESTRIAN,160301981,01/30/2016,3843 JONESBORO RD,313,South River Gardens,Z,33.64933,-84.36635,
ROBBERY-PEDESTRIAN,160302907,01/30/2016,3050 MARTIN L KING JR DR SW,405,Harland Terrace,I,33.75177,-84.4857,
ROBBERY-PEDESTRIAN,160293340,01/30/2016,565 JOSEPH E LOWERY BLVD SW,401,West End,T,33.73969,-84.41828,
ROBBERY-PEDESTRIAN,160293333,01/29/2016,450 FLAT SHOALS,612,East Atlanta,W,33.74171,-84.34689,
ROBBERY-PEDESTRIAN,160293133,01/29/2016,2034 HATTERAS WAY NW,203,Whittier Mill Village,D,33.8104,-84.48056,
ROBBERY-PEDESTRIAN,160293469,01/29/2016,2080 DONALD LEE HOLLOWELL PKWY NW,107,Grove Park,J,33.77639,-84.45349,
ROBBERY-PEDESTRIAN,160290121,01/29/2016,194 MITCHELL ST SW,512,Downtown,M,33.75146,-84.39416,
ROBBERY-PEDESTRIAN,160290631,01/29/2016,942 HANK AARON DR SE,304,Peoplestown,V,33.72828,-84.38787,
AGG ASSAULT,160291985,01/29/2016,929 CHARLES ALLEN DR NE @APS GRADY HS,506,Midtown,E,33.78119,-84.37151,
ROBBERY-COMMERCIAL,160293642,01/29/2016,1700 MONROE DR NE @KROGER - MONROE,213,Piedmont Heights,F,33.80049,-84.37305,
BURGLARY-RESIDENCE,160292342,01/29/2016,875 HANK AARON DR SW,304,Peoplestown,V,33.73065,-84.38805,
BURGLARY-RESIDENCE,160292887,01/29/2016,1062 WHITE OAK AVE SW,402,Oakland City,S,33.72508,-84.42271,
BURGLARY-RESIDENCE,160292077,01/29/2016,915 HANK AARON DR SW,304,Peoplestown,V,33.72965,-84.38826,
BURGLARY-RESIDENCE,160292798,01/29/2016,333 NELSON ST SW,507,Castleberry Hill,M,33.75156,-84.39887,
BURGLARY-RESIDENCE,160292505,01/29/2016,960 CONSTITUTION RD SE,308,Norwood Manor,Z,33.69307,-84.35805,
BURGLARY-RESIDENCE,160293490,01/29/2016,1432 MURRAY ST SE,305,South Atlanta,Y,33.71502,-84.38695,
BURGLARY-RESIDENCE,160293645,01/29/2016,820 W MARIETTA ST NW,103,English Avenue,L,33.78045,-84.41554,
BURGLARY-RESIDENCE,160293392,01/29/2016,730 CELESTE LN SW,407,Mays,H,33.74198,-84.50566,
BURGLARY-NONRES,160290560,01/29/2016,35 HAMILTON E HOLMES DR NW,108,Florida Heights,I,33.75373,-84.46734,
BURGLARY-NONRES,160290170,01/29/2016,2630 MARTIN L KING JR DR SW,405,Harland Terrace,I,33.75377,-84.47405,
BURGLARY-NONRES,160291588,01/29/2016,448 RALPH D ABERNATHY BLVD SW,303,Mechanicsville,V,33.73642,-84.40248,
BURGLARY-RESIDENCE,160291137,01/29/2016,169 WADLEY ST NW,108,Dixie Hills,J,33.7561,-84.45782,
BURGLARY-RESIDENCE,160292275,01/29/2016,620 IRA ST SW,303,Mechanicsville,V,33.738,-84.39977,
BURGLARY-RESIDENCE,160292043,01/29/2016,333 NELSON ST SW,507,Castleberry Hill,M,33.75156,-84.39887,
LARCENY-NON VEHICLE,160291966,01/29/2016,41 10TH ST NE @MIDTOWN,503,Midtown,E,33.78126,-84.38666,
LARCENY-NON VEHICLE,160291573,01/29/2016,1275 CAROLINE ST NE @TARGET - CAROLINE,609,Edgewood,O,33.75674,-84.34619,
LARCENY-NON VEHICLE,160292002,01/29/2016,3393 PEACHTREE RD NE @LENOX MALL,210,Lenox,B,33.84676,-84.36212,
LARCENY-NON VEHICLE,160291983,01/29/2016,2900 PEACHTREE RD NW,206,Peachtree Heights West,B,33.83362,-84.38337,
LARCENY-NON VEHICLE,160292176,01/29/2016,3208 PACES FERRY PL NW,206,South Tuxedo Park,B,33.84211,-84.38222,
LARCENY-FROM VEHICLE,160292553,01/29/2016,1065 WASHITA AVE NE,602,Inman Park,N,33.76352,-84.353,
LARCENY-FROM VEHICLE,160292667,01/29/2016,349 DECATUR ST SE,604,Sweet Auburn,M,33.74993,-84.37706,
LARCENY-FROM VEHICLE,160293409,01/29/2016,658 SEMINOLE AVE NE,602,Poncey-Highland,N,33.77222,-84.35086,
LARCENY-FROM VEHICLE,160293463,01/29/2016,656 NORTH HIGHLAND AVE NE,602,Poncey-Highland,N,33.77218,-84.35261,
LARCENY-FROM VEHICLE,160293403,01/29/2016,781 NEHEMIAH LN SW,407,Mays,H,33.74152,-84.50685,
LARCENY-FROM VEHICLE,160293156,01/29/2016,967 DEWEY ST SW,302,Pittsburgh,V,33.72854,-84.40715,
LARCENY-FROM VEHICLE,160293039,01/29/2016,65 FORSYTH ST NW ,508,Downtown,M,33.7564,-84.38969,
LARCENY-FROM VEHICLE,160290029,01/29/2016,254 AUBURN AVE,510,Downtown,M,33.75572,-84.37932,
LARCENY-NON VEHICLE,160292026,01/29/2016,1275 CAROLINE ST NE,609,Edgewood,O,33.75674,-84.34619,
LARCENY-FROM VEHICLE,160291542,01/29/2016,4560 SENTINEL POST RD NW,202,Whitewater Creek,A,33.87566,-84.4433,
LARCENY-FROM VEHICLE,160291171,01/29/2016,3500 MARTIN L KING JR DR SW,407,Adamsville,H,33.75735,-84.50282,
LARCENY-FROM VEHICLE,160291312,01/29/2016,468 MORELAND AVE NE,602,Inman Park,N,33.76694,-84.34915,
LARCENY-FROM VEHICLE,160292382,01/29/2016,750 MCDANIEL ST SW,302,Pittsburgh,V,33.73423,-84.40155,
LARCENY-FROM VEHICLE,160291484,01/29/2016,2442 LOWE ST NW,203,Riverside,D,33.81119,-84.46749,
LARCENY-FROM VEHICLE,160291625,01/29/2016,3509 MARTIN L KING JR DR NW,111,Adamsville,H,33.7581,-84.50258,
LARCENY-FROM VEHICLE,160290770,01/29/2016,190 WATSON CIR SE,611,Kirkwood,O,33.74773,-84.31513,
LARCENY-FROM VEHICLE,160290858,01/29/2016,859 BEECHER CT SW,404,Cascade Avenue/Road,S,33.73214,-84.44858,
LARCENY-FROM VEHICLE,160290954,01/29/2016,121 MARTHA AVE NE,610,Kirkwood,O,33.75562,-84.31352,
LARCENY-FROM VEHICLE,160290957,01/29/2016,1574 BRAEBURN DR SE,612,East Atlanta,W,33.73532,-84.33631,
LARCENY-FROM VEHICLE,160290831,01/29/2016,229 PEACHTREE ST NE,509,Downtown,M,33.7604,-84.38746,
LARCENY-FROM VEHICLE,160291167,01/29/2016,2751 PEYTON RD NW,203,Riverside,D,33.80851,-84.47771,
LARCENY-FROM VEHICLE,160292078,01/29/2016,328 MELL AVE NE,608,Candler Park,N,33.76316,-84.33753,
LARCENY-FROM VEHICLE,160292308,01/29/2016,609 COOLEDGE AVE NE,601,Virginia Highland,F,33.78231,-84.3679,
LARCENY-FROM VEHICLE,160292285,01/29/2016,952 CHARLES ALLEN DR NE,503,Midtown,E,33.78065,-84.373,
LARCENY-FROM VEHICLE,160290189,01/29/2016,745 PALATINE AVE SE,607,Ormewood Park,W,33.7338,-84.35635,
LARCENY-FROM VEHICLE,160291813,01/29/2016,760 BOLTON RD NW,114,Carroll Heights,H,33.77629,-84.50389,
LARCENY-FROM VEHICLE,160291823,01/29/2016,3755 CARMIA DR SW,414,Princeton Lakes,P,33.65674,-84.5076,
LARCENY-FROM VEHICLE,160291892,01/29/2016,2090 JONESBORO RD SE,308,Norwood Manor,Z,33.69773,-84.36999,
LARCENY-FROM VEHICLE,160291949,01/29/2016,112 COURTLAND ST,510,Downtown,M,33.75756,-84.38434,
LARCENY-FROM VEHICLE,160291973,01/29/2016,840 MARIETTA ST NW,504,Marietta Street Artery,E,33.77522,-84.40691,
LARCENY-FROM VEHICLE,160291689,01/29/2016,534 FAIRBURN RD NW,114,Fairburn Heights,H,33.76945,-84.50091,
LARCENY-FROM VEHICLE,160292894,01/29/2016,1960 ALISON CT,410,Campbellton Road,R,33.70061,-84.45299,
LARCENY-NON VEHICLE,160292009,01/29/2016,84 WALTON ST NW,508,Downtown,M,33.75672,-84.39123,
LARCENY-NON VEHICLE,160292317,01/29/2016,3500 LENOX RD NE,208,North Buckhead,B,33.85088,-84.3625,
LARCENY-NON VEHICLE,160292923,01/29/2016,80 JESSE HILL JR DR SE,510,Downtown,M,33.75168,-84.38198,
LARCENY-NON VEHICLE,160291831,01/29/2016,265 PEACHTREE ST NE,509,Downtown,M,33.7617,-84.38744,
LARCENY-NON VEHICLE,160291922,01/29/2016,366 WILLIS MILL RD SW,405,Florida Heights,I,33.74555,-84.46642,
LARCENY-NON VEHICLE,160291903,01/29/2016,236 LAKEMOORE DR NE,209,North Buckhead,B,33.86483,-84.38006,
LARCENY-NON VEHICLE,160291762,01/29/2016,633 FLAT SHOALS AVE SE,612,East Atlanta,W,33.73676,-84.34238,
LARCENY-NON VEHICLE,160291635,01/29/2016,950 ORMEWOOD AVE SE,607,Ormewood Park,W,33.73463,-84.35671,
LARCENY-NON VEHICLE,160291395,01/29/2016,399 BISHOP ST NW,207,Loring Heights,E,33.79395,-84.40096,
LARCENY-NON VEHICLE,160292051,01/29/2016,1375 ELIZABETH AVE SW,403,Venetian Hills,S,33.71679,-84.43583,
LARCENY-NON VEHICLE,160290912,01/29/2016,3716 DENVILLE TRCE SW,412,Cascade Green,P,33.71205,-84.50325,
LARCENY-NON VEHICLE,160291264,01/29/2016,986 FAIRBURN RD NW,114,Carroll Heights,H,33.77944,-84.5047,
AUTO THEFT,160293354,01/29/2016,694 PEEPLES ST SW,401,West End,T,33.73609,-84.42023,
AUTO THEFT,160291209,01/29/2016,585 MCWILLIAMS RD SE,310,Browns Mill Park,Z,33.6887,-84.36924,
AUTO THEFT,160290943,01/29/2016,1212 E ROCK SPRINGS RD NE,213,Morningside/Lenox Park,F,33.79601,-84.34726,
AUTO THEFT,160292177,01/29/2016,3565 MARTIN L KING JR DR NW @COLLIER HEIGHTS SC,111,Adamsville,H,33.7601,-84.50466,
AUTO THEFT,160292404,01/29/2016,225 HAMILTON E HOLMES DR NW @APS DOUGLASS HS,108,Center Hill,J,33.76115,-84.4682,
AUTO THEFT,160290863,01/29/2016,2096 SANDTOWN RD SW,409,Adams Park,R,33.72108,-84.45629,
AUTO THEFT,160290748,01/29/2016,635 GREEN ST NW,207,Berkeley Park,D,33.79323,-84.40888,
AUTO THEFT,160290723,01/29/2016,330 PEACHTREE ST NE @PEACHTREE MOTEL,508,Downtown,M,33.76354,-84.38703,
AUTO THEFT,160282856,01/28/2016,933 ASHBY CIR NW,105,Washington Park,K,33.76279,-84.41812,
AUTO THEFT,160280265,01/28/2016,384 VENABLE ST NW,504,Downtown,M,33.76523,-84.39544,
AUTO THEFT,160282546,01/28/2016,75 MANGUM ST SW,507,Castleberry Hill,M,33.75249,-84.4,
AUTO THEFT,160282115,01/28/2016,58 4TH ST NE,505,Midtown,E,33.77505,-84.38544,
AUTO THEFT,160281841,01/28/2016,1129 SELWIN AVE SW,403,Oakland City,S,33.72419,-84.42639,
AUTO THEFT,160281143,01/28/2016,890 OGLETHORPE AVE SW,401,West End,T,33.7356,-84.41714,
AUTO THEFT,160281052,01/28/2016,562 MAGNOLIA ST NW,102,Vine City,L,33.75794,-84.40588,
LARCENY-NON VEHICLE,160281945,01/28/2016,400 MERRITTS AVE NE @Multiple,603,Old Fourth Ward,M,33.76901,-84.37444,
LARCENY-NON VEHICLE,160282869,01/28/2016,2887 BAKER RIDGE RD NW,112,Grove Park,J,33.77278,-84.44193,
LARCENY-NON VEHICLE,160281395,01/28/2016,3008 WATERS RD,311,Glenrose Heights,Z,33.6729,-84.39585,
LARCENY-NON VEHICLE,160281008,01/28/2016,4308 NOTTING HILL DR SW,413,Arlington Estates,P,33.69486,-84.53473,
LARCENY-NON VEHICLE,160280799,01/28/2016,3201 DOWNWOOD CIR NW,201,,C,33.84158,-84.42564,
LARCENY-NON VEHICLE,160280020,01/28/2016,210 PEACHTREE ST NW @Multiple,508,Downtown,M,33.75943,-84.38837,
LARCENY-NON VEHICLE,160282009,01/28/2016,1900 DEKALB AVE NE,608,Lake Claire,N,33.76118,-84.32486,
LARCENY-NON VEHICLE,160282985,01/28/2016,100 10TH ST NW,503,Midtown,E,33.78143,-84.39037,
LARCENY-NON VEHICLE,160283284,01/28/2016,3535 PEACHTREE RD NE,210,Lenox,B,33.85272,-84.36021,
LARCENY-NON VEHICLE,160282142,01/28/2016,801 GLENWOOD AVE SE @APS JACKSON HS,605,Grant Park,W,33.73958,-84.36161,
LARCENY-NON VEHICLE,160282947,01/28/2016,108 DOGWOOD DR NW,112,Collier Heights,I,33.78156,-84.49449,
LARCENY-NON VEHICLE,160283466,01/28/2016,626 DEKALB AVE SE,604,Old Fourth Ward,M,33.75283,-84.36687,
LARCENY-NON VEHICLE,160283342,01/28/2016,1270 W PEACHTREE ST NW,502,Midtown,E,33.7892,-84.38789,
LARCENY-FROM VEHICLE,160281574,01/28/2016,2 11TH ST NW,503,Midtown,E,33.78335,-84.3876,
LARCENY-FROM VEHICLE,160280529,01/28/2016,3906 ROSWELL RD,209,East Chastain Park,B,33.86696,-84.38107,
LARCENY-FROM VEHICLE,160282386,01/28/2016,SPRING ST NW / 14TH ST NW,503,Midtown,E,33.78668,-84.38925,
LARCENY-FROM VEHICLE,160280247,01/28/2016,2685 METROPOLITAN PKWY SW,309,Perkerson,X,33.68274,-84.40902,
LARCENY-FROM VEHICLE,160280879,01/28/2016,2484 SCOTTRIDGE DR NW,108,Harvel Homes Community,J,33.75883,-84.46872,
LARCENY-FROM VEHICLE,160280885,01/28/2016,650 CLEVELAND AVE SW @APS HUTCHINSON ES,311,Hammond Park,X,33.68072,-84.40961,
LARCENY-FROM VEHICLE,160280101,01/28/2016,900 STALLINGS AVE SE,612,East Atlanta,W,33.72961,-84.33235,
LARCENY-FROM VEHICLE,160280893,01/28/2016,31 TURMAN AVE SE,305,South Atlanta,Y,33.70879,-84.38269,
LARCENY-FROM VEHICLE,160280922,01/28/2016,1900 BRANTLEY WALK LN NW,203,Riverside,D,33.81051,-84.46465,
LARCENY-FROM VEHICLE,160280960,01/28/2016,3018 MIDDLETON RD NW,111,,I,33.75296,-84.48893,
LARCENY-NON VEHICLE,160281122,01/28/2016,2525 PIEDMONT ROAD,211,Lindbergh/Morosgo,B,33.824,-84.36521,
LARCENY-FROM VEHICLE,160281138,01/28/2016,47 W WIEUCA RD,209,East Chastain Park,B,33.87675,-84.38585,
LARCENY-FROM VEHICLE,160281711,01/28/2016,1631 LA FRANCE ST NE @APS FACILITIES BLDG,609,Edgewood,O,33.76052,-84.33347,
LARCENY-FROM VEHICLE,160282860,01/28/2016,1099 CASCADE AVE SW,403,Cascade Avenue/Road,S,33.72582,-84.44749,
LARCENY-FROM VEHICLE,160283131,01/28/2016,600 PONCE DE LEON AVE NE,506,Midtown,E,33.77376,-84.36722,
LARCENY-FROM VEHICLE,160281497,01/28/2016,134 HOWELL ST NE,604,Old Fourth Ward,M,33.75796,-84.37017,
LARCENY-FROM VEHICLE,160282845,01/28/2016,1164 CHATHAM AVE SW,403,Cascade Avenue/Road,S,33.72348,-84.44294,
LARCENY-FROM VEHICLE,160281318,01/28/2016,699 PIEDMONT AVE NE,505,Midtown,E,33.77358,-84.38118,
LARCENY-FROM VEHICLE,160283422,01/28/2016,52 WEYMAN AVE SW,304,Peoplestown,V,33.72476,-84.38972,
LARCENY-FROM VEHICLE,160283462,01/28/2016,462 SEMINOLE AVE NE,602,Inman Park,N,33.76658,-84.35028,
LARCENY-NON VEHICLE,160281854,01/28/2016,3535 PEACHTREE RD NE ,210,Lenox,B,33.85182,-84.3595,
LARCENY-NON VEHICLE,160281821,01/28/2016,2001 JAMES JACKSON PKWY NW,203,Riverside,D,33.81063,-84.47569,
LARCENY-NON VEHICLE,160282797,01/28/2016,3495 BUCKHEAD LOOP NE;,208,North Buckhead,B,33.85209,-84.3645,
LARCENY-NON VEHICLE,160282120,01/28/2016,3535 PEACHTREE RD NE @Multiple,210,Lenox,B,33.85182,-84.3595,
LARCENY-NON VEHICLE,160283154,01/28/2016,2020 HOWELL MILL RD NW,205,Wildwood (NPU-C),C,33.81022,-84.41347,
LARCENY-NON VEHICLE,160282312,01/28/2016,3495 BUCKHEAD LOOP NE,208,North Buckhead,B,33.85209,-84.3645,
LARCENY-NON VEHICLE,160281434,01/28/2016,1801 HOWELL MILL RD NW,204,Berkeley Park,D,33.80388,-84.41278,
LARCENY-NON VEHICLE,160282108,01/28/2016,1175 MORELAND AVE SE,607,Woodland Hills,W,33.72241,-84.34972,
BURGLARY-RESIDENCE,160282896,01/28/2016,178 MOURY AVE SW,305,The Villages at Carver,Y,33.71347,-84.39079,
BURGLARY-NONRES,160281248,01/28/2016,442 SCHOOL DR SE,312,Orchard Knob,Z,33.67245,-84.37509,
BURGLARY-RESIDENCE,160283287,01/28/2016,1180 BRIARCLIFF CT NE,601,Virginia Highland,F,33.7781,-84.34939,
BURGLARY-RESIDENCE,160283405,01/28/2016,263 CARLYLE PARK DR NE,609,Edgewood,O,33.7606,-84.33706,
BURGLARY-RESIDENCE,160282022,01/28/2016,1933 NORTH AVE NW,107,Grove Park,J,33.76873,-84.45081,
BURGLARY-RESIDENCE,160282124,01/28/2016,415 FAIRBURN RD SW,407,Fairburn Mays,H,33.74349,-84.50968,
BURGLARY-RESIDENCE,160281810,01/28/2016,2900 LANDRUM DR SW,409,Southwest,R,33.70623,-84.48372,
BURGLARY-RESIDENCE,160273219,01/28/2016,540 HUMPHRIES ST SW,303,Mechanicsville,V,33.7399,-84.40488,
BURGLARY-RESIDENCE,160282093,01/28/2016,3283 WARD DR SW,312,Glenrose Heights,Z,33.66699,-84.38925,
BURGLARY-RESIDENCE,160282028,01/28/2016,3521 PARC CIR SW,409,Southwest,R,33.69868,-84.49783,
BURGLARY-RESIDENCE,160282074,01/28/2016,1528 RALPH D ABERNATHY BLVD SW,404,Westview,T,33.74302,-84.4376,
BURGLARY-RESIDENCE,160281857,01/28/2016,3659 NORTHSIDE DR NW,202,Tuxedo Park,A,33.85495,-84.40482,
BURGLARY-RESIDENCE,160280919,01/28/2016,2987 MIDDLETON RD NW,111,,I,33.7531,-84.48844,
BURGLARY-RESIDENCE,160282940,01/28/2016,2423 MARTIN L KING JR DR NW,108,Florida Heights,I,33.75183,-84.46623,
BURGLARY-RESIDENCE,160281541,01/28/2016,930 NEW HOPE RD SW,412,Midwest Cascade,Q,33.72898,-84.53961,
AGG ASSAULT,160281356,01/28/2016,156 FAIRFIELD PL NW,108,Dixie Hills,J,33.75828,-84.46325,
AGG ASSAULT,160282141,01/28/2016,1550 HOSEA WILLIAMS RD,607,Edgewood,O,33.75416,-84.33731,
AGG ASSAULT,160282088,01/28/2016,733 JOSEPH E BOONE BLVD NW,103,English Avenue,L,33.76352,-84.41151,
ROBBERY-PEDESTRIAN,160281494,01/28/2016,3450 BNJAMIN E MAYS DR SW,407,Mays,H,33.73364,-84.50386,
ROBBERY-PEDESTRIAN,160281906,01/28/2016,3200 LATONA DR SW @APS LONG MS,312,Glenrose Heights,Z,33.66668,-84.39526,
AGG ASSAULT,160281577,01/28/2016,1600 NORTH AVE NW,107,Grove Park,J,33.76783,-84.44014,
AGG ASSAULT,160282540,01/28/2016,1572 HARDEE ST NE,609,Edgewood,O,33.75546,-84.33644,
AGG ASSAULT,160280331,01/28/2016,721 VICTORIA PL SW,401,West End,T,33.7351,-84.41693,
ROBBERY-COMMERCIAL,160282951,01/28/2016,305 JOSEPH E LOWERY BLVD NW,102,Vine City,L,33.763,-84.41736,
ROBBERY-COMMERCIAL,160283586,01/28/2016,1229 MORELAND AVE SE,607,Woodland Hills,W,33.7207,-84.34958,
ROBBERY-RESIDENCE,160283403,01/28/2016,598 JONES AVE NW,103,English Avenue,L,33.76403,-84.40692,
ROBBERY-RESIDENCE,160281049,01/28/2016,97 10TH ST NW,503,Midtown,E,33.78159,-84.38894,
ROBBERY-PEDESTRIAN,160282000,01/28/2016,1790 HOWELL MILL RD NW,204,Underwood Hills,D,33.80352,-84.41455,
AUTO THEFT,160280407,01/28/2016,3137 E SHADOWLAWN,206,Buckhead Village,B,33.8406,-84.37387,
ROBBERY-PEDESTRIAN,160273028,01/27/2016,2615 DONALD LEE HOLLOWELL PKWY NW,109,Center Hill,J,33.7762,-84.47236,
ROBBERY-PEDESTRIAN,160273000,01/27/2016,497 LINDSAY ST NW,103,English Avenue,L,33.76819,-84.41639,
ROBBERY-PEDESTRIAN,160270171,01/27/2016,1890 MYRTLE DR SW,410,Campbellton Road,R,33.70405,-84.45488,
ROBBERY-PEDESTRIAN,160270248,01/27/2016,1469 CAMPBELLTON RD SW     ,408,Venetian Hills,S,33.71409,-84.43661,
AGG ASSAULT,160271514,01/27/2016,731 PEACHTREE ST NE,505,Midtown,E,33.77454,-84.3839,
AGG ASSAULT,160270784,01/27/2016,2500 CENTER ST NW,113,Carey Park,G,33.78999,-84.47156,
AGG ASSAULT,160272907,01/27/2016,3144 MARTIN L KING JR DR SW,406,,I,33.74995,-84.4899,
AGG ASSAULT,160270077,01/27/2016,2905 3RD AVE SW,311,Hammond Park,X,33.67704,-84.40554,
AGG ASSAULT,160271640,01/27/2016,681 UNIVERSITY AVE SW,301,Adair Park,V,33.72227,-84.40991,
ROBBERY-PEDESTRIAN,160272578,01/27/2016,490 FAIRBURN RD SW,407,Fairburn Mays,H,33.74107,-84.50997,
AGG ASSAULT,160272801,01/27/2016,I-75-85 NB EXPY SW / UNIVERSITY AVE SW,302,Pittsburgh,V,33.72201,-84.39468,
BURGLARY-RESIDENCE,160272395,01/27/2016,4245 CONWAY VALLEY RD NW,202,Mt. Paran/Northside,A,33.86884,-84.42279,
BURGLARY-RESIDENCE,160272696,01/27/2016,539 GRANT ST SE,605,Grant Park,W,33.73989,-84.37654,
BURGLARY-RESIDENCE,160272499,01/27/2016,3739 BRITTANY WALK SW,413,Ben Hill Pines,P,33.68194,-84.50742,
BURGLARY-RESIDENCE,160273195,01/27/2016,921 WESTMORELAND CIR NW,110,West Highlands,G,33.78956,-84.44919,
BURGLARY-RESIDENCE,160273240,01/27/2016,1483 ARTHUR LANGFORD JR PL SW,307,Joyland,Y,33.71412,-84.39753,
BURGLARY-RESIDENCE,160272996,01/27/2016,930 SELLS AVE SW,104,Harris Chiles,T,33.74532,-84.41841,
BURGLARY-RESIDENCE,160261915,01/27/2016,598 LARCHMONT DR NW ,113,Collier Heights,I,33.76803,-84.49013,
BURGLARY-RESIDENCE,160272737,01/27/2016,4480 POWERS FERRY RD NW,202,Chastain Park,A,33.87742,-84.39773,
BURGLARY-RESIDENCE,160271862,01/27/2016,1143 FAIR ST SW,104,Ashview Heights,T,33.74927,-84.42503,
BURGLARY-RESIDENCE,160270198,01/27/2016,2481 CLAUDE ST NW,203,Riverside,D,33.81171,-84.46968,
BURGLARY-RESIDENCE,160270920,01/27/2016,960 CONSTITUTION RD SE,308,Norwood Manor,Z,33.69307,-84.35805,
BURGLARY-RESIDENCE,160270917,01/27/2016,294 DEERING RD ,207,Loring Heights,E,33.79592,-84.39784,
BURGLARY-RESIDENCE,160272827,01/27/2016,2554 EDWARDS DR NW,203,Riverside,D,33.81474,-84.47176,
BURGLARY-RESIDENCE,160271501,01/27/2016,56 THAYER AVE SE,305,South Atlanta,Y,33.7157,-84.3863,
BURGLARY-RESIDENCE,160271950,01/27/2016,1579 ABNER TER NW,110,Carver Hills,G,33.80035,-84.4657,
BURGLARY-RESIDENCE,160271370,01/27/2016,2874 GRAND AVE SW,311,Hammond Park,X,33.67636,-84.40158,
BURGLARY-RESIDENCE,160271592,01/27/2016,2274 POLAR ROCK PL SW,310,Polar Rock,Z,33.69238,-84.39409,
BURGLARY-RESIDENCE,160271223,01/27/2016,3859 COLLIER DR NW,114,Carroll Heights,H,33.77014,-84.51251,
BURGLARY-RESIDENCE,160271165,01/27/2016,2909 CAMPBELLTON RD SW,409,Southwest,R,33.69869,-84.48265,
BURGLARY-NONRES,160270491,01/27/2016,421 MORELAND AVE NE,608,Candler Park,N,33.76598,-84.34896,
BURGLARY-NONRES,160270611,01/27/2016,2258 CASCADE RD SW,409,Adams Park,R,33.72226,-84.46237,
BURGLARY-RESIDENCE,160271800,01/27/2016,2778 VINEYARDS DR SE,312,Rosedale Heights,Z,33.67901,-84.37179,
BURGLARY-RESIDENCE,160271499,01/27/2016,55 MAPLE ST NW,102,Vine City,L,33.75569,-84.40528,
LARCENY-NON VEHICLE,160270932,01/27/2016,1870 HONEYSUCKLE LN SW,410,Campbellton Road,R,33.70689,-84.45345,
BURGLARY-RESIDENCE,160271257,01/27/2016,1205 METROPOLITAN AVE SE,612,East Atlanta,W,33.74147,-84.34804,
LARCENY-NON VEHICLE,160271659,01/27/2016,970 SPRING ST NW,503,Midtown,E,33.78123,-84.38946,
LARCENY-NON VEHICLE,160271452,01/27/2016,374 CLEVELAND AVE SE,310,Browns Mill Park,Z,33.68079,-84.37384,
LARCENY-NON VEHICLE,160272258,01/27/2016,832 RALPH D ABERNATHY BLVD SW,401,West End,T,33.73778,-84.41506,
LARCENY-NON VEHICLE,160271204,01/27/2016,20 BROAD ST SW,511,Downtown,M,33.75312,-84.39208,
LARCENY-NON VEHICLE,160272055,01/27/2016,1275 CAROLINE ST NE ,609,Edgewood,O,33.75674,-84.34619,
LARCENY-NON VEHICLE,160271729,01/27/2016,1219 METROPOLITAN PKWY SW,301,Adair Park,V,33.72142,-84.40796,
LARCENY-NON VEHICLE,160270945,01/27/2016,2989 CAMPBELLTON RD SW,409,Southwest,R,33.69655,-84.48597,
LARCENY-NON VEHICLE,160272057,01/27/2016,1217 CAROLINE ST NE,609,Edgewood,O,33.75786,-84.34875,
LARCENY-FROM VEHICLE,160272469,01/27/2016,2600 MARTIN L KING JR DR SW,405,Harland Terrace,I,33.75317,-84.47247,
LARCENY-FROM VEHICLE,160278034,01/27/2016,6023 NORTH TERMINAL BY-WAY,705,,,33.64214,-84.44652,
LARCENY-FROM VEHICLE,160272688,01/27/2016,180 WALKER STREET ,507,Castleberry Hill,M,33.74964,-84.40132,
LARCENY-FROM VEHICLE,160272950,01/27/2016,800 MIAMI CIR NE,211,Lindbergh/Morosgo,B,33.83098,-84.36329,
LARCENY-FROM VEHICLE,160272971,01/27/2016,710 COMMERCIAL AVE NW,109,Center Hill,J,33.77429,-84.47136,
LARCENY-FROM VEHICLE,160272828,01/27/2016,2925 PIEDMONT RD,211,Peachtree Park,B,33.83476,-84.3679,
LARCENY-FROM VEHICLE,160271118,01/27/2016,29 MARIETTA ST NW,508,Downtown,M,33.75509,-84.39057,
LARCENY-FROM VEHICLE,160271384,01/27/2016,395 BEVERLY RD NE,502,Ansley Park,E,33.79683,-84.37618,
LARCENY-FROM VEHICLE,160271519,01/27/2016,DANIEL ST SE / EDGEWOOD AVE NE,604,Old Fourth Ward,M,33.75429,-84.37129,
LARCENY-FROM VEHICLE,160271799,01/27/2016,2000 MARIETTA BLVD NW ,203,Hills Park,D,33.80871,-84.43845,
LARCENY-FROM VEHICLE,160271830,01/27/2016,1269 CAHABA DR SW,408,Venetian Hills,S,33.72069,-84.44866,
LARCENY-FROM VEHICLE,160271880,01/27/2016,760 BOLTON RD NW @APS TOWNS ES,114,Carroll Heights,H,33.77629,-84.50389,
LARCENY-FROM VEHICLE,160271980,01/27/2016,226 COURTLAND ST NE,509,Downtown,M,33.76051,-84.38429,
LARCENY-FROM VEHICLE,160272018,01/27/2016,3700 CAMPBELLTON RD SW,413,,P,33.68995,-84.50961,
LARCENY-FROM VEHICLE,160272090,01/27/2016,3050 MARTIN L KING JR DR SW,405,Harland Terrace,I,33.75177,-84.4857,
LARCENY-FROM VEHICLE,160272115,01/27/2016,3311 EMPIRE BLVD SW,312,Glenrose Heights,Z,33.66445,-84.39186,
LARCENY-FROM VEHICLE,160271853,01/27/2016,200 CENTRAL AVE SW,512,Downtown,M,33.74922,-84.39087,
LARCENY-FROM VEHICLE,160270035,01/27/2016,419 CHAMERLAIN ST SE,604,Sweet Auburn,M,33.75356,-84.37375,
LARCENY-FROM VEHICLE,160271104,01/27/2016,2525 PIEDMONT RD NE @HOME DEPOT,211,Lindbergh/Morosgo,B,33.8245,-84.366,
LARCENY-FROM VEHICLE,160270272,01/27/2016,3393 PEACHTREE RD NE ,210,Lenox,B,33.84676,-84.36212,
LARCENY-FROM VEHICLE,160270734,01/27/2016,2400 DANIEL RD SW ,413,Fairburn,P,33.69328,-84.51892,
LARCENY-FROM VEHICLE,160270602,01/27/2016,1130 PEACHTREE ST NE,503,Midtown,E,33.78526,-84.3831,
LARCENY-FROM VEHICLE,160270747,01/27/2016,675 S EVELYN PL NW,107,Grove Park,J,33.77343,-84.44551,
LARCENY-NON VEHICLE,160272217,01/27/2016,1371 KIMBERLY WAY SW,412,Ashley Courts,P,33.71771,-84.52315,
LARCENY-NON VEHICLE,160272914,01/27/2016,891 PONCE DE LEON AVE NE,602,Poncey-Highland,N,33.77344,-84.35822,
LARCENY-NON VEHICLE,160272385,01/27/2016,190 MARIETTA ST NW,507,Downtown,M,33.75757,-84.39487,
LARCENY-NON VEHICLE,160271011,01/27/2016,801 GLENWOOD AVE SE @APS JACKSON HS,605,Grant Park,W,33.73958,-84.36161,
LARCENY-NON VEHICLE,160271115,01/27/2016,1915 BROWNS MILL RD SE,307,Lakewood Heights,Y,33.70175,-84.37666,
LARCENY-NON VEHICLE,160271273,01/27/2016,190 MARIETTA ST NW,505,Downtown,M,33.75757,-84.39487,
LARCENY-NON VEHICLE,160272098,01/27/2016,400 HILLSIDE DR SW,301,Capitol View Manor,X,33.71667,-84.40079,
LARCENY-NON VEHICLE,160271603,01/27/2016,215 PEACHTREE ST NE,509,Downtown,M,33.76001,-84.38747,
LARCENY-NON VEHICLE,160272473,01/27/2016,1660 DONALD LEE HOLLOWELL PKWY NW,107,Grove Park,J,33.77267,-84.44238,
LARCENY-NON VEHICLE,160272301,01/27/2016,3508 ADKINS RD NW,114,Fairburn Heights,H,33.77268,-84.50489,
LARCENY-NON VEHICLE,160272285,01/27/2016,2255 LENOX RD NE,213,Lindbergh/Morosgo,B,33.82591,-84.36714,
LARCENY-NON VEHICLE,160272134,01/27/2016,341 PONCE DE LEON AVE NE,603,Old Fourth Ward,M,33.77222,-84.37559,
LARCENY-NON VEHICLE,160271214,01/27/2016,4111 NORTHSIDE PKWY,201,Paces,A,33.86499,-84.44686,
LARCENY-NON VEHICLE,160272752,01/27/2016,851 STRATUM WAY SE,605,Grant Park,W,33.73035,-84.36311,
LARCENY-NON VEHICLE,160271430,01/27/2016,400 SPRINGSIDE DR SE,312,Rosedale Heights,Z,33.67693,-84.37673,
LARCENY-NON VEHICLE,160271920,01/27/2016,741 MOROSGO DR NE,211,Lindbergh/Morosgo,B,33.82266,-84.3643,
AUTO THEFT,160270765,01/27/2016,415 FAIRBURN RD SW,407,Fairburn Mays,H,33.74349,-84.50968,
AUTO THEFT,160270715,01/27/2016,600 GREENSFERRY AVE SW,101,The Villages at Castleberry Hill,T,33.74662,-84.40755,
AUTO THEFT,160273205,01/27/2016,220 RENAISSANCE PKWY NE,603,Old Fourth Ward,M,33.76943,-84.38025,
AUTO THEFT,160273153,01/27/2016,2533 DONALD LEE HOLLOWELL PKWY NW,109,Center Hill,J,33.77579,-84.46904,
AUTO THEFT,160273071,01/27/2016,1972 COUNTY LINE RD SW,412,,P,33.7016,-84.53587,
AUTO THEFT,160272892,01/27/2016,710 COMMERCIAL AVE NW,109,Center Hill,J,33.77429,-84.47136,
AUTO THEFT,160272641,01/27/2016,3041 LANDRUM DR SW,409,Southwest,R,33.70649,-84.48782,
AUTO THEFT,160272534,01/27/2016,1122 CRESCENT AVE NE,503,Midtown,E,33.78533,-84.3845,
AUTO THEFT,160271124,01/27/2016,214 COLONIAL HOMES DR NW,205,Colonial Homes,C,33.81392,-84.39454,
AUTO THEFT,160271022,01/27/2016,534 TUFTON TRL SE,312,Glenrose Heights,Z,33.66499,-84.38309,
AUTO THEFT,160272390,01/27/2016,2841 GREENBRIAR PKWY SW @GREENBRIAR MALL,411,Greenbriar,R,33.68677,-84.49773,
AUTO THEFT,160272193,01/27/2016,415 FAIRBURN RD SW @HIDDEN HOLLOW APTS,407,Fairburn Mays,H,33.74277,-84.5117,
AUTO THEFT,160270935,01/27/2016,234 MEMORIAL DR SW,512,Downtown,M,33.7465,-84.39536,
AUTO THEFT,160263333,01/26/2016,204 MOURY AVE SW,305,The Villages at Carver,Y,33.71678,-84.39291,
AUTO THEFT,160260117,01/26/2016,3200 CUSHMAN CIR SW ,406,,I,33.74856,-84.49227,
AUTO THEFT,160261103,01/26/2016,55 HILLIARD ST SE,604,Sweet Auburn,M,33.75286,-84.37718,
AUTO THEFT,160261149,01/26/2016,636 LAWTON ST SW,401,West End,T,33.73777,-84.4231,
AUTO THEFT,160260808,01/26/2016,2060 GRANGE DR SE,308,Thomasville Heights,Z,33.69907,-84.35918,
AUTO THEFT,160260853,01/26/2016,527 TUFTON TRL SE,312,Glenrose Heights,Z,33.66466,-84.38338,
AUTO THEFT,160261533,01/26/2016,892 HARGIS ST SE,308,Leila Valley,Z,33.68765,-84.36052,
LARCENY-NON VEHICLE,160262687,01/26/2016,1568 JOHNSON RD NW,110,Rockdale,G,33.78577,-84.44367,
LARCENY-NON VEHICLE,160262623,01/26/2016,3393 PEACHTREE RD NE @LENOX MALL;,210,Lenox,B,33.84676,-84.36212,
LARCENY-NON VEHICLE,160262193,01/26/2016,290 UNIVERSITY AVE SW,302,Pittsburgh,V,33.72096,-84.3978,
LARCENY-NON VEHICLE,160261041,01/26/2016,983 FAITH AVE SE,606,Ormewood Park,W,33.74231,-84.3551,
LARCENY-NON VEHICLE,160260671,01/26/2016,477 PEACHTREE ST NE,509,Downtown,M,33.76764,-84.38524,
LARCENY-NON VEHICLE,160263023,01/26/2016,275 13TH ST NE,503,Midtown,E,33.78525,-84.37895,
LARCENY-NON VEHICLE,160261285,01/26/2016,1178 PIEDMONT AVE NE,502,Ansley Park,E,33.78733,-84.37824,
LARCENY-FROM VEHICLE,160261712,01/26/2016,1245 MELBENAN DR SW,409,Horseshoe Community,I,33.72192,-84.49838,
LARCENY-FROM VEHICLE,160261664,01/26/2016,310 DARGAN PL SW,104,West End,T,33.74662,-84.42395,
LARCENY-FROM VEHICLE,160261649,01/26/2016,288 ARD PL NW,111,Adamsville,H,33.7636,-84.50395,
LARCENY-FROM VEHICLE,160262050,01/26/2016,2936 CAMBRIDGE DR SW,414,Brentwood,P,33.67559,-84.50601,
LARCENY-FROM VEHICLE,160262556,01/26/2016,740 GARIBALDI ST SW,303,Mechanicsville,V,33.7347,-84.39891,
LARCENY-FROM VEHICLE,160261781,01/26/2016,2128 MEMORIAL DR SE,611,Kirkwood,O,33.74761,-84.31808,
LARCENY-FROM VEHICLE,160263439,01/26/2016,3472 LENOX RD NE,210,Lenox,B,33.84965,-84.36143,
LARCENY-FROM VEHICLE,160262791,01/26/2016,3393 PEACHTREE RD NE @LENOX MALL,210,Lenox,B,33.84676,-84.36212,
LARCENY-FROM VEHICLE,160262921,01/26/2016,508 MAIN ST NE,211,Lindbergh/Morosgo,B,33.8227,-84.37056,
LARCENY-FROM VEHICLE,160262674,01/26/2016,875 CREW ST SW,304,Peoplestown,V,33.731,-84.38955,
LARCENY-FROM VEHICLE,160263085,01/26/2016,856 BECKWITH ST SW,101,Atlanta University Center,T,33.75199,-84.4157,
LARCENY-FROM VEHICLE,160260379,01/26/2016,43 WALTON ST NW,508,Downtown,M,33.75581,-84.39002,
LARCENY-FROM VEHICLE,160260744,01/26/2016,887 FLEETWOOD CIR SW,406,Beecher Hills,I,33.73667,-84.46221,
LARCENY-FROM VEHICLE,160260773,01/26/2016,1488 NEWTON AVE SE,612,East Atlanta,W,33.73829,-84.3388,
LARCENY-FROM VEHICLE,160260809,01/26/2016,658 BOULEVARD SE,605,Grant Park,W,33.73652,-84.36791,
LARCENY-FROM VEHICLE,160261926,01/26/2016,1801 HOWELL MILL RD NW,204,Berkeley Park,D,33.80388,-84.41278,
LARCENY-FROM VEHICLE,160261953,01/26/2016,215 6TH ST NE,505,Midtown,E,33.77699,-84.38036,
LARCENY-FROM VEHICLE,160261938,01/26/2016,1125 CARNES PL SW,306,Sylvan Hills,X,33.71375,-84.42503,
LARCENY-FROM VEHICLE,160262155,01/26/2016,1132 SPRING ST NW,503,Midtown,E,33.786,-84.38934,
LARCENY-FROM VEHICLE,160262269,01/26/2016,1200 SPRING ST NW,502,Midtown,E,33.78741,-84.3896,
LARCENY-FROM VEHICLE,160262288,01/26/2016,2482 SCOTTRIDGE DR NW,108,Harvel Homes Community,J,33.75872,-84.46848,
LARCENY-FROM VEHICLE,160261026,01/26/2016,235 WILLIAMS ST NW,508,Downtown,M,33.76018,-84.39015,
LARCENY-FROM VEHICLE,160261460,01/26/2016,1530 CARROLL DR NW,203,Hills Park,D,33.80186,-84.43854,
LARCENY-FROM VEHICLE,160261718,01/26/2016,10 LAKESIDE VILLAGE DR SE,611,The Villages at East Lake,O,33.74336,-84.31606,
LARCENY-FROM VEHICLE,160261803,01/26/2016,180 PRYOR ST SW,512,Downtown,M,33.74975,-84.39214,
LARCENY-NON VEHICLE,160262402,01/26/2016,3500 PEACHTREE RD NE ,208,North Buckhead,B,33.85252,-84.36116,
LARCENY-NON VEHICLE,160262382,01/26/2016,1801 HOWELL MILL RD NW,204,Berkeley Park,D,33.80388,-84.41278,
LARCENY-NON VEHICLE,160263178,01/26/2016,835 MARTIN L KING JR DR NW,102,Vine City,L,33.75504,-84.41457,
LARCENY-NON VEHICLE,160261585,01/26/2016,1371 MARKET ST NE,501,Atlantic Station,E,33.7921,-84.39466,
LARCENY-NON VEHICLE,160261855,01/26/2016,1801 HOWELL MILL RD NW,204,Berkeley Park,D,33.80388,-84.41278,
LARCENY-NON VEHICLE,160261543,01/26/2016,2975 HEADLAND DR SW @BIG LOTS - HEADLAND,411,Greenbriar,R,33.69168,-84.4872,
LARCENY-NON VEHICLE,160260600,01/26/2016,590 CASCADE AVE SW ,402,West End,T,33.73812,-84.43276,
LARCENY-NON VEHICLE,160260005,01/26/2016,1225 CAROLINE ST NE @TARGET - CAROLINE,609,Edgewood,O,33.75605,-84.34813,
LARCENY-NON VEHICLE,160262076,01/26/2016,65 ALABAMA ST SW,511,Downtown,M,33.75258,-84.38992,
LARCENY-NON VEHICLE,160262141,01/26/2016,1943 PEACHTREE RD NE,207,Brookwood Hills,E,33.80799,-84.39355,
LARCENY-NON VEHICLE,160263368,01/26/2016,1801 HOWELL MILL RD NW,204,Berkeley Park,D,33.80388,-84.41278,
LARCENY-NON VEHICLE,160262464,01/26/2016,3221 PEACHTREE RD NE,205,Buckhead Village,B,33.84218,-84.37344,
LARCENY-NON VEHICLE,160268067,01/26/2016,6000 S TERMINAL PKWY,704,,,33.63751,-84.44824,
BURGLARY-NONRES,160260539,01/26/2016,395 NELSON ST SW,507,Castleberry Hill,M,33.75141,-84.40047,
BURGLARY-RESIDENCE,160262430,01/26/2016,1875 BAYBERRY DR SW,408,Venetian Hills,S,33.71625,-84.44911,
BURGLARY-RESIDENCE,160262578,01/26/2016,462 ANGIER AVE NE,603,Old Fourth Ward,M,33.76647,-84.37203,
BURGLARY-RESIDENCE,160262304,01/26/2016,3725 PRINCETON LAKES PKWY SW,414,Princeton Lakes,P,33.65777,-84.50877,
BURGLARY-RESIDENCE,160262348,01/26/2016,2112 BOLLINGBROOK DR SW,406,Beecher Hills,I,33.73506,-84.45859,
BURGLARY-NONRES,160260555,01/26/2016,2201 MARTIN L KING JR DR NW,108,Florida Heights,I,33.7525,-84.46444,
BURGLARY-RESIDENCE,160263436,01/26/2016,3378 GREENBRIAR PKWY SW,413,,P,33.68387,-84.50204,
BURGLARY-RESIDENCE,160261922,01/26/2016,870 MAYSON TURNER RD NW,102,Vine City,L,33.756,-84.41629,
BURGLARY-RESIDENCE,160261203,01/26/2016,1034 FOREST VALLEY DR SE,313,South River Gardens,Z,33.65119,-84.35658,
BURGLARY-RESIDENCE,160260657,01/26/2016,2591 ETHERIDGE DR NW,113,Carey Park,G,33.7881,-84.47292,
BURGLARY-RESIDENCE,160260658,01/26/2016,1119 ARLINGTON AVE SW,402,Oakland City,S,33.72436,-84.42451,
BURGLARY-RESIDENCE,160261160,01/26/2016,3102 ROSWELL RD,206,South Tuxedo Park,B,33.84016,-84.37965,
BURGLARY-RESIDENCE,160262006,01/26/2016,2423 MARTIN L KING JR DR NW,108,Florida Heights,I,33.75183,-84.46623,
BURGLARY-RESIDENCE,160262136,01/26/2016,2640 MARTIN L KING JR DR SW,405,Harland Terrace,I,33.75381,-84.47425,
BURGLARY-RESIDENCE,160261475,01/26/2016,13 GILBERT TRL NE,603,Old Fourth Ward,M,33.76846,-84.37915,
AGG ASSAULT,160261305,01/26/2016,537 PARK AVE SE @GRANT PARK,605,Grant Park,W,33.74031,-84.37167,
AGG ASSAULT,160263113,01/26/2016,193 JOSEPH E LOWERY BLVD,104,Ashview Heights,T,33.74939,-84.41781,
AGG ASSAULT,160262031,01/26/2016,1 MORELAND AVE,609,Reynoldstown,N,33.75339,-84.34945,
ROBBERY-PEDESTRIAN,160263187,01/26/2016,2745 OLD HAPEVILLE RD SW,311,Glenrose Heights,Z,33.67992,-84.39348,
ROBBERY-PEDESTRIAN,160260108,01/26/2016,390 STOVALL ST SE,606,Ormewood Park,W,33.74366,-84.3541,
ROBBERY-PEDESTRIAN,160260616,01/26/2016,2587 DONALD LEE HOLLOWELL PKWY NW,109,Center Hill,J,33.77553,-84.4712,
ROBBERY-PEDESTRIAN,160261994,01/26/2016,2905 3RD AVE SW,311,Perkerson,X,33.68121,-84.40279,
AUTO THEFT,160261000,01/26/2016,60 PASCHAL BLVD NW,102,Vine City,L,33.75783,-84.41419,
AUTO THEFT,160260639,01/26/2016,636 IRA ST SW,303,Mechanicsville,V,33.7376,-84.39973,
ROBBERY-PEDESTRIAN,160250654,01/25/2016,2116 DEFOORS FERRY RD NW,204,Underwood Hills,D,33.8133,-84.42599,
ROBBERY-PEDESTRIAN,160250317,01/25/2016,708 MCDANIEL ST SW,303,Mechanicsville,V,33.7356,-84.40148,
ROBBERY-PEDESTRIAN,160250345,01/25/2016,1006 GUN CLUB RD NW,110,Grove Park,J,33.78297,-84.45707,
ROBBERY-PEDESTRIAN,160250107,01/25/2016,920 GLENWOOD AVE ,606,Ormewood Park,W,33.73993,-84.35789,
ROBBERY-RESIDENCE,160250171,01/25/2016,2025 PEACHTREE RD NE,207,,E,33.80958,-84.39294,
ROBBERY-COMMERCIAL,160250658,01/25/2016,2091 METROPOLITAN PARKWAY SW,306,Sylvan Hills,X,33.69816,-84.40848,
ROBBERY-PEDESTRIAN,160253265,01/25/2016,562 GRESHAM AVE SE,612,East Atlanta,W,33.73921,-84.34571,
AGG ASSAULT,160252850,01/25/2016,89 MANGUM ST SW,507,Castleberry Hill,M,33.75191,-84.40002,
AGG ASSAULT,160232433,01/25/2016,2333 TIGER FLOWERS DR,108,Dixie Hills,J,33.76077,-84.46407,
ROBBERY-RESIDENCE,160251252,01/25/2016,445 CLEVELAND AVE SE,312,Rosedale Heights,Z,33.68149,-84.37152,
BURGLARY-RESIDENCE,160251406,01/25/2016,1445 MONROE DR NE,213,Morningside/Lenox Park,F,33.79407,-84.36714,
BURGLARY-RESIDENCE,160251086,01/25/2016,491 LINDBERGH PL NE,211,Lindbergh/Morosgo,B,33.81947,-84.37115,
BURGLARY-RESIDENCE,160253200,01/25/2016,435 HIGHLAND AVE NE,604,Old Fourth Ward,M,33.76128,-84.37318,
BURGLARY-RESIDENCE,160252918,01/25/2016,499 WOODWARD AVE SE,605,Grant Park,W,33.74542,-84.37103,
BURGLARY-RESIDENCE,160252331,01/25/2016,863 FAIRBURN RD NW,114,Carroll Heights,H,33.77949,-84.50014,
BURGLARY-RESIDENCE,160253057,01/25/2016,520 FULTON ST SW,303,Mechanicsville,V,33.74092,-84.40419,
BURGLARY-RESIDENCE,160252952,01/25/2016,585 BROWNLEE RD SW,406,,I,33.73994,-84.49699,
BURGLARY-RESIDENCE,160250999,01/25/2016,2900 LANDRUM DR SW,409,Southwest,R,33.70495,-84.48299,
BURGLARY-NONRES,160250899,01/25/2016,583 MCAFEE ST NW,504,Downtown,M,33.76812,-84.39443,
BURGLARY-NONRES,160251238,01/25/2016,225 HUNNICUTT ST NW,504,Downtown,M,33.76673,-84.39512,
BURGLARY-NONRES,160251640,01/25/2016,4050 BOULDER PARK DR SW,407,Wildwood (NPU-H),H,33.74713,-84.52051,
BURGLARY-NONRES,160251985,01/25/2016,1145 MOUNT PARAN RD NW,202,Mt. Paran/Northside,A,33.87302,-84.41638,
BURGLARY-NONRES,160252192,01/25/2016,2800 CAMPBELLTON RD SW,410,Campbellton Road,R,33.69967,-84.47996,
BURGLARY-RESIDENCE,160253055,01/25/2016,370 NORTHSIDE DR NW,103,English Avenue,L,33.76507,-84.4042,
BURGLARY-RESIDENCE,160251733,01/25/2016,1833 SYLVAN RD SW,306,Sylvan Hills,X,33.70479,-84.41847,
BURGLARY-NONRES,160251637,01/25/2016,2115 MONROE DR NE,212,Piedmont Heights,F,33.81007,-84.3713,
BURGLARY-NONRES,160250710,01/25/2016,4362 ROSWELL RD NE,209,East Chastain Park,B,33.87388,-84.38141,
LARCENY-NON VEHICLE,160251525,01/25/2016,842 PEACHTREE ST NE,505,Midtown,E,33.77756,-84.38482,
LARCENY-NON VEHICLE,160251546,01/25/2016,2841 GREENBRIAR PKWY SW @ MACYS,411,Greenbriar,R,33.68677,-84.49773,
LARCENY-NON VEHICLE,160251550,01/25/2016,595 PIEDMONT AVE NE WALGREENS- PIEDMONT,603,Old Fourth Ward,M,33.77067,-84.38023,
LARCENY-NON VEHICLE,160252160,01/25/2016,2539 PIEDMONT RD NE @TARGET - PIEDMONT,211,Lindbergh/Morosgo,B,33.82403,-84.36328,
LARCENY-NON VEHICLE,160252012,01/25/2016,20 BROAD ST SW,511,Downtown,M,33.75312,-84.39208,
LARCENY-NON VEHICLE,160252624,01/25/2016,2539 PIEDMONT RD NE @TARGET - PIEDMONT,211,Lindbergh/Morosgo,B,33.82403,-84.36328,
LARCENY-NON VEHICLE,160252985,01/25/2016,850 OAK ST SW ,401,West End,T,33.74057,-84.4168,
LARCENY-NON VEHICLE,160251318,01/25/2016,3393 PEACHTREE RD NE ,210,Lenox,B,33.84676,-84.36212,
LARCENY-NON VEHICLE,160252327,01/25/2016,1380 ATLANTIC DR NW,501,Atlantic Station,E,33.79282,-84.39779,
LARCENY-NON VEHICLE,160252429,01/25/2016,2841 GREENBRIAR PKWY SW @GREENBRIAR MALL,411,Greenbriar,R,33.68677,-84.49773,
LARCENY-NON VEHICLE,160252611,01/25/2016,3393 PEACHTREE ST,210,Lenox,B,33.84892,-84.36426,
LARCENY-NON VEHICLE,160252571,01/25/2016,1801 HOWELL MILL RD NW,204,Berkeley Park,D,33.80388,-84.41278,
LARCENY-NON VEHICLE,160252546,01/25/2016,1275 CAROLINE ST NE @TARGET - CAROLINE,609,Edgewood,O,33.75674,-84.34619,
LARCENY-FROM VEHICLE,160251214,01/25/2016,968 MEMORIAL DR SE,606,Reynoldstown,N,33.74676,-84.35595,
LARCENY-FROM VEHICLE,160252279,01/25/2016,51 PEACHTREE CENTER NE,510,Downtown,M,33.75589,-84.38563,
LARCENY-FROM VEHICLE,160252306,01/25/2016,811 BRIARCLIFF RD NE,608,Druid Hills,N,33.77645,-84.34774,
LARCENY-FROM VEHICLE,160251944,01/25/2016,2975 HEADLAND DR SW @BIG LOTS - HEADLAND,411,Greenbriar,R,33.69168,-84.4872,
LARCENY-FROM VEHICLE,160252050,01/25/2016,1919 METROPOLITAN PKWY SW,306,Sylvan Hills,X,33.70278,-84.41017,
LARCENY-FROM VEHICLE,160252093,01/25/2016,856 BECKWITH ST SW,101,Atlanta University Center,T,33.75199,-84.4157,
LARCENY-FROM VEHICLE,160250097,01/25/2016,1170 PEACHTREE ST NE,503,Midtown,E,33.78627,-84.38318,
LARCENY-FROM VEHICLE,160253068,01/25/2016,1005 BALDWIN ST SW,104,Ashview Heights,T,33.74693,-84.42038,
LARCENY-FROM VEHICLE,160252899,01/25/2016,3393 PEACHTREE RD NE @LENOX MALL,210,Lenox,B,33.84676,-84.36212,
LARCENY-FROM VEHICLE,160252994,01/25/2016,3660 CAMP CREEK PKWY SW,414,Princeton Lakes,P,33.65486,-84.50787,
LARCENY-FROM VEHICLE,160252619,01/25/2016,3161 CANNON ST SW,414,Princeton Lakes,P,33.66712,-84.51102,
LARCENY-FROM VEHICLE,160252737,01/25/2016,1201 COLLIER RD NW,204,,C,33.81162,-84.425,
LARCENY-FROM VEHICLE,160252764,01/25/2016,1465 CHATTAHOOCHEE AVE NW,204,Underwood Hills,D,33.80787,-84.43494,
LARCENY-FROM VEHICLE,160252844,01/25/2016,118 CONE ST,508,Downtown,M,33.75786,-84.39028,
LARCENY-FROM VEHICLE,160253132,01/25/2016,939 CONNALLY ST SE,304,Peoplestown,V,33.72887,-84.3815,
LARCENY-FROM VEHICLE,160252919,01/25/2016,1544 PIEDMONT AVE NE,213,Piedmont Heights,F,33.79668,-84.36951,
LARCENY-FROM VEHICLE,160252615,01/25/2016,2525 PIEDMONT RD NE @HOME DEPOT,211,Lindbergh/Morosgo,B,33.824,-84.36521,
LARCENY-FROM VEHICLE,160251390,01/25/2016,1510 MURPHY AVE SW,306,Sylvan Hills,X,33.71374,-84.4257,
LARCENY-FROM VEHICLE,160251495,01/25/2016,3649 VENETIAN PL SW,414,Princeton Lakes,P,33.66279,-84.51349,
LARCENY-FROM VEHICLE,160250897,01/25/2016,399 BASS ST SE,605,Grant Park,W,33.73472,-84.37455,
LARCENY-FROM VEHICLE,160250900,01/25/2016,383 5TH ST NE,506,Midtown,E,33.77509,-84.37467,
LARCENY-FROM VEHICLE,160250978,01/25/2016,2524 DANIEL RD SW,413,,P,33.68561,-84.51302,
LARCENY-FROM VEHICLE,160251659,01/25/2016,425 LANGHORN ST SW,401,Westview,T,33.74363,-84.43301,
LARCENY-FROM VEHICLE,160251345,01/25/2016,207 PEACHTREE CENTER AVE NE,509,Downtown,M,33.7602,-84.38554,
LARCENY-FROM VEHICLE,160251220,01/25/2016,201 MOURY AVE SW,305,The Villages at Carver,Y,33.71691,-84.39276,
LARCENY-NON VEHICLE,160251880,01/25/2016,478 CENTENNIAL OLYMPIC P DR NW,504,Downtown,M,33.76731,-84.392,
LARCENY-NON VEHICLE,160251596,01/25/2016,2905 SPRINGDALE RD SW,311,Hammond Park,X,33.67575,-84.41631,
LARCENY-NON VEHICLE,160252267,01/25/2016,3455 PEACHTREE RD NE;,210,Lenox,B,33.85199,-84.36061,
LARCENY-NON VEHICLE,160252776,01/25/2016,3116 BENJAMIN E MAYS DR SW @APS YOUNG MS,406,Green Forest Acres,I,33.73303,-84.48973,
LARCENY-NON VEHICLE,160201066,01/25/2016,3461 MEADOW LANE PL,412,Meadowbrook Forest,P,33.69267,-84.50146,
LARCENY-NON VEHICLE,160252186,01/25/2016,26 GOULD ST SE,307,Lakewood Heights,Y,33.70709,-84.37774,
LARCENY-NON VEHICLE,160251764,01/25/2016,1392 DESOTO AVE SW,301,Capitol View,X,33.71689,-84.41161,
LARCENY-NON VEHICLE,160251889,01/25/2016,1901 GLENVIEW DR SW,412,Heritage Valley,P,33.70412,-84.4996,
AUTO THEFT,160253253,01/25/2016,1124 DEKALB AVE NE,602,Inman Park,N,33.75912,-84.35104,
AUTO THEFT,160250961,01/25/2016,3990 N IVY RD NE,209,North Buckhead,B,33.86403,-84.36585,
AUTO THEFT,160250572,01/25/2016,1277 SELLS AVE SW,401,West End,T,33.74554,-84.4295,
AUTO THEFT,160250650,01/25/2016,1163 EWING PL SW,402,Oakland City,S,33.73149,-84.42579,
AUTO THEFT,160253220,01/25/2016,848 MYRTLE ST NE,505,Midtown,E,33.77773,-84.37987,
AUTO THEFT,160250947,01/25/2016,138 EDGEWOOD AVE NE,510,Downtown,M,33.75465,-84.38368,
AUTO THEFT,160250739,01/25/2016,1359 SYLVAN RD SW,301,Capitol View,X,33.71775,-84.41834,
AUTO THEFT,160252453,01/25/2016,2441 CHESHIRE BRIDGE RD NE,212,Lindridge/Martin Manor,F,33.82135,-84.35055,
AUTO THEFT,160251062,01/25/2016,2780 3RD AVE SW,311,Hammond Park,X,33.67913,-84.40151,
AUTO THEFT,160251203,01/25/2016,605 LOFTY LN SW,407,Mays,H,33.74361,-84.50358,
AUTO THEFT,160251792,01/25/2016,358 SOUTHERLAND TER NE,608,Lake Claire,N,33.76382,-84.32458,
AUTO THEFT,160241545,01/24/2016,4077 WAITS AVE SW,413,Fairburn,P,33.69319,-84.52261,
AUTO THEFT,160242555,01/24/2016,1025 HOWELL MILL RD NW,501,Home Park,E,33.78285,-84.41126,
AUTO THEFT,160240785,01/24/2016,717 CHEROKEE AVE SE,605,Grant Park,W,33.73496,-84.37393,
AUTO THEFT,160241560,01/24/2016,255 PETERS ST SW,507,Castleberry Hill,M,33.74747,-84.40182,
AUTO THEFT,160242245,01/24/2016,3669 POWERS FERRY RD,209,East Chastain Park,B,33.85641,-84.38288,
AUTO THEFT,160241144,01/24/2016,1287 LANIER BLVD NE,213,Morningside/Lenox Park,F,33.78982,-84.34954,
AUTO THEFT,160241404,01/24/2016,2798 PEEK RD NW,112,Collier Heights,I,33.77743,-84.47815,
AUTO THEFT,160241139,01/24/2016,601 OAKSIDE DR SW,407,Wisteria Gardens,H,33.75445,-84.51254,
AUTO THEFT,160242286,01/24/2016,1133 HUFF RD NW,203,Blandtown,D,33.78978,-84.42557,
AUTO THEFT,160241265,01/24/2016,691 JOHN WESLEY DOBBS AVE NE,604,Old Fourth Ward,M,33.75901,-84.36484,
LARCENY-NON VEHICLE,160241957,01/24/2016,3368 PEACHTREE RD NE,208,North Buckhead,B,33.84713,-84.36802,
LARCENY-NON VEHICLE,160241536,01/24/2016,3170 DONALD LEE HOLLOWELL PKWY NW,112,Collier Heights,I,33.78577,-84.49055,
LARCENY-NON VEHICLE,160241245,01/24/2016,2020 CAMPBELLTON RD SW,410,Adams Park,R,33.70653,-84.45745,
LARCENY-NON VEHICLE,160241169,01/24/2016,1608 OLYMPIAN WAY SW,404,Westview,T,33.736,-84.4403,
LARCENY-NON VEHICLE,160241052,01/24/2016,808 WILDWOOD RD NE,213,Morningside/Lenox Park,F,33.80386,-84.36113,
LARCENY-NON VEHICLE,160241977,01/24/2016,70 CLAY ST SE,610,Kirkwood,O,33.75147,-84.33013,
LARCENY-NON VEHICLE,160241248,01/24/2016,950 MARIETTA ST NW,504,Marietta Street Artery,E,33.77689,-84.40807,
LARCENY-FROM VEHICLE,160242563,01/24/2016,780 FRANCIS PL NW,110,Grove Park,J,33.77638,-84.43853,
LARCENY-FROM VEHICLE,160241599,01/24/2016,800 CHEROKEE AVE SE @ATLANTA ZOO,605,Grant Park,W,33.7338,-84.37184,
LARCENY-FROM VEHICLE,160241652,01/24/2016,3041 LANDRUM DR SW,409,Southwest,R,33.70649,-84.48782,
LARCENY-FROM VEHICLE,160242171,01/24/2016,1602 LANGSTON AVE SW,306,Sylvan Hills,X,33.71131,-84.42292,
LARCENY-FROM VEHICLE,160242476,01/24/2016,99 BURBANK DR NW,105,Hunter Hills,K,33.75791,-84.42912,
LARCENY-FROM VEHICLE,160242538,01/24/2016,1600 ELLSWORTH INDUSTRIAL BLVD NW,203,Blandtown,D,33.79826,-84.42811,
LARCENY-FROM VEHICLE,160242539,01/24/2016,1991 HOWELL MILL RD NW,205,Channing Valley,C,33.80902,-84.41277,
LARCENY-FROM VEHICLE,160242047,01/24/2016,3393 PEACHTREE RD NE ,210,Lenox,B,33.84676,-84.36212,
LARCENY-FROM VEHICLE,160242116,01/24/2016,112 COURTLAND ST NE,510,Downtown,M,33.7574,-84.38475,
LARCENY-FROM VEHICLE,160241391,01/24/2016,111 PEACHTREE ST SW,512,Downtown,M,33.75165,-84.39259,
LARCENY-FROM VEHICLE,160242232,01/24/2016,2399 PARKLAND DR NE,211,Lindbergh/Morosgo,B,33.8201,-84.36481,
LARCENY-FROM VEHICLE,160240631,01/24/2016,587 WHITEHALL ST SW,303,Pittsburgh,V,33.74301,-84.40716,
LARCENY-FROM VEHICLE,160240935,01/24/2016,870 MAYSON TURNER RD NW,102,Vine City,L,33.756,-84.41629,
LARCENY-FROM VEHICLE,160240102,01/24/2016,3760 PRINCETON LAKES PKWY SW,414,Princeton Lakes,P,33.65806,-84.51051,
LARCENY-FROM VEHICLE,160240067,01/24/2016,939 HANK AARON DR SW,304,Peoplestown,V,33.72895,-84.38829,
LARCENY-FROM VEHICLE,160242155,01/24/2016,736 PONCE DE LEON AVE NE,601,Virginia Highland,F,33.77386,-84.3631,
LARCENY-FROM VEHICLE,160241079,01/24/2016,1037 VIRGINIA AVE NE,601,Virginia Highland,F,33.78208,-84.35334,
LARCENY-FROM VEHICLE,160241135,01/24/2016,3180 PEACHTREE RD NE,208,Buckhead Forest,B,33.84183,-84.3759,
LARCENY-NON VEHICLE,160241108,01/24/2016,1104 MORELAND AVE SE,607,East Atlanta,W,33.7246,-84.34932,
LARCENY-NON VEHICLE,160241056,01/24/2016,2685  METROPOLITAN PKWY,309,Perkerson,X,33.68274,-84.40902,
LARCENY-NON VEHICLE,160241496,01/24/2016,1380 ATLANTIC DRIVE NW,501,Atlantic Station,E,33.79282,-84.39779,
LARCENY-NON VEHICLE,160242004,01/24/2016,3393 PEACHTREE RD NE ,210,Lenox,B,33.84676,-84.36212,
LARCENY-NON VEHICLE,160242469,01/24/2016,350 MORELAND AVE NE,602,Inman Park,N,33.76377,-84.3497,
BURGLARY-RESIDENCE,160242561,01/24/2016,44 KROG ST NE,602,Inman Park,N,33.75503,-84.3643,
BURGLARY-RESIDENCE,160240562,01/24/2016,2500 CENTER ST NW,113,Carey Park,G,33.78999,-84.47156,
LARCENY-NON VEHICLE,160241257,01/24/2016,3393 PEACHTREE RD NE ,210,Lenox,B,33.84676,-84.36212,
LARCENY-NON VEHICLE,160241938,01/24/2016,2539 PIEDMONT RD NE @TARGET - PIEDMONT,211,Lindbergh/Morosgo,B,33.82403,-84.36328,
LARCENY-NON VEHICLE,160241754,01/24/2016,1801 HOWELL MILL RD NW,204,Berkeley Park,D,33.80388,-84.41278,
BURGLARY-RESIDENCE,160240929,01/24/2016,1711 CAMPBELLTON RD SW,408,Venetian Hills,S,33.71183,-84.44349,
BURGLARY-RESIDENCE,160241033,01/24/2016,230 BURBANK DR NW,105,Hunter Hills,K,33.76139,-84.42949,
BURGLARY-RESIDENCE,160241140,01/24/2016,182 STRATFORD DR NW,111,,I,33.76052,-84.48861,
BURGLARY-RESIDENCE,160241162,01/24/2016,803 MAGNOLIA WAY NW,102,Vine City,L,33.75823,-84.41403,
BURGLARY-NONRES,160240943,01/24/2016,600 PONCE DE LEON AVE NE,506,Midtown,E,33.77376,-84.36722,
BURGLARY-NONRES,160242519,01/24/2016,1316 LAKEWOOD AVE SE,305,South Atlanta,Y,33.71876,-84.38181,
BURGLARY-RESIDENCE,160242247,01/24/2016,373 LEGACY DR SW,104,Harris Chiles,T,33.74387,-84.41937,
BURGLARY-RESIDENCE,160242605,01/24/2016,1107 ARLINGTON AVE SW,402,Oakland City,S,33.72409,-84.42414,
AGG ASSAULT,160240174,01/24/2016,839 OAKLAND DR SW,402,Oakland City,S,33.73208,-84.4274,
ROBBERY-PEDESTRIAN,160242361,01/24/2016,1615 BUCHANAN ST NW,207,Berkeley Park,D,33.79892,-84.41321,
ROBBERY-PEDESTRIAN,160242662,01/24/2016,258 NELSON ST SW,507,Castleberry Hill,M,33.75174,-84.39644,
ROBBERY-PEDESTRIAN,160242394,01/24/2016,1078 ARLINGTON AVE SW,403,Oakland City,S,33.72297,-84.4235,
AGG ASSAULT,160242546,01/24/2016,333 ANGIER AVE NE,603,Old Fourth Ward,M,33.76685,-84.37662,
AGG ASSAULT,160240006,01/24/2016,183 MT ZION RD SE,312,Glenrose Heights,Z,33.67268,-84.38507,
AGG ASSAULT,160240657,01/24/2016,792 PARSONS ST SW,,Atlanta University Center,T,33.75072,-84.41346,
ROBBERY-PEDESTRIAN,160240309,01/24/2016,1850 METROPOLITAN PKWY SW,306,Sylvan Hills,X,33.70369,-84.40795,
ROBBERY-PEDESTRIAN,160240507,01/24/2016,1944 PIEDMONT CIR NE,212,Piedmont Heights,F,33.81165,-84.36787,
ROBBERY-PEDESTRIAN,160240594,01/24/2016,608 EDGEWOOD AVE NE,604,Old Fourth Ward,M,33.75457,-84.36741,
ROBBERY-PEDESTRIAN,160240263,01/24/2016,1020 BOLTON RD NW,114,Bankhead/Bolton,H,33.78377,-84.49789,
HOMICIDE,160230264,01/23/2016,221 HARWELL ROAD ,111,Collier Heights,I,33.7809,-84.49186,
HOMICIDE,160222901,01/23/2016,345 LANIER ST NW,107,Grove Park,J,33.76467,-84.43948,
ROBBERY-PEDESTRIAN,160230190,01/23/2016,1123 EUCLID AVE NE,602,Inman Park,N,33.76458,-84.35009,
ROBBERY-PEDESTRIAN,160231769,01/23/2016,1638 W LAKE CT NW,105,West Lake,J,33.7584,-84.44181,
ROBBERY-PEDESTRIAN,160232547,01/23/2016,1176 MEMORIAL DR SE,609,Edgewood,O,33.74784,-84.34875,
ROBBERY-PEDESTRIAN,160231925,01/23/2016,870 MAYSON TURNER RD NW,102,Vine City,L,33.756,-84.41629,
AGG ASSAULT,160232867,01/23/2016,585 MCWILLIAMS RD SE,310,Browns Mill Park,Z,33.6887,-84.36924,
AGG ASSAULT,160230419,01/23/2016,1474 VENETIAN DR SW,408,Venetian Hills,S,33.71437,-84.43692,
AGG ASSAULT,160232668,01/23/2016,1752 PRYOR RD SW,307,Betmar LaVilla,Y,33.70731,-84.39674,
AGG ASSAULT,160232532,01/23/2016,2854 GRAND AVE SW,311,Hammond Park,X,33.67703,-84.40147,
AGG ASSAULT,160232083,01/23/2016,2685 METROPOLITAN PKWY SW,309,Perkerson,X,33.68274,-84.40902,
AGG ASSAULT,160231310,01/23/2016,2380 METROPOLITAN PKWY SW,309,Perkerson,X,33.68998,-84.40808,
AGG ASSAULT,160231053,01/23/2016,2991 MIDDLETON RD NW,111,,I,33.75312,-84.48853,
BURGLARY-RESIDENCE,160231498,01/23/2016,3298 TIARA CIR SW,409,Southwest,R,33.7016,-84.49547,
BURGLARY-RESIDENCE,160230299,01/23/2016,3469 DELMAR LN NW,111,Adamsville,H,33.7576,-84.50137,
BURGLARY-RESIDENCE,160231201,01/23/2016,3046 WESTMINSTER CIR NW,201,Westminster/Milmar,C,33.83831,-84.42446,
BURGLARY-RESIDENCE,160231726,01/23/2016,1734 DONALD LEE HOLLOWELL PKWY NW,107,Grove Park,J,33.7738,-84.44465,
BURGLARY-RESIDENCE,160232819,01/23/2016,9110 CHASTAIN DR NE,209,East Chastain Park,B,33.86587,-84.38442,
BURGLARY-NONRES,160231759,01/23/2016,2115 MONROE DR NE,212,Piedmont Heights,F,33.81007,-84.3713,
BURGLARY-NONRES,160231706,01/23/2016,62 HARWELL RD NW,111,,I,33.7538,-84.493,
BURGLARY-NONRES,160230463,01/23/2016,2636 MARTIN L KING JR DR SW,405,Harland Terrace,I,33.75379,-84.47417,
BURGLARY-RESIDENCE,160232520,01/23/2016,2099 DELANO DR NE,610,Kirkwood,O,33.75506,-84.31883,
BURGLARY-RESIDENCE,160231861,01/23/2016,802 PEEPLES ST SW,401,West End,T,33.73308,-84.42021,
LARCENY-NON VEHICLE,160231108,01/23/2016,1257 MORELAND AVE SE,607,Woodland Hills,W,33.72011,-84.35048,
LARCENY-NON VEHICLE,160231327,01/23/2016,231 18TH STREET,501,Atlantic Station,E,33.79275,-84.39544,
LARCENY-NON VEHICLE,160232855,01/23/2016,1801 HOWELL MILL RD NW,204,Berkeley Park,D,33.80388,-84.41278,
LARCENY-NON VEHICLE,160231888,01/23/2016,2080 CAMPBELLTON RD SW,410,Campbellton Road,R,33.70649,-84.45703,
LARCENY-NON VEHICLE,160232073,01/23/2016,1801 HOWELL MILL RD NW,204,Berkeley Park,D,33.80388,-84.41278,
LARCENY-NON VEHICLE,160231583,01/23/2016,3730 CARMIA DR SW ,414,Princeton Lakes,P,33.65573,-84.5109,
LARCENY-NON VEHICLE,160231978,01/23/2016,3031 HEADLAND DR SW,411,Greenbriar,R,33.69003,-84.4873,
LARCENY-NON VEHICLE,160232158,01/23/2016,375 18TH ST NW @TARGET - 18TH,501,Atlantic Station,E,33.79303,-84.39921,
BURGLARY-NONRES,160231544,01/23/2016,2021 MANCHESTER ST NE,212,Morningside/Lenox Park,F,33.80998,-84.36308,
LARCENY-NON VEHICLE,160231711,01/23/2016,2555 REX AVE SW,413,Rue Royal,P,33.68606,-84.50547,
LARCENY-NON VEHICLE,160231025,01/23/2016,1545 NORTHSIDE DR NW,207,Loring Heights,E,33.79757,-84.40773,
LARCENY-NON VEHICLE,160230992,01/23/2016,180 RALPH D ABERNATHY BLVD SW,303,Mechanicsville,V,33.73656,-84.39376,
LARCENY-NON VEHICLE,160231768,01/23/2016,1801 HOWELL MILL RD NW,204,Berkeley Park,D,33.80388,-84.41278,
LARCENY-FROM VEHICLE,160231909,01/23/2016,1642 DEKALB AVE NE,608,Candler Park,N,33.76239,-84.33371,
LARCENY-FROM VEHICLE,160231869,01/23/2016,2841 GREENBRIAR PKWY SW @GREENBRIAR MALL,411,Greenbriar,R,33.68845,-84.49328,
LARCENY-FROM VEHICLE,160231840,01/23/2016,285 TAFT ST SW,307,Joyland,Y,33.71064,-84.39832,
LARCENY-FROM VEHICLE,160231830,01/23/2016,349 DECATUR ST SE,604,Sweet Auburn,M,33.74988,-84.37788,
LARCENY-FROM VEHICLE,160231773,01/23/2016,94 MARTIN L KING JR DR SW,512,Downtown,M,33.75146,-84.39124,
LARCENY-FROM VEHICLE,160231353,01/23/2016,2399 PARKLAND DRIVE,211,Lindbergh/Morosgo,B,33.81948,-84.36425,
LARCENY-FROM VEHICLE,160232577,01/23/2016,35 14TH ST NE,503,Midtown,E,33.78676,-84.38855,
LARCENY-FROM VEHICLE,160232553,01/23/2016,3 JOSEPH E LOWERY BLVD NW,102,Vine City,L,33.75488,-84.41744,
LARCENY-FROM VEHICLE,160232303,01/23/2016,800 PEACHTREE ST NE,505,Midtown,E,33.77659,-84.38459,
LARCENY-FROM VEHICLE,160232215,01/23/2016,320 LUCKIE ST NW,508,Downtown,M,33.7632,-84.39637,
LARCENY-FROM VEHICLE,160232846,01/23/2016,656 MELDRUM ST NW,103,English Avenue,L,33.76905,-84.40893,
LARCENY-FROM VEHICLE,160232834,01/23/2016,968 MEMORIAL DR SE,606,Reynoldstown,N,33.74676,-84.35595,
LARCENY-FROM VEHICLE,160232827,01/23/2016,826 SPRINGDALE RD NE,608,Druid Hills,N,33.77715,-84.34446,
LARCENY-FROM VEHICLE,160232777,01/23/2016,1959 METROPOLITAN PKWY SW,306,Sylvan Hills,X,33.7008,-84.41018,
LARCENY-FROM VEHICLE,160232674,01/23/2016,1144 BOULDERCREST DR SE,612,East Atlanta,W,33.72307,-84.33178,
LARCENY-FROM VEHICLE,160231460,01/23/2016,3799 BROWNS MILL RD SW,312,Glenrose Heights,Z,33.65402,-84.39347,
LARCENY-FROM VEHICLE,160230057,01/23/2016,250 10TH ST NE,502,Midtown,E,33.78218,-84.37867,
LARCENY-FROM VEHICLE,160231125,01/23/2016,285 MARIETTA ST NW,508,Downtown,M,33.76097,-84.3951,
LARCENY-FROM VEHICLE,160231035,01/23/2016,178 MOURY AVE SW,305,The Villages at Carver,Y,33.71347,-84.39079,
LARCENY-FROM VEHICLE,160231006,01/23/2016,826 MARIETTA ST NW,504,Marietta Street Artery,E,33.77477,-84.4067,
LARCENY-FROM VEHICLE,160231467,01/23/2016,2611 SPRINGDALE RD SW,309,Perkerson,X,33.68394,-84.41521,
LARCENY-FROM VEHICLE,160230229,01/23/2016,311 COURTLAND ST NE,509,Downtown,M,33.76304,-84.38403,
LARCENY-FROM VEHICLE,160231833,01/23/2016,32 ARLINGTON DR NW,111,,I,33.75678,-84.49325,
LARCENY-NON VEHICLE,160230795,01/23/2016,176 10TH ST NE,503,Midtown,E,33.78211,-84.3817,
LARCENY-NON VEHICLE,160230885,01/23/2016,199 NORTHSIDE DR SW,101,Atlanta University Center,T,33.74928,-84.40479,
LARCENY-NON VEHICLE,160232428,01/23/2016,757 CLEVELAND AVE SW,309,Perkerson,X,33.68232,-84.41417,
LARCENY-NON VEHICLE,160232550,01/23/2016,190 MARIETTA ST,507,Downtown,M,33.75757,-84.39487,
AUTO THEFT,160232173,01/23/2016,3749 CAMPBELLTON RD SW,412,Ben Hill Acres,P,33.69085,-84.51112,
AUTO THEFT,160232102,01/23/2016,2865 LENOX RD NE,210,Pine Hills,B,33.83233,-84.35663,
AUTO THEFT,160232588,01/23/2016,1351 COLLIER ST NW,105,Hunter Hills,K,33.76279,-84.43205,
AUTO THEFT,160232571,01/23/2016,761 SIDNEY MARCUS BLVD,211,Lindbergh/Morosgo,B,33.82576,-84.36715,
AUTO THEFT,160232440,01/23/2016,2524 MARTIN L KING JR DR SW,405,Harland Terrace,I,33.75285,-84.47033,
AUTO THEFT,160232600,01/23/2016,493 BOULEVARD NE,603,Old Fourth Ward,M,33.76797,-84.37178,
AUTO THEFT,160232656,01/23/2016,3 JOSEPH E LOWERY BLVD NW,102,Ashview Heights,T,33.75459,-84.41766,
AUTO THEFT,160231926,01/23/2016,850 OAK ST SW @WEST END MALL,401,West End,T,33.74057,-84.4168,
AUTO THEFT,160230389,01/23/2016,1118 OAK KNOLL TER SE,307,Lakewood Heights,Y,33.70796,-84.37615,
AUTO THEFT,160231449,01/23/2016,1301 JOSEPH E BOONE BLVD NW,106,Bankhead,K,33.76362,-84.43041,
AUTO THEFT,160231256,01/23/2016,2745 OLD HAPEVILLE RD SW,311,Glenrose Heights,Z,33.67992,-84.39348,
AUTO THEFT,160231090,01/23/2016,314 SKIPPER PL NW,112,Collier Heights,I,33.78084,-84.49126,
AUTO THEFT,160231543,01/23/2016,1331 EASON ST NW,105,Hunter Hills,K,33.75777,-84.43146,
AUTO THEFT,160231184,01/23/2016,3500 MARTIN L KING JR DR SW,407,Adamsville,H,33.75735,-84.50282,
AUTO THEFT,160220867,01/22/2016,2637 OLD HAPEVILLE RD SW,310,Browns Mill Park,Z,33.68314,-84.39717,
AUTO THEFT,160220717,01/22/2016,2520 CAMPBELLTON RD SW,410,Campbellton Road,R,33.70248,-84.47012,
AUTO THEFT,160220023,01/22/2016,445 CLEVELAND AVE SE,312,Rosedale Heights,Z,33.68149,-84.37152,
AUTO THEFT,160221111,01/22/2016,2410 BENJAMIN E MAYS DR SW,406,Cascade Heights,I,33.72304,-84.46669,
AUTO THEFT,160222974,01/22/2016,151 HALE ST NE,602,Inman Park,N,33.75843,-84.35915,
AUTO THEFT,160222951,01/22/2016,735 HAMILTON E HOLMES DR NW,109,Center Hill,J,33.77509,-84.4734,
AUTO THEFT,160221692,01/22/2016,2778 VINEYARDS DR SE,312,Rosedale Heights,Z,33.6791,-84.37093,
AUTO THEFT,160221672,01/22/2016,3186 ROSWELL RD NW,206,South Tuxedo Park,B,33.84222,-84.37926,
AUTO THEFT,160221335,01/22/2016,3000 CONTINENTAL COLONY PKWY SW,411,Greenbriar,R,33.68077,-84.4937,
LARCENY-NON VEHICLE,160222240,01/22/2016,249 HERMER CIR NW,111,,I,33.75705,-84.48707,
LARCENY-NON VEHICLE,160222164,01/22/2016,373 W LAKE AVE NW,107,Grove Park,J,33.76561,-84.44074,
LARCENY-NON VEHICLE,160222088,01/22/2016,121 ELLENDALE LN NW,108,Harvel Homes Community,J,33.75853,-84.46597,
LARCENY-NON VEHICLE,160221567,01/22/2016,2739 SEABORN RD NW,112,Collier Heights,I,33.77538,-84.47722,
LARCENY-NON VEHICLE,160221215,01/22/2016,3000 CONTINENTAL COLONY PKWY SW,411,Greenbriar,R,33.68077,-84.4937,
LARCENY-NON VEHICLE,160228059,01/22/2016,6000 N TERMINAL PKWY,706,,,33.64069,-84.44388,
LARCENY-NON VEHICLE,160220893,01/22/2016,1163 W PEACHTREE ST NE,503,Midtown,E,33.78642,-84.38744,
LARCENY-NON VEHICLE,160221135,01/22/2016,455 14TH ST NW,501,Home Park,E,33.78629,-84.40208,
LARCENY-NON VEHICLE,160220885,01/22/2016,3843 JONESBORO RD SE,313,South River Gardens,Z,33.64933,-84.36635,
LARCENY-NON VEHICLE,160221024,01/22/2016,1345 PIEDMONT AVE NE ,502,,E,33.78578,-84.37429,
LARCENY-NON VEHICLE,160221503,01/22/2016,927 BERKSHIRE RD NE,213,Morningside/Lenox Park,F,33.80069,-84.3565,
LARCENY-FROM VEHICLE,160220473,01/22/2016,630 TRAVIS ST NW,103,English Avenue,L,33.77159,-84.40876,
LARCENY-FROM VEHICLE,160220346,01/22/2016,366 MCAFEE ST NW,504,Downtown,M,33.76473,-84.39469,
LARCENY-FROM VEHICLE,160221152,01/22/2016,3202 KINGSDALE DR SW,406,Magnum Manor,I,33.72196,-84.49323,
LARCENY-FROM VEHICLE,160228084,01/22/2016,6023 N TERMINAL BYWY,705,,,33.64217,-84.447,
LARCENY-FROM VEHICLE,160222706,01/22/2016,2079 BOLTON RD NW,203,Riverside,D,33.81207,-84.47274,
LARCENY-FROM VEHICLE,160220883,01/22/2016,3715 DENVILLE TRCE SW,412,Cascade Green,P,33.71255,-84.50327,
LARCENY-FROM VEHICLE,160220215,01/22/2016,450 COLLIER RIDGE DR NW,112,Collier Heights,I,33.76743,-84.47689,
LARCENY-FROM VEHICLE,160213096,01/22/2016,848 PEACHTREE ST NE,503,Midtown,E,33.77615,-84.38453,
LARCENY-FROM VEHICLE,160222986,01/22/2016,437 MORELAND AVE NE,608,Candler Park,N,33.76632,-84.34892,
LARCENY-FROM VEHICLE,160222919,01/22/2016,44 NORTH AVE NE,505,Midtown,E,33.77138,-84.38579,
LARCENY-FROM VEHICLE,160222383,01/22/2016,2555 BOLTON RD NW ,201,,C,33.82028,-84.45188,
LARCENY-FROM VEHICLE,160221785,01/22/2016,2706 DEERWOOD LN SW,414,Ben Hill,P,33.67318,-84.51514,
LARCENY-FROM VEHICLE,160221769,01/22/2016,2045 DONALD LEE HOLLOWELL PKWY NW,107,Grove Park,J,33.7774,-84.45214,
LARCENY-FROM VEHICLE,160221702,01/22/2016,2386 BOLTON RD NW,203,Bolton,D,33.8209,-84.45951,
LARCENY-NON VEHICLE,160221913,01/22/2016,2900 PEACHTREE RD NW ,206,Peachtree Heights West,B,33.83399,-84.3841,
LARCENY-NON VEHICLE,160221479,01/22/2016,2841 GREENBRIAR PKWY SW @GREENBRIAR MALL,411,Greenbriar,R,33.68677,-84.49773,
LARCENY-NON VEHICLE,160221718,01/22/2016,2237 CASCADE RD SW,406,Cascade Avenue/Road,S,33.72282,-84.46129,
LARCENY-NON VEHICLE,160221755,01/22/2016,835 MARTIN L KING JR DR NW,102,Vine City,L,33.75504,-84.41457,
LARCENY-NON VEHICLE,160221644,01/22/2016,1801 HOWELL MILL RD NW,204,Underwood Hills,D,33.80479,-84.41455,
LARCENY-NON VEHICLE,160220331,01/22/2016,580 MCDONOUGH BLVD SE,305,Chosewood Park,Y,33.71392,-84.36899,
LARCENY-NON VEHICLE,160222420,01/22/2016,235 PEACHTREE ST NE @ATL GAS LIGHT TOWER,509,Downtown,M,33.76044,-84.38702,
LARCENY-FROM VEHICLE,153460454,01/22/2016,3398 PIEDMONT RD NE,208,Buckhead Forest,B,33.84712,-84.37385,
LARCENY-NON VEHICLE,160222513,01/22/2016,1210 CAROLINE ST NE,609,Edgewood,O,33.75938,-84.34863,
BURGLARY-RESIDENCE,160222747,01/22/2016,939 WASHINGTON PL SW,104,Ashview Heights,T,33.75379,-84.41837,
BURGLARY-RESIDENCE,160221602,01/22/2016,1048 WASHINGTON ST SW,304,Peoplestown,V,33.72649,-84.39088,
BURGLARY-RESIDENCE,160221227,01/22/2016,1156 GREENWICH ST SW,401,West End,T,33.74365,-84.42515,
BURGLARY-RESIDENCE,160221710,01/22/2016,204 PRESTON LN SW,310,Browns Mill Park,Z,33.68556,-84.39429,
BURGLARY-NONRES,160221576,01/22/2016,105 PEACHTREE ST SW,512,Downtown,M,33.75178,-84.3925,
BURGLARY-NONRES,160220692,01/22/2016,2841 GREENBRIAR PKWY SW @GREENBRIAR MALL,411,Greenbriar,R,33.68677,-84.49773,
BURGLARY-NONRES,160220116,01/22/2016,100 CENTENNIAL OLYMPIC P DR SW,507,Castleberry Hill,M,33.75155,-84.39941,
BURGLARY-RESIDENCE,160222689,01/22/2016,870 MAYSON TURNER RD NW,102,Vine City,L,33.756,-84.41629,
BURGLARY-RESIDENCE,160221911,01/22/2016,345 TRIUMPH CIR SE,313,Blair Villa/Poole Creek,Z,33.66072,-84.37899,
BURGLARY-RESIDENCE,160223014,01/22/2016,660 RALPH MCGILL BLVD NE,603,Old Fourth Ward,M,33.765,-84.36578,
BURGLARY-RESIDENCE,160222596,01/22/2016,2640 MARTIN L KING JR DR SW,405,Harland Terrace,I,33.75381,-84.47425,
BURGLARY-RESIDENCE,160223037,01/22/2016,3143 WELMINGHAM DR SW,414,Princeton Lakes,P,33.66522,-84.51733,
BURGLARY-RESIDENCE,160221082,01/22/2016,2637 OLD HAPEVILLE RD SW,310,Browns Mill Park,Z,33.68294,-84.39417,
BURGLARY-RESIDENCE,160221836,01/22/2016,863 HOBSON ST SW,302,Pittsburgh,V,33.73144,-84.40633,
BURGLARY-RESIDENCE,160221146,01/22/2016,983 PARSONS ST SW,104,Ashview Heights,T,33.75129,-84.41978,
AGG ASSAULT,160221356,01/22/2016,45 WHITEHOUSE DR,104,Ashview Heights,T,33.75382,-84.42109,
AGG ASSAULT,160220283,01/22/2016,477 PEACHTREE ST NE,509,Downtown,M,33.76764,-84.38524,
AGG ASSAULT,160221629,01/22/2016,527 IRWIN ST NE,604,Old Fourth Ward,M,33.75748,-84.37015,
ROBBERY-PEDESTRIAN,160222608,01/22/2016,1090 HOLLYWOOD RD NW,109,Almond Park,G,33.78459,-84.46085,
ROBBERY-RESIDENCE,160222356,01/22/2016,880 HOLLYWOOD RD NW,109,Grove Park,J,33.77891,-84.45489,
AGG ASSAULT,160221374,01/22/2016,801 GLENWOOD AVE SE @APS JACKSON HS,605,Grant Park,W,33.73958,-84.36161,
AGG ASSAULT,160222579,01/22/2016,3033 EMPIRE BLVD SW,312,Glenrose Heights,Z,33.672,-84.39365,
ROBBERY-PEDESTRIAN,160221643,01/22/2016,3450 BENJAMIN MAYS,407,Mays,H,33.73364,-84.50386,
ROBBERY-PEDESTRIAN,160222673,01/22/2016,455 FULTON ST SW,303,Mechanicsville,V,33.74173,-84.40283,
ROBBERY-PEDESTRIAN,160222993,01/22/2016,2891 SPRINGDALE RD SW,311,Hammond Park,X,33.67628,-84.41592,
AUTO THEFT,160221279,01/22/2016,245 AMAL DR SW,307,Betmar LaVilla,Y,33.70612,-84.39573,
ROBBERY-PEDESTRIAN,160213427,01/21/2016,PEACHTREE RD NE / PALISADES RD NE,207,Ardmore,E,33.80488,-84.39366,
ROBBERY-PEDESTRIAN,160212909,01/21/2016,170 BARFIELD AVE SW,405,Florida Heights,I,33.75116,-84.46136,
ROBBERY-PEDESTRIAN,160211396,01/21/2016,704 PRYOR ST SW ,303,Mechanicsville,V,33.73565,-84.39462,
ROBBERY-COMMERCIAL,160203061,01/21/2016,3391 FAIRBURN RD SW,414,Ben Hill,P,33.66436,-84.52326,
ROBBERY-COMMERCIAL,160211252,01/21/2016,75 JOHN WESLEY DOBBS AVENUE ,509,Downtown,M,33.75684,-84.38519,
AGG ASSAULT,160213302,01/21/2016,4511 CAMPBELLTON RD SW,412,,P,33.69625,-84.53567,
AGG ASSAULT,160211620,01/21/2016,4342 CREEK VALLEY CT SW,406,Elmco Estates,P,33.69094,-84.53084,
ROBBERY-PEDESTRIAN,160213537,01/21/2016,477 PEACHTREE ST NE,509,Downtown,M,33.76764,-84.38524,
ROBBERY-PEDESTRIAN,160212819,01/21/2016,1827 LAKEWOOD TER SE,307,Lakewood Heights,Y,33.70434,-84.37942,
ROBBERY-RESIDENCE,160212279,01/21/2016,870 MAYSON TURNER RD NW,102,Vine City,L,33.756,-84.41629,
BURGLARY-RESIDENCE,160213092,01/21/2016,572 ATWOOD ST SW,401,West End,T,33.73946,-84.42876,
BURGLARY-RESIDENCE,160213286,01/21/2016,813 MAGNOLIA WAY NW,102,Vine City,L,33.75823,-84.41416,
BURGLARY-RESIDENCE,160211303,01/21/2016,451 FAIRLOCK LN NW,114,Fairburn Heights,H,33.76755,-84.50766,
BURGLARY-RESIDENCE,160211383,01/21/2016,1801 WELLBOURNE DR NE,213,Morningside/Lenox Park,F,33.80397,-84.3598,
BURGLARY-RESIDENCE,160213388,01/21/2016,2493 BURTZ ST NW,203,Riverside,D,33.80759,-84.47015,
BURGLARY-RESIDENCE,160211342,01/21/2016,620 IRA ST SW,303,Mechanicsville,V,33.738,-84.39977,
BURGLARY-RESIDENCE,160212886,01/21/2016,2640 CAMPBELLTON RD SW,410,Campbellton Road,R,33.70252,-84.47475,
BURGLARY-RESIDENCE,160212129,01/21/2016,286 SEWANEE AVE NW,108,Dixie Hills,J,33.76108,-84.4653,
BURGLARY-RESIDENCE,160212514,01/21/2016,3155 HICKMAN DR NW,111,,I,33.75507,-84.49028,
BURGLARY-RESIDENCE,160212493,01/21/2016,4050 SOUTHWOOD CIR SW,412,Ben Hill Terrace,P,33.69609,-84.52076,
BURGLARY-RESIDENCE,160212025,01/21/2016,1979 MARVIN LN SW,410,Campbellton Road,R,33.70106,-84.47332,
BURGLARY-RESIDENCE,160212326,01/21/2016,1175 W CONWAY DR NW,202,Mt. Paran/Northside,A,33.86728,-84.42449,
BURGLARY-RESIDENCE,160211766,01/21/2016,183 CLAIRE DR SE,307,Lakewood Heights,Y,33.7049,-84.38222,
BURGLARY-RESIDENCE,160212760,01/21/2016,1800 MEMORIAL DR SE,610,Kirkwood,O,33.74752,-84.3291,
BURGLARY-NONRES,160212157,01/21/2016,1610 JOSEPH E BOONE BLVD NW,105,West Lake,J,33.76332,-84.44055,
BURGLARY-RESIDENCE,160211986,01/21/2016,362 HILLSIDE DR SW,301,Capitol View Manor,X,33.71618,-84.39947,
BURGLARY-RESIDENCE,160212136,01/21/2016,1077 FAIR ST SW,104,Ashview Heights,T,33.74926,-84.42299,
LARCENY-NON VEHICLE,160211938,01/21/2016,3393 PEACHTREE RD NE,210,Lenox,B,33.84892,-84.36426,
LARCENY-NON VEHICLE,160212756,01/21/2016,375 18TH ST NW @TARGET - 18TH,501,Atlantic Station,E,33.79303,-84.39921,
LARCENY-NON VEHICLE,160212657,01/21/2016,835 MARTIN L KING JR DR NW,102,Vine City,L,33.75504,-84.41457,
LARCENY-NON VEHICLE,160212094,01/21/2016,1700 MONROE DR NE,213,Piedmont Heights,F,33.80052,-84.37307,
LARCENY-NON VEHICLE,160212444,01/21/2016,3730 CARMIA DR SW,414,Princeton Lakes,P,33.65528,-84.5102,
LARCENY-NON VEHICLE,160212598,01/21/2016,1225 CAROLINE ST NE ,609,Edgewood,O,33.75605,-84.34813,
LARCENY-NON VEHICLE,160211919,01/21/2016,761 SIDNEY MARCUS BLVD NE,211,Lindbergh/Morosgo,B,33.82564,-84.36308,
LARCENY-NON VEHICLE,160212966,01/21/2016,1655 MEMORIAL DR SE,610,Kirkwood,O,33.74718,-84.3338,
LARCENY-NON VEHICLE,160213075,01/21/2016,835 MARTIN L KING JR DR NW,102,Vine City,L,33.75504,-84.41457,
LARCENY-FROM VEHICLE,160210157,01/21/2016,135 ANDREW YOUNG INTERNA BLVD NW,508,Downtown,M,33.76002,-84.39178,
LARCENY-FROM VEHICLE,160211039,01/21/2016,3113 CAMPBELLTON RD SW,409,Southwest,R,33.69261,-84.49098,
LARCENY-FROM VEHICLE,160210100,01/21/2016,267 MARIETTA ST NW,508,Downtown,M,33.76071,-84.39469,
LARCENY-FROM VEHICLE,160211895,01/21/2016,1083 EUCLID AVE NE,602,Inman Park,N,33.76309,-84.3516,
LARCENY-FROM VEHICLE,160211165,01/21/2016,3725 PRINCETON LAKES PKWY SW,414,Princeton Lakes,P,33.65777,-84.50877,
LARCENY-FROM VEHICLE,160212653,01/21/2016,156 MOURY AVE SW,305,The Villages at Carver,Y,33.71265,-84.38851,
LARCENY-FROM VEHICLE,160213535,01/21/2016,1600 ELLSWORTH INDUSTRIAL BLVD NW,203,Blandtown,D,33.79826,-84.42811,
LARCENY-FROM VEHICLE,160210974,01/21/2016,2324 CASCADE RD SW,409,Adams Park,R,33.72186,-84.46462,
LARCENY-FROM VEHICLE,160211527,01/21/2016,1249 OAKCREST DR SW,406,Magnum Manor,I,33.72379,-84.49184,
LARCENY-NON VEHICLE,160211143,01/21/2016,3290 NORTHSIDE PKWY NW,201,,C,33.84526,-84.42668,
LARCENY-NON VEHICLE,160211611,01/21/2016,2788 FORREST HILLS DR SW,311,Hammond Park,X,33.67785,-84.3992,
LARCENY-NON VEHICLE,160211932,01/21/2016,817 W PEACHTREE ST NE,505,Midtown,E,33.77696,-84.38697,
LARCENY-NON VEHICLE,160211967,01/21/2016,30 MARIETTA,508,Downtown,M,33.75492,-84.39054,
LARCENY-NON VEHICLE,160211981,01/21/2016,4020 WAITS AVE SW,413,Fairburn,P,33.69258,-84.52105,
LARCENY-NON VEHICLE,160213380,01/21/2016,140 PINE ST NE,509,Downtown,M,33.76757,-84.3829,
LARCENY-NON VEHICLE,160212650,01/21/2016,386 NORTH AVE NE,603,Old Fourth Ward,M,33.77154,-84.37445,
LARCENY-NON VEHICLE,160212011,01/21/2016,3495 PIEDMONT RD NE,208,North Buckhead,B,33.85005,-84.37755,
LARCENY-NON VEHICLE,160213282,01/21/2016,1586 DODSON DR SW,409,Cascade Heights,I,33.71244,-84.47413,
LARCENY-NON VEHICLE,160212642,01/21/2016,530 PIEDMONT AVE NE,509,Downtown,M,33.76909,-84.38208,
LARCENY-NON VEHICLE,160211741,01/21/2016,2083 MEADOR AVE SE,310,Swallow Circle/Baywood,Z,33.69737,-84.38046,
AUTO THEFT,160211077,01/21/2016,670 CLIFTON RD SE,612,East Atlanta,W,33.73588,-84.32966,
AUTO THEFT,160210204,01/21/2016,267 MARIETTA ST NW,508,Downtown,M,33.76071,-84.39469,
AUTO THEFT,160211153,01/21/2016,1625 CECILE AVE SE,612,East Atlanta,W,33.73368,-84.33415,
AUTO THEFT,160213378,01/21/2016,930 HALL ST NW,109,Almond Park,G,33.78054,-84.46593,
AUTO THEFT,160213186,01/21/2016,2950 SPRINGDALE RD SW,311,Hammond Park,X,33.67479,-84.41619,
AUTO THEFT,160212582,01/21/2016,3012 JONESBORO RD SE,313,South River Gardens,Z,33.67225,-84.37156,
AUTO THEFT,160211261,01/21/2016,374 CLEVELAND AVE,311,Hammond Park,X,33.68112,-84.40026,
AUTO THEFT,160211167,01/21/2016,745 HANSELL ST SE,605,Grant Park,W,33.73881,-84.36334,
AUTO THEFT,160211206,01/21/2016,1670 S OLYMPIAN WAY SW,404,Westview,T,33.73581,-84.44244,
AUTO THEFT,160210977,01/21/2016,50 MOUNT ZION RD SE,312,Glenrose Heights,Z,33.67286,-84.38706,
AUTO THEFT,160213450,01/21/2016,1983 HOWELL MILL RD NW,205,Channing Valley,C,33.80884,-84.41276,
AUTO THEFT,160030889,01/21/2016,226 COURTLAND ST,509,Downtown,M,33.76051,-84.38429,
AUTO THEFT,160200758,01/20/2016,3871 REDWINE RD SW,414,Princeton Lakes,P,33.66005,-84.50994,
AUTO THEFT,160200720,01/20/2016,2788 DEFOORS FERRY RD NW,201,,C,33.82114,-84.44713,
AUTO THEFT,160201807,01/20/2016,1462 STOKES AVE SW,404,Westview,T,33.74066,-84.43569,
AUTO THEFT,160203018,01/20/2016,751 FAIRBURN RD SW,407,Fairburn Mays,H,33.73454,-84.51059,
AUTO THEFT,160202997,01/20/2016,176 SAVANNAH ST SE,606,Cabbagetown,N,33.74984,-84.36726,
LARCENY-NON VEHICLE,160203186,01/20/2016,1106 HARDEE ST NE,606,Reynoldstown,N,33.75565,-84.35148,
LARCENY-NON VEHICLE,160201294,01/20/2016,1889 NORTH AVE NW,107,Grove Park,J,33.76869,-84.44908,
LARCENY-NON VEHICLE,160201533,01/20/2016,201 MOURY AVE SW,305,The Villages at Carver,Y,33.71691,-84.39276,
LARCENY-NON VEHICLE,160201577,01/20/2016,3350 PEACHTREE RD NE,208,North Buckhead,B,33.84792,-84.36849,
LARCENY-NON VEHICLE,160201792,01/20/2016,3755 CARMIA DR SW,414,Princeton Lakes,P,33.65571,-84.50908,
LARCENY-NON VEHICLE,160203026,01/20/2016,1446 COPELAND AVE SW,402,West End,T,33.7358,-84.43495,
LARCENY-NON VEHICLE,160208050,01/20/2016,6000 NORTH TERMINAL PKWY ,706,,,33.64184,-84.4477,
LARCENY-NON VEHICLE,160201748,01/20/2016,551 LINWOOD AVE,602,Poncey-Highland,N,33.76958,-84.35596,
LARCENY-NON VEHICLE,160201821,01/20/2016,3099 PANTHER TRL SW @APS THERRELL HS,409,Southwest,R,33.69931,-84.48914,
LARCENY-NON VEHICLE,160201864,01/20/2016,2625 PIEDMONT RD NE,211,Piedmont Heights,F,33.80627,-84.3669,
LARCENY-NON VEHICLE,160201801,01/20/2016,3330 PIEDMONT RD NE,208,Buckhead Forest,B,33.84564,-84.37462,
LARCENY-NON VEHICLE,160200084,01/20/2016,500 10TH ST NE ,502,,E,33.78223,-84.36922,
LARCENY-NON VEHICLE,160202866,01/20/2016,1375 PEACHTREE ST NE,502,Midtown,E,33.79267,-84.38558,
LARCENY-FROM VEHICLE,160203028,01/20/2016,1530 CARROLL DR NW,203,Hills Park,D,33.80186,-84.43854,
LARCENY-FROM VEHICLE,160202258,01/20/2016,3399 PEACHTREE RD NE,210,Lenox,B,33.84914,-84.36369,
LARCENY-FROM VEHICLE,160201939,01/20/2016,183 MOUNT ZION RD SE,312,Glenrose Heights,Z,33.67268,-84.38507,
LARCENY-FROM VEHICLE,160202914,01/20/2016,1078 PIEDMONT AVE NE,503,Midtown,E,33.78408,-84.37912,
LARCENY-FROM VEHICLE,160203280,01/20/2016,64 3RD ST NW,505,Midtown,E,33.77369,-84.38951,
LARCENY-FROM VEHICLE,160203136,01/20/2016,2140 PEACHTREE RD NW @BROOKWOOD HOTEL,207,,C,33.81301,-84.3938,
LARCENY-FROM VEHICLE,160203135,01/20/2016,500 10TH ST NE ,502,,E,33.78223,-84.36922,
LARCENY-FROM VEHICLE,160203069,01/20/2016,240 MOUNT ZION RD SW,312,Glenrose Heights,Z,33.67245,-84.39698,
LARCENY-FROM VEHICLE,160202852,01/20/2016,112 KROG ST,602,Old Fourth Ward,M,33.77117,-84.38025,
LARCENY-FROM VEHICLE,160202851,01/20/2016,565 NORTHSIDE DR SW,303,Adair Park,V,33.73935,-84.40854,
LARCENY-FROM VEHICLE,160202885,01/20/2016,1522 DEKALB AVE NE,608,Candler Park,N,33.76283,-84.33816,
LARCENY-FROM VEHICLE,160201140,01/20/2016,900 CLUB STATION DR NE,209,Brookhaven,B,33.87163,-84.35762,
LARCENY-FROM VEHICLE,160201895,01/20/2016,249 CHALMERS DR NW,112,Collier Heights,I,33.76216,-84.47674,
LARCENY-FROM VEHICLE,160201031,01/20/2016,445 MARKHAM ST SW,507,Castleberry Hill,M,33.75274,-84.40069,
LARCENY-FROM VEHICLE,160200931,01/20/2016,3656 RAMSEY CLOSE SW,414,Princeton Lakes,P,33.66426,-84.51281,
LARCENY-FROM VEHICLE,160201646,01/20/2016,650 PONCE DE LEON AVE NE @HOME DEPOT - PONCE,506,Midtown,E,33.77469,-84.36561,
LARCENY-FROM VEHICLE,160200670,01/20/2016,3460 KINGSBORO RD NE,210,Buckhead Heights,B,33.85016,-84.35853,
LARCENY-FROM VEHICLE,160202078,01/20/2016,2070 DETROIT AVE NW,107,Grove Park,J,33.76685,-84.45545,
LARCENY-FROM VEHICLE,160202562,01/20/2016,814 JUNIPER ST NE,505,Midtown,E,33.77676,-84.38317,
LARCENY-FROM VEHICLE,160202803,01/20/2016,591 EDGEWOOD AVE SE,604,Old Fourth Ward,M,33.75398,-84.36804,
LARCENY-FROM VEHICLE,160200069,01/20/2016,100 LUCKIE ST NW,508,Downtown,M,33.7573,-84.38992,
LARCENY-FROM VEHICLE,160200332,01/20/2016,178 MOURY AVE SW,305,The Villages at Carver,Y,33.71347,-84.39079,
LARCENY-NON VEHICLE,160201145,01/20/2016,2237 CASCADE RD SW,406,Cascade Avenue/Road,S,33.72282,-84.46129,
LARCENY-NON VEHICLE,160203148,01/20/2016,1275 CAROLINE ST NE ,609,Edgewood,O,33.75674,-84.34619,
LARCENY-NON VEHICLE,160201933,01/20/2016,2555 BOLTON RD NW,201,,C,33.82028,-84.45188,
BURGLARY-RESIDENCE,160201124,01/20/2016,3475 FAIRBURN PL NW,114,Fairburn Heights,H,33.77212,-84.50122,
BURGLARY-RESIDENCE,160201741,01/20/2016,800 W MARIETTA ST NW @METROPOINTE LOFTS,103,English Avenue,L,33.78022,-84.41514,
LARCENY-NON VEHICLE,160202584,01/20/2016,1385 JOSEPH E BOONE BLVD NW,107,Grove Park,J,33.76382,-84.43313,
BURGLARY-RESIDENCE,160201154,01/20/2016,117 BROWN AVE SE,305,South Atlanta,Y,33.71362,-84.38433,
BURGLARY-NONRES,160200333,01/20/2016,3098 ROSWELL RD NW,206,South Tuxedo Park,B,33.84012,-84.37967,
BURGLARY-NONRES,160200541,01/20/2016,737 RALPH MCGILL BLVD NE,603,Old Fourth Ward,M,33.76606,-84.36302,
BURGLARY-NONRES,160200952,01/20/2016,931 MONROE,506,Midtown,E,33.77909,-84.36717,
BURGLARY-NONRES,160200776,01/20/2016,2161 COLLEGE AVE NE,610,Kirkwood,O,33.76408,-84.31645,
BURGLARY-NONRES,160200636,01/20/2016,931 MONROE DR NE @BELTLINE BUSINESS,506,Midtown,E,33.77909,-84.36717,
BURGLARY-RESIDENCE,160201127,01/20/2016,2806 CHAUCER DR SW,406,Peyton Forest,I,33.74584,-84.48009,
BURGLARY-RESIDENCE,160201782,01/20/2016,817 DILL AVE SW,301,Capitol View,X,33.71854,-84.41462,
BURGLARY-RESIDENCE,160201854,01/20/2016,1206 MERLIN AVE SE,609,Edgewood,O,33.74952,-84.34801,
BURGLARY-RESIDENCE,160201889,01/20/2016,3260 MOUNT GILEAD RD SW,409,Southwest,R,33.69798,-84.49477,
BURGLARY-RESIDENCE,160202358,01/20/2016,800 W MARIETTA ST NW,103,English Avenue,L,33.78022,-84.41514,
BURGLARY-RESIDENCE,160202393,01/20/2016,445 MARKHAM STREET SW,507,Castleberry Hill,M,33.75274,-84.40069,
BURGLARY-RESIDENCE,160202483,01/20/2016,279 HILLTOP DR SW,307,Lakewood Heights,Y,33.69938,-84.39859,
BURGLARY-RESIDENCE,160202497,01/20/2016,2900 LANDRUM DR SW,409,Southwest,R,33.70623,-84.48372,
BURGLARY-RESIDENCE,160200928,01/20/2016,3116 RENAISSANCE WAY NE,603,Old Fourth Ward,M,33.7662,-84.3784,
BURGLARY-RESIDENCE,160201607,01/20/2016,1043 SPARKS ST SW,402,Oakland City,S,33.72736,-84.42159,
AGG ASSAULT,160201856,01/20/2016,860 WELCH ST SW,302,Pittsburgh,V,33.73148,-84.40482,
ROBBERY-PEDESTRIAN,160201883,01/20/2016,65 ALABAMA ST SW,511,Downtown,M,33.75258,-84.38992,
ROBBERY-RESIDENCE,160202930,01/20/2016,3230 W ANDREWS DR,206,Peachtree Heights West,B,33.84307,-84.39424,
ROBBERY-PEDESTRIAN,160202669,01/20/2016,1977 MARTIN L KING JR DR NW,108,,I,33.75065,-84.44767,
ROBBERY-PEDESTRIAN,160201988,01/20/2016,565 GREENSFERRY AVE SW,101,The Villages at Castleberry Hill,T,33.74651,-84.40675,
ROBBERY-PEDESTRIAN,160203116,01/20/2016,58 S PRADO NE,502,Ansley Park,E,33.79111,-84.37673,
ROBBERY-PEDESTRIAN,160203048,01/20/2016,532 CLEVELAND AVE SW,311,Hammond Park,X,33.68116,-84.4059,
HOMICIDE,160192027,01/19/2016,1097 HARWELL RD NW @BLUE FLAME,112,Collier Heights,I,33.7852,-84.4911,
ROBBERY-PEDESTRIAN,160192941,01/19/2016,565 WELLS ST SW,303,Mechanicsville,V,33.74005,-84.40649,
ROBBERY-PEDESTRIAN,160193063,01/19/2016,3550 MARTIN LUTHER KING JR DR SW,406,Adamsville,H,33.75811,-84.50389,
AGG ASSAULT,160193492,01/19/2016,940 NEW TOWN CIR SE,308,Thomasville Heights,Z,33.70808,-84.36048,
AGG ASSAULT,160190700,01/19/2016,1301 WESTBORO DR SW,402,Oakland City,S,33.73223,-84.43011,
AGG ASSAULT,160190046,01/19/2016,990 NEW TOWN CIR SE,308,Thomasville Heights,Z,33.70825,-84.35915,
AGG ASSAULT,160193491,01/19/2016,3787 MARTIN L KING JR DR NW,114,Old Gordon,H,33.76809,-84.51237,
BURGLARY-RESIDENCE,160193549,01/19/2016,415 FAIRBURN RD SW,407,Fairburn Mays,H,33.74349,-84.50968,
BURGLARY-RESIDENCE,160193679,01/19/2016,621 ALLEN CT NW,202,Chastain Park,A,33.87796,-84.40731,
BURGLARY-RESIDENCE,160193126,01/19/2016,3724 MARTIN L KING JR DR SW,407,Adamsville,H,33.76461,-84.51027,
BURGLARY-RESIDENCE,160193051,01/19/2016,445 MARKHAM ST SW,507,Castleberry Hill,M,33.75274,-84.40069,
AGG ASSAULT,160190520,01/19/2016,1660 PINEHURST DR SW     ,408,Venetian Hills,S,33.71032,-84.45148,
BURGLARY-RESIDENCE,160191501,01/19/2016,1005 BALDWIN ST SW,104,Ashview Heights,T,33.74647,-84.42057,
BURGLARY-RESIDENCE,160191486,01/19/2016,1220 GUN CLUB RD NW,110,Almond Park,G,33.78752,-84.45789,
BURGLARY-RESIDENCE,160191444,01/19/2016,960 CONSTITUTION RD SE,308,Norwood Manor,Z,33.69307,-84.35805,
BURGLARY-RESIDENCE,160192603,01/19/2016,1005 BALDWIN ST SW,104,Ashview Heights,T,33.74647,-84.42057,
BURGLARY-NONRES,160191385,01/19/2016,2448 CHESHIRE BRIDGE RD NE,212,Lindridge/Martin Manor,F,33.82169,-84.35201,
BURGLARY-NONRES,160192068,01/19/2016,3393 PEACHTREE RD NE,210,Lenox,B,33.84892,-84.36426,
BURGLARY-RESIDENCE,160192170,01/19/2016,1685 N OLYMPIAN WAY SW,404,Westview,T,33.73646,-84.44291,
BURGLARY-NONRES,160190719,01/19/2016,677 FAIRBURN RD NW,114,Fairburn Heights,H,33.77402,-84.4994,
LARCENY-NON VEHICLE,160181724,01/19/2016,3393 PEACHTREE ROAD ,210,Lenox,B,33.84892,-84.36426,
LARCENY-NON VEHICLE,160193188,01/19/2016,2539 PIEDMONT RD NE @TARGET - PIEDMONT,211,Lindbergh/Morosgo,B,33.82403,-84.36328,
LARCENY-NON VEHICLE,160191612,01/19/2016,835 MARTIN L KING JR DR NW,102,Vine City,L,33.75504,-84.41457,
LARCENY-NON VEHICLE,160192020,01/19/2016,3393 PEACHTREE ROAD NE,210,Lenox,B,33.84676,-84.36212,
LARCENY-NON VEHICLE,160191859,01/19/2016,447 MORELAND AVE NE,608,Candler Park,N,33.76653,-84.34889,
LARCENY-NON VEHICLE,160190399,01/19/2016,548 NORTHSIDE DR NW,103,English Avenue,L,33.7697,-84.40508,
LARCENY-NON VEHICLE,160192855,01/19/2016,3393 PEACHTREE RD NE,210,Lenox,B,33.84676,-84.36212,
LARCENY-NON VEHICLE,160193071,01/19/2016,2959 CAMPBELLTON RD SW,409,Southwest,R,33.69731,-84.48504,
LARCENY-NON VEHICLE,160192238,01/19/2016,835 MARTIN L KING JR DR NW,102,Vine City,L,33.75504,-84.41457,
LARCENY-NON VEHICLE,160192330,01/19/2016,110 E ANDREWS DR NW,206,South Tuxedo Park,B,33.84325,-84.38288,
LARCENY-NON VEHICLE,160193311,01/19/2016,2615 DONALD LEE HOLLOWELL PKWY NW,109,Center Hill,J,33.7762,-84.47236,
LARCENY-FROM VEHICLE,160192239,01/19/2016,240 N HIGHLAND AVE NE @PARISH FOODS,602,Inman Park,N,33.76191,-84.36039,
LARCENY-FROM VEHICLE,160192788,01/19/2016,1587 HOWELL MILL RD NW,207,Berkeley Park,D,33.79835,-84.41575,
LARCENY-FROM VEHICLE,160193053,01/19/2016,668 HIGHLAND AVE NE,604,Old Fourth Ward,M,33.76147,-84.36534,
LARCENY-FROM VEHICLE,160193017,01/19/2016,1801 HOWELL MILL RD NW,204,Berkeley Park,D,33.80388,-84.41278,
LARCENY-FROM VEHICLE,160192893,01/19/2016,2225 CHESHIRE BRIDGE RD NE,213,Lindridge/Martin Manor,F,33.81592,-84.35224,
LARCENY-FROM VEHICLE,160191976,01/19/2016,2563 MARTIN L KING JR DR NW,111,Harland Terrace,I,33.75367,-84.47167,
LARCENY-FROM VEHICLE,160191936,01/19/2016,3725 PRINCETON LAKES PKWY,405,Kirkwood,O,33.75086,-84.32133,
LARCENY-FROM VEHICLE,160191822,01/19/2016,230 CLEVELAND AVE SW @KMART CLEVELAND,311,Glenrose Heights,Z,33.68012,-84.39573,
LARCENY-FROM VEHICLE,160191511,01/19/2016,747 DURANT PL NE,506,Midtown,E,33.775,-84.37577,
LARCENY-FROM VEHICLE,160182550,01/19/2016,3360 PEACHTREE RD,208,North Buckhead,B,33.84694,-84.36814,
LARCENY-FROM VEHICLE,160191365,01/19/2016,741 LYNN CIR SW,406,,I,33.73522,-84.48686,
LARCENY-FROM VEHICLE,160191302,01/19/2016,20 MOBLEY DR SE,310,Browns Mill Park,Z,33.68664,-84.38803,
LARCENY-FROM VEHICLE,160191169,01/19/2016,1020 VANCE AVE NE,601,Virginia Highland,F,33.78251,-84.35587,
LARCENY-FROM VEHICLE,160191059,01/19/2016,517 WWHITEHALL ST SW,401,West End,T,33.74088,-84.41236,
LARCENY-FROM VEHICLE,160190877,01/19/2016,300 MARTIN L KING JR DR SE,605,Oakland,W,33.74749,-84.37762,
LARCENY-FROM VEHICLE,160190525,01/19/2016,722 CHURCH ST NW,109,Center Hill,J,33.77471,-84.46789,
LARCENY-FROM VEHICLE,160190138,01/19/2016,1391 COLLIER RD NW,204,Underwood Hills,D,33.81164,-84.43547,
LARCENY-FROM VEHICLE,160190077,01/19/2016,410 14TH ST NW,501,Home Park,E,33.78589,-84.40047,
LARCENY-FROM VEHICLE,160191963,01/19/2016,470 CHEROKEE AVE SE,605,Grant Park,W,33.74175,-84.37331,
LARCENY-NON VEHICLE,160191860,01/19/2016,75 14TH ST NE,503,Midtown,E,33.78656,-84.38548,
LARCENY-NON VEHICLE,160192614,01/19/2016,1157 MAYLAND CIR SW,302,Pittsburgh,V,33.72333,-84.40612,
LARCENY-NON VEHICLE,160191987,01/19/2016,90 FAIRLIE ST NW,508,Downtown,M,33.75719,-84.38997,
LARCENY-NON VEHICLE,160180143,01/19/2016,1156 EUCLID AVE NE,602,Candler Park,N,33.76551,-84.34912,
LARCENY-NON VEHICLE,160191636,01/19/2016,1242 GLENWOOD AVE SE,612,East Atlanta,W,33.74036,-84.34687,
LARCENY-NON VEHICLE,160193157,01/19/2016,188 14TH ST NE @COLONY SQUARE,502,Midtown,E,33.78663,-84.38139,
LARCENY-NON VEHICLE,160191955,01/19/2016,1451 OAKLAND DR SW ,403,Oakland City,S,33.71537,-84.42781,
