UC2_Literal,Report Number,Report Date,Location,Beat,Neigborhood,NPU,Lat,Long,
ROBBERY-PEDESTRIAN,160600268,02/29/2016,3477 DELMAR LN NW,111,Adamsville,H,33.7577,-84.50173,
ROBBERY-COMMERCIAL,160600999,02/29/2016,1175 RALPH D ABERNATHY BLVD SW,401,West End,T,33.73893,-84.42634,
ROBBERY-COMMERCIAL,160600572,02/29/2016,2264 CHESHIRE BRIDGE RD NE,212,Lindridge/Martin Manor,F,33.81699,-84.35265,
AGG ASSAULT,160602702,02/29/2016,1710 MARTIN L KING JR DR SW,104,Mozley Park,K,33.75103,-84.44298,
AGG ASSAULT,160602963,02/29/2016,1620 HOLLYWOOD RD NW,113,Scotts Crossing,G,33.79988,-84.47023,
AGG ASSAULT,160602982,02/29/2016,494 CLEVELAND AVE SW,311,Hammond Park,X,33.68101,-84.40483,
BURGLARY-RESIDENCE,160600858,02/29/2016,1580 DIXIE ST SE,610,Kirkwood,O,33.7479,-84.33563,
BURGLARY-RESIDENCE,160600959,02/29/2016,2909 CAMPBELLTON RD SW,409,Southwest,R,33.69869,-84.48265,
BURGLARY-RESIDENCE,160600986,02/29/2016,1392 AVON AVE SW,403,Venetian Hills,S,33.72221,-84.43358,
BURGLARY-RESIDENCE,160601541,02/29/2016,150 MELLRICH AVE NE,610,Kirkwood,O,33.75665,-84.31305,
BURGLARY-RESIDENCE,160602108,02/29/2016,636 LAWTON ST SW,401,West End,T,33.73777,-84.4231,
BURGLARY-RESIDENCE,160602110,02/29/2016,1825 EVANS DR SW,306,Sylvan Hills,X,33.70481,-84.42273,
BURGLARY-RESIDENCE,160602193,02/29/2016,262 MELLRICH AVE NE,610,Kirkwood,O,33.76033,-84.31313,
BURGLARY-RESIDENCE,160603134,02/29/2016,1129 WINDSOR ST SW,302,Pittsburgh,V,33.72406,-84.39864,
BURGLARY-NONRES,160600609,02/29/2016,477 WILMER ST NE,603,Old Fourth Ward,M,33.76749,-84.36605,
BURGLARY-NONRES,160600569,02/29/2016,486 DECATUR ST SE,604,Sweet Auburn,M,33.75126,-84.37207,
BURGLARY-NONRES,160601861,02/29/2016,2105 CAMPBELLTON RD SW,409,Adams Park,R,33.70662,-84.45722,
BURGLARY-NONRES,160602102,02/29/2016,2519 CHANTILLY DR NE,212,Lindridge/Martin Manor,F,33.82369,-84.35056,
BURGLARY-RESIDENCE,160603137,02/29/2016,497 GLENWOOD PL SE,606,Ormewood Park,W,33.74058,-84.35548,
LARCENY-NON VEHICLE,160603193,02/29/2016,3640 CAMPBELLTON RD SW,413,,P,33.68972,-84.50763,
LARCENY-NON VEHICLE,160602751,02/29/2016,1450 DONNELLY AVE SW,402,West End,T,33.73772,-84.43479,
LARCENY-NON VEHICLE,160602838,02/29/2016,850 OAK ST SW @WEST END MALL,401,West End,T,33.74057,-84.4168,
LARCENY-NON VEHICLE,160601342,02/29/2016,3393 PEACHTREE RD NE ,210,Lenox,B,33.84676,-84.36212,
LARCENY-FROM VEHICLE,160602421,02/29/2016,1984 HOWELL MILL RD NW,205,Wildwood (NPU-C),C,33.80878,-84.41296,
LARCENY-FROM VEHICLE,160602900,02/29/2016,75 MARTIN L KING JR DR SW ,511,Downtown,M,33.75119,-84.38996,
LARCENY-FROM VEHICLE,160602949,02/29/2016,3755 CARMIA DR SW,414,Princeton Lakes,P,33.65629,-84.51134,
LARCENY-FROM VEHICLE,160603001,02/29/2016,369 MCDANIEL ST SW,101,The Villages at Castleberry Hill,T,33.74505,-84.40523,
LARCENY-FROM VEHICLE,160603354,02/29/2016,1458 HELEN LN SW,412,Greenbriar Village,P,33.70389,-84.53932,
LARCENY-FROM VEHICLE,160602011,02/29/2016,1642 DEKALB AVE NE,608,Candler Park,N,33.76239,-84.33371,
LARCENY-FROM VEHICLE,160600585,02/29/2016,2900 LANDRUM  DR SW,409,Southwest,R,33.70495,-84.48299,
LARCENY-FROM VEHICLE,160601881,02/29/2016,503 PEEPLES ST SW,401,West End,T,33.74121,-84.42084,
LARCENY-FROM VEHICLE,160601913,02/29/2016,337 PINE ST NE,603,Old Fourth Ward,M,33.76742,-84.37634,
LARCENY-FROM VEHICLE,160601991,02/29/2016,100 LUCKIE ST NW,508,Downtown,M,33.7573,-84.38992,
LARCENY-FROM VEHICLE,160601966,02/29/2016,374 MAYNARD TER SE,612,East Atlanta,W,33.74179,-84.3347,
LARCENY-FROM VEHICLE,160601185,02/29/2016,952 PROCTOR ST NW,106,Bankhead,K,33.76484,-84.41866,
LARCENY-FROM VEHICLE,160600859,02/29/2016,3107 GOLD DR SW,409,Southwest,R,33.71342,-84.49429,
LARCENY-FROM VEHICLE,160600886,02/29/2016,55 MARIETTA ST NW,508,Downtown,M,33.75589,-84.39106,
LARCENY-FROM VEHICLE,160601120,02/29/2016,320 FAIRBURN RD SW,407,Fairburn Mays,H,33.7451,-84.50858,
LARCENY-FROM VEHICLE,160601280,02/29/2016,476 WILMER ST NE,603,Old Fourth Ward,M,33.76741,-84.36652,
LARCENY-FROM VEHICLE,160601476,02/29/2016,450 STONEWALL ST SW,507,Castleberry Hill,M,33.74942,-84.40228,
LARCENY-FROM VEHICLE,160601657,02/29/2016,2296 CAREY DR SE,310,Lakewood,Z,33.69135,-84.3697,
LARCENY-FROM VEHICLE,160561023,02/29/2016,I-20 WB EXPY NW / HAMILTON E HOLMES DR NW,112,Dixie Hills,J,33.75709,-84.4689,
LARCENY-FROM VEHICLE,160602785,02/29/2016,3450 BENJAMIN E MAYS DR SW @MAYS HS,407,Mays,H,33.73364,-84.50386,
LARCENY-FROM VEHICLE,160601931,02/29/2016,960 CONSTITUTION RD SE,308,Norwood Manor,Z,33.69307,-84.35805,
LARCENY-FROM VEHICLE,160602295,02/29/2016,934 METROPOLITAN PKWY SW,302,Pittsburgh,V,33.72956,-84.40774,
LARCENY-NON VEHICLE,160602569,02/29/2016,1055 PIEDMONT AVE NE,502,Midtown,E,33.78338,-84.37846,
LARCENY-NON VEHICLE,160601936,02/29/2016,685 MERCER ST SE,605,Grant Park,W,33.73532,-84.36493,
LARCENY-NON VEHICLE,160603092,02/29/2016,1935 ALISON CT SW @FRANCISCAN CLUB APT,410,Fort Valley,R,33.70094,-84.45148,
LARCENY-NON VEHICLE,160602291,02/29/2016,445 CENTENNIAL OLYMPIC P DR NW,504,Downtown,M,33.76677,-84.39159,
LARCENY-NON VEHICLE,160601756,02/29/2016,1703 BROWNING ST NW,104,Mozley Park,K,33.75265,-84.44279,
LARCENY-NON VEHICLE,160601894,02/29/2016,941 FERN AVE SE,304,Peoplestown,V,33.72888,-84.38536,
LARCENY-NON VEHICLE,160600833,02/29/2016,840 MCDONOUGH BLVD SE,607,Custer/McDonough/Guice,W,33.70874,-84.35887,
LARCENY-NON VEHICLE,160601767,02/29/2016,2841 GREENBRIAR PKWY SW,411,Greenbriar,R,33.68992,-84.48917,
AUTO THEFT,160603339,02/29/2016,1974 SYLVAN RD,306,Sylvan Hills,X,33.70008,-84.41803,
AUTO THEFT,160603013,02/29/2016,3170 DONALD LEE HOLLOWELL PKWY NW,112,Collier Heights,I,33.78577,-84.49055,
AUTO THEFT,160601558,02/29/2016,265 WASHINGTON ST SW @TRINITY METHODIST,512,Downtown,M,33.74786,-84.39075,
AUTO THEFT,160601245,02/29/2016,3260 DONNEBROOK LN SE,313,South River Gardens,Z,33.66611,-84.36681,
AUTO THEFT,160600972,02/29/2016,303 PARKWAY DR NE @Multiple,604,Old Fourth Ward,M,33.76286,-84.37405,
AUTO THEFT,160600771,02/29/2016,140 MOUNT ZION RD SW,312,Glenrose Heights,Z,33.67279,-84.39464,
AUTO THEFT,160602992,02/29/2016,183 VANIRA AVE SE,304,Peoplestown,V,33.72907,-84.38184,
AUTO THEFT,160600701,02/29/2016,183 MOUNT ZION RD SE,312,Glenrose Heights,Z,33.67268,-84.38507,
AUTO THEFT,160602077,02/29/2016,450 OAKLAND AVE SE ,605,Grant Park,W,33.74235,-84.37486,
AUTO THEFT,160601983,02/29/2016,595 PIEDMONT AVE NE @PUBLIX - PIEDMONT,603,Old Fourth Ward,M,33.77067,-84.38023,
AUTO THEFT,160592209,02/29/2016,3152 DELMAR LN NW,111,,I,33.75562,-84.49054,
AUTO THEFT,160592777,02/28/2016,880 ROCK ST NW,102,Vine City,L,33.76213,-84.41648,
AUTO THEFT,160590986,02/28/2016,1572 HARDEE ST NE,609,Edgewood,O,33.75546,-84.33644,
AUTO THEFT,160592048,02/28/2016,3030 CONTINENTAL COLONY PKWY SW,411,Greenbriar,R,33.68066,-84.49371,
AUTO THEFT,160591594,02/28/2016,3760 PRINCETON LAKES PKWY,414,Princeton Lakes,P,33.65806,-84.51051,
AUTO THEFT,160592370,02/28/2016,3819 JONESBORO RD SE,313,South River Gardens,Z,33.65025,-84.36718,
AUTO THEFT,160590950,02/28/2016,417 4TH ST NE,506,Midtown,E,33.77425,-84.37353,
AUTO THEFT,160591327,02/28/2016,302 DECATUR ST SE,604,Sweet Auburn,M,33.74996,-84.37979,
AUTO THEFT,160591262,02/28/2016,700 COOPER ST SW,303,Mechanicsville,V,33.73572,-84.39677,
AUTO THEFT,160591248,02/28/2016,304 WALKER ST SW,507,Castleberry Hill,M,33.74625,-84.40336,
AUTO THEFT,160591152,02/28/2016,4395 PARK CENTER DR SW,412,Midwest Cascade,Q,33.7298,-84.52898,
AUTO THEFT,160590992,02/28/2016,400 BASS ST SW,303,Mechanicsville,V,33.73553,-84.40108,
AUTO THEFT,160590001,02/28/2016,CENTENNIAL OLYMPIC P DR NW / MARIETTA ST NW,508,Downtown,M,33.7579,-84.39351,
AUTO THEFT,160590331,02/28/2016,181 RALPH D ABERNATHY BLVD SW,303,Mechanicsville,V,33.7369,-84.39333,
AUTO THEFT,160590298,02/28/2016,2074 NORTH AVE NW,107,Grove Park,J,33.76926,-84.45614,
AUTO THEFT,160590979,02/28/2016,1617 JOSEPH E BOONE BLVD NW,107,Grove Park,J,33.76385,-84.44072,
AUTO THEFT,160590797,02/28/2016,174 WOODWARD AVE SE,605,Capitol Gateway,V,33.74572,-84.38223,
AUTO THEFT,160590678,02/28/2016,522 HOLDERNESS ST SW,401,West End,T,33.74102,-84.42705,
AUTO THEFT,160590330,02/28/2016,183 MOUNT ZION RD SE,312,Glenrose Heights,Z,33.67268,-84.38507,
LARCENY-NON VEHICLE,160591185,02/28/2016,1534 FOREST LAKES AVE SE,611,The Villages at East Lake,O,33.74319,-84.31304,
LARCENY-NON VEHICLE,160598058,02/28/2016,GATE B2 @9700 SPINE RD,703,,,33.6375,-84.43659,
LARCENY-NON VEHICLE,160591970,02/28/2016,3200 LENOX RD NE,210,Pine Hills,B,33.84293,-84.35825,
LARCENY-NON VEHICLE,160591349,02/28/2016,2349 HURST DR NE,211,Peachtree Hills,B,33.81955,-84.37894,
LARCENY-NON VEHICLE,160591769,02/28/2016,647 GRADY PL SW,402,West End,T,33.73742,-84.42682,
LARCENY-FROM VEHICLE,160592260,02/28/2016,1073 HOLLYWOOD RD NW,110,Almond Park,G,33.78421,-84.46026,
LARCENY-FROM VEHICLE,160591433,02/28/2016,2980 JONESBORO RD SE,313,South River Gardens,Z,33.67339,-84.37144,
LARCENY-FROM VEHICLE,160591472,02/28/2016,1245 BREUER MEWS NW,203,Blandtown,D,33.79181,-84.42796,
LARCENY-FROM VEHICLE,160598028,02/28/2016,6011 S TERMINAL BYWY,704,,,33.6397,-84.44354,
LARCENY-FROM VEHICLE,160592718,02/28/2016,185 CENTRAL AVE SW,512,Downtown,M,33.7499,-84.39058,
LARCENY-FROM VEHICLE,160591557,02/28/2016,1958 TIGER FLOWERS DR NW,108,Dixie Hills,J,33.75989,-84.45115,
LARCENY-FROM VEHICLE,160591844,02/28/2016,569 EZZARD ST SE,604,Old Fourth Ward,M,33.75324,-84.36863,
LARCENY-FROM VEHICLE,160591890,02/28/2016,1130 JUNIPER ST NE,503,Midtown,E,33.78543,-84.38217,
LARCENY-FROM VEHICLE,160591975,02/28/2016,755 MYRTLE ST NE,505,Midtown,E,33.77523,-84.37965,
LARCENY-FROM VEHICLE,160592003,02/28/2016,1481 WOODBINE AVE SE,610,Kirkwood,O,33.74995,-84.33879,
LARCENY-FROM VEHICLE,160592378,02/28/2016,3368 PEACHTREE RD NE,208,North Buckhead,B,33.84713,-84.36802,
LARCENY-FROM VEHICLE,160592571,02/28/2016,240 W LAKE AVE NW,105,West Lake,J,33.76147,-84.44219,
LARCENY-FROM VEHICLE,160592740,02/28/2016,1015 CREW ST SW,304,Peoplestown,V,33.72707,-84.3898,
LARCENY-FROM VEHICLE,160591145,02/28/2016,226 COURTLAND ST NE,509,Downtown,M,33.76051,-84.38429,
LARCENY-FROM VEHICLE,160590598,02/28/2016,3599 MARTIN LUTHER KING JR DR SW,111,Fairburn Mays,H,33.7451,-84.50858,
LARCENY-FROM VEHICLE,160590808,02/28/2016,147 26TH ST NW,207,Brookwood,E,33.80251,-84.39773,
LARCENY-FROM VEHICLE,160590809,02/28/2016,117 PEACHTREE ST SW,512,Downtown,M,33.75153,-84.39269,
LARCENY-FROM VEHICLE,160590823,02/28/2016,988 WOODBOURNE DR SW,306,Sylvan Hills,X,33.70957,-84.42057,
LARCENY-FROM VEHICLE,160590947,02/28/2016,1080 REUNION PL SW,412,Midwest Cascade,Q,33.72397,-84.52831,
LARCENY-FROM VEHICLE,160590053,02/28/2016,939 PONCE DE LEON AVE NE,602,Poncey-Highland,N,33.77351,-84.35663,
LARCENY-FROM VEHICLE,160591140,02/28/2016,1118 BLUE RIDGE AVE NE,602,Poncey-Highland,N,33.77252,-84.35101,
LARCENY-FROM VEHICLE,160591233,02/28/2016,834 DRUMMOND ST SW,101,Atlanta University Center,T,33.75264,-84.41488,
LARCENY-FROM VEHICLE,160591244,02/28/2016,1919 METROPOLITAN PKWY SW,306,Sylvan Hills,X,33.70278,-84.41017,
LARCENY-FROM VEHICLE,160591324,02/28/2016,384 WOODWARD WAY NW @BOBBY JONES GOLF CO,205,,C,33.81596,-84.4035,
LARCENY-NON VEHICLE,160592689,02/28/2016,1176 CHATTAHOOCHEE AVE NW,203,Blandtown,D,33.80058,-84.42561,
LARCENY-NON VEHICLE,160591683,02/28/2016,2539 PIEDMONT RD NE @TARGET - PIEDMONT,211,Lindbergh/Morosgo,B,33.82403,-84.36328,
LARCENY-NON VEHICLE,160591603,02/28/2016,3334 PEACHTREE RD NE ,208,North Buckhead,B,33.84911,-84.37075,
LARCENY-NON VEHICLE,160590543,02/28/2016,3005 CAMPBELLTON RD SW ,409,Southwest,R,33.69596,-84.48623,
LARCENY-NON VEHICLE,160591737,02/28/2016,3000 CONTINENTAL COLONY PKWY SW,411,Greenbriar,R,33.68077,-84.4937,
BURGLARY-RESIDENCE,160592485,02/28/2016,44 KROG ST NE,602,Inman Park,N,33.75503,-84.3643,
BURGLARY-RESIDENCE,160591545,02/28/2016,1114 HAWTHORNE ST NE,606,Reynoldstown,N,33.75482,-84.3511,
BURGLARY-NONRES,160592341,02/28/2016,624 N HIGHLAND AVE NE,602,Poncey-Highland,N,33.77149,-84.35262,
BURGLARY-RESIDENCE,160591193,02/28/2016,2048 NORTH AVE NW,107,Grove Park,J,33.76876,-84.45533,
BURGLARY-RESIDENCE,160591437,02/28/2016,1043 CONLEY RD SE,313,South River Gardens,Z,33.64877,-84.35604,
BURGLARY-RESIDENCE,160590899,02/28/2016,2098 HONEYSUCKLE LN SW,409,Adams Park,R,33.71085,-84.45717,
BURGLARY-RESIDENCE,160592496,02/28/2016,1767 MAPLE WALK CIR SW,307,Betmar LaVilla,Y,33.70599,-84.39845,
BURGLARY-RESIDENCE,160592481,02/28/2016,425 CHAPEL ST SW,507,Castleberry Hill,M,33.75195,-84.40195,
BURGLARY-RESIDENCE,160590035,02/28/2016,266 ORMOND ST SE,605,Grant Park,W,33.7317,-84.37908,
BURGLARY-RESIDENCE,160591826,02/28/2016,2909 CAMPBELLTON RD SW,409,Southwest,R,33.69869,-84.48265,
BURGLARY-RESIDENCE,160592133,02/28/2016,2681 IVYDALE CT SW,410,Campbellton Road,R,33.69995,-84.47653,
BURGLARY-RESIDENCE,160592674,02/28/2016,904 SOCIETY CIR SW,407,Mays,H,33.74701,-84.50149,
BURGLARY-RESIDENCE,160592685,02/28/2016,1567 JONESBORO RD SE,305,South Atlanta,Y,33.71016,-84.38183,
AGG ASSAULT,160592224,02/28/2016,837 OAK ST NW,109,Center Hill,J,33.77803,-84.46345,
AGG ASSAULT,160592369,02/28/2016,460 THOMASVILLE BLVD SE,308,Thomasville Heights,Z,33.70571,-84.35923,
AGG ASSAULT,160591685,02/28/2016,819 HUMPHRIES ST SW,302,Pittsburgh,V,33.73192,-84.40559,
AGG ASSAULT,160591923,02/28/2016,257 SILVER SPRINGS CIR SW,405,Florida Heights,I,33.74883,-84.46554,
AGG ASSAULT,160591582,02/28/2016,2591 PIEDMONT RD NE,211,Lindbergh/Morosgo,B,33.82543,-84.36706,
AGG ASSAULT,160590156,02/28/2016,3377 PEACHTREE RD NE,210,Lenox,B,33.84779,-84.36633,
ROBBERY-RESIDENCE,160592342,02/28/2016,3715 CLOVIS CT NW,114,Carroll Heights,H,33.77549,-84.50945,
ROBBERY-PEDESTRIAN,160590191,02/28/2016,2828 HAPEVILLE RD,311,Glenrose Heights,Z,33.67724,-84.39341,
ROBBERY-PEDESTRIAN,160592164,02/28/2016,1198 MONTREAT AVE SW,402,Oakland City,S,33.72957,-84.427,
ROBBERY-PEDESTRIAN,160591644,02/28/2016,2601 BEELER DR SW,309,Perkerson,X,33.68378,-84.40121,
ROBBERY-PEDESTRIAN,160590127,02/28/2016,196 NAPOLEON DR SW,104,Ashview Heights,T,33.74942,-84.42747,
ROBBERY-PEDESTRIAN,160590347,02/28/2016,227 PEARL ST SE,606,Cabbagetown,N,33.74829,-84.36246,
ROBBERY-PEDESTRIAN,160580353,02/27/2016,120 CENTER ST NW,504,Downtown,M,33.76824,-84.39355,
ROBBERY-PEDESTRIAN,160580450,02/27/2016,755 PONCE DE LEON PL NE,601,Virginia Highland,F,33.77509,-84.36358,
ROBBERY-PEDESTRIAN,160580907,02/27/2016,170 PIEDMONT AVE SE @GA STATE MARTA STATION,511,Downtown,M,33.75007,-84.38589,
ROBBERY-PEDESTRIAN,160582650,02/27/2016,11 SUNSET AVE NW,102,Vine City,L,33.7569,-84.40783,
ROBBERY-PEDESTRIAN,160582169,02/27/2016,240 N HIGHLAND AVE NE @PARISH FOODS,602,Inman Park,N,33.76191,-84.36039,
ROBBERY-PEDESTRIAN,160581141,02/27/2016,565 JOSEPH E LOWERY BLVD SW,401,West End,T,33.73969,-84.41828,
ROBBERY-PEDESTRIAN,160582423,02/27/2016,2255 LENOX RD NE,213,Lindridge/Martin Manor,F,33.81631,-84.35188,
AGG ASSAULT,160581551,02/27/2016,1544 BREWER BLVD SW,306,Sylvan Hills,X,33.7127,-84.41667,
AGG ASSAULT,160582623,02/27/2016,560 AMSTERDAM AVE NE,213,Morningside/Lenox Park,F,33.78858,-84.36875,
AGG ASSAULT,160580683,02/27/2016,954 DEWEY ST SW,302,Pittsburgh,V,33.72889,-84.40678,
BURGLARY-RESIDENCE,160583224,02/27/2016,1279 EPWORTH ST SW,403,Venetian Hills,S,33.72011,-84.43109,
BURGLARY-NONRES,160580691,02/27/2016,191 14TH ST NW,501,Home Park,E,33.78714,-84.39352,
BURGLARY-NONRES,160581385,02/27/2016,207 13TH ST NE,503,Midtown,E,33.78518,-84.38053,
BURGLARY-RESIDENCE,160582443,02/27/2016,3200 LENOX RD NE,210,Pine Hills,B,33.84293,-84.35825,
LARCENY-NON VEHICLE,160582191,02/27/2016,931 MONROE DR NE,506,Midtown,E,33.77976,-84.36763,
LARCENY-NON VEHICLE,160582617,02/27/2016,50 ALABAMA ST SW,511,Downtown,M,33.75332,-84.38931,
LARCENY-NON VEHICLE,160582433,02/27/2016,3393 PEACHTREE RD NE,210,Lenox,B,33.84892,-84.36426,
LARCENY-NON VEHICLE,160582497,02/27/2016,3393 PEACHTREE RD NE,210,Lenox,B,33.84676,-84.36212,
LARCENY-NON VEHICLE,160582308,02/27/2016,3650 JONESBORO RD,313,South River Gardens,Z,33.65088,-84.36362,
LARCENY-NON VEHICLE,160582109,02/27/2016,835 MARTIN L KING JR DR NW,102,Vine City,L,33.75504,-84.41457,
LARCENY-NON VEHICLE,160580205,02/27/2016,2716 MARTIN L KING JR DR SW,405,Harland Terrace,I,33.75395,-84.47612,
LARCENY-FROM VEHICLE,160581462,02/27/2016,I-285 W @ JONESBORO RD SE,313,South River Gardens,Z,33.65221,-84.3671,
LARCENY-FROM VEHICLE,160580794,02/27/2016,599 WHITEHALL ST SW,303,Pittsburgh,V,33.74277,-84.40756,
LARCENY-FROM VEHICLE,160580223,02/27/2016,2348 CASCADE RD SW,409,Adams Park,R,33.72146,-84.46522,
LARCENY-FROM VEHICLE,160581492,02/27/2016,300 BIGGERS ST SE ,605,Grant Park,W,33.7482,-84.3765,
LARCENY-FROM VEHICLE,160582181,02/27/2016,2755 CAMPBELLTON RD SW,409,Southwest,R,33.70235,-84.47822,
LARCENY-FROM VEHICLE,160582725,02/27/2016,4400 PEACHTREE DUNWOODY RD NE,209,North Buckhead,B,33.87456,-84.35885,
LARCENY-FROM VEHICLE,160582604,02/27/2016,445 PHARR RD,206,Buckhead Village,B,33.83698,-84.36808,
LARCENY-FROM VEHICLE,160581088,02/27/2016,226 BRADBERRY ST SW,507,Castleberry Hill,M,33.74869,-84.40086,
LARCENY-FROM VEHICLE,160581650,02/27/2016,53 14TH ST - LAZ PARKING LOT ,503,Midtown,E,33.78634,-84.38591,
LARCENY-FROM VEHICLE,160581382,02/27/2016,126 PEACHTREE CIR NE,502,Ansley Park,E,33.79267,-84.38418,
LARCENY-FROM VEHICLE,160580977,02/27/2016,1243 WESTRIDGE RD SW,408,Venetian Hills,S,33.72128,-84.44715,
LARCENY-FROM VEHICLE,160582055,02/27/2016,3755 CARMIA DR SW,414,Princeton Lakes,P,33.65629,-84.51134,
LARCENY-FROM VEHICLE,160581811,02/27/2016,2637 OLD HAPEVILLE RD SW,310,Browns Mill Park,Z,33.68294,-84.39417,
LARCENY-FROM VEHICLE,160581802,02/27/2016,2223 BOULEVARD GRANADA SW,409,Adams Park,R,33.71807,-84.4612,
LARCENY-FROM VEHICLE,160582885,02/27/2016,3393 PEACHTREE RD NE,210,Lenox,B,33.84676,-84.36212,
LARCENY-FROM VEHICLE,160583021,02/27/2016,1465 CHATTAHOOCHEE AVE NW,204,Underwood Hills,D,33.80787,-84.43494,
LARCENY-NON VEHICLE,160582106,02/27/2016,2708 TUPELO ST SE,611,East Lake,O,33.74913,-84.29831,
LARCENY-NON VEHICLE,160582803,02/27/2016,330 GLENWOOD AVE SE,605,Grant Park,W,33.74276,-84.37721,
LARCENY-NON VEHICLE,160581739,02/27/2016,1483 ARTHUR LANGFORD JR PL SW,307,Joyland,Y,33.71097,-84.39789,
LARCENY-NON VEHICLE,160581729,02/27/2016,3650 JONESBORO RD SE,313,South River Gardens,Z,33.6558,-84.36612,
LARCENY-FROM VEHICLE,160581822,02/27/2016,2500 CENTER ST NW,113,Carey Park,G,33.78999,-84.47156,
LARCENY-FROM VEHICLE,160581594,02/27/2016,1256 MURPHY AVE SW,301,Capitol View,X,33.72059,-84.42198,
LARCENY-NON VEHICLE,160588050,02/27/2016,5500 N TERMINAL PKWY,705,,,33.64189,-84.44927,
LARCENY-NON VEHICLE,160581869,02/27/2016,1315 PASADENA AVE NE,213,Morningside/Lenox Park,F,33.79847,-84.34371,
LARCENY-NON VEHICLE,160582658,02/27/2016,3843 JONESBORO RD SE,313,South River Gardens,Z,33.64933,-84.36635,
LARCENY-NON VEHICLE,160580786,02/27/2016,1491 SYLVAN RD SW,306,Sylvan Hills,X,33.71416,-84.41839,
AUTO THEFT,160581468,02/27/2016,320 BEREAN AVE SE,606,Grant Park,W,33.74588,-84.36656,
AUTO THEFT,160582728,02/27/2016,1251 PLAZA AVE SW,402,Bush Mountain,S,33.72828,-84.42879,
AUTO THEFT,160580923,02/27/2016,1064 BIRCH ST SW,306,Sylvan Hills,X,33.70521,-84.4231,
AUTO THEFT,160583215,02/27/2016,1314  ELLSWORTH INDUSTRIAL BLVD NW,203,Blandtown,D,33.79014,-84.42697,
AUTO THEFT,160581006,02/27/2016,3843 JONESBORO RD SW,313,South River Gardens,Z,33.64933,-84.36635,
AUTO THEFT,160583152,02/27/2016,196 WALNUT ST NW,102,Vine City,L,33.75997,-84.40661,
AUTO THEFT,160573379,02/26/2016,372 FAIRBURN RD NW,111,Adamsville,H,33.76561,-84.50039,
AUTO THEFT,160570508,02/26/2016,1534 ORLANDO ST SW,403,Cascade Avenue/Road,S,33.72426,-84.43952,
AUTO THEFT,160570802,02/26/2016,751 FAIRBURN RD SW,407,Fairburn Mays,H,33.73454,-84.51059,
AUTO THEFT,160570039,02/26/2016,3580 CAMPBELLTON RD SW,413,,P,33.6899,-84.50584,
AUTO THEFT,160570850,02/26/2016,1002 CURRAN ST NW,501,Home Park,E,33.78244,-84.40618,
AUTO THEFT,160571253,02/26/2016,75 BILL LUCAS DR SE,304,Summerhill,V,33.73432,-84.38543,
AUTO THEFT,160573276,02/26/2016,2685 METROPOLITAN PKWY SW,309,Perkerson,X,33.68274,-84.40902,
AUTO THEFT,160572663,02/26/2016,2731 OLDKNOW DR NW,112,Collier Heights,I,33.77205,-84.47702,
AUTO THEFT,160572228,02/26/2016,930 HOWELL MILL RD NW,501,Home Park,E,33.78008,-84.41055,
LARCENY-NON VEHICLE,160578035,02/26/2016,6000 S TERMINAL PKWY,704,,,33.63751,-84.44824,
LARCENY-NON VEHICLE,160572186,02/26/2016,668 MCDONOUGH BLVD SE,607,Benteen Park,W,33.71289,-84.36544,
LARCENY-NON VEHICLE,160573376,02/26/2016,1311 ALEXANDER CIR NE,209,North Buckhead,B,33.85428,-84.36627,
LARCENY-NON VEHICLE,160571926,02/26/2016,2325 MARIETTA BLVD NW ,201,,C,33.82065,-84.45274,
LARCENY-NON VEHICLE,160571701,02/26/2016,232 FORSYTH ST SW,512,Downtown,M,33.7485,-84.39664,
LARCENY-NON VEHICLE,160572930,02/26/2016,1341 METROPOLITAN PKWY SW,301,Capitol View,X,33.71805,-84.40809,
LARCENY-NON VEHICLE,160572592,02/26/2016,1890 DONALD LEE HOLLOWELL,107,Grove Park,J,33.77462,-84.44885,
LARCENY-FROM VEHICLE,160571953,02/26/2016,2798 PEEK RD NW,112,Collier Heights,I,33.77743,-84.47815,
LARCENY-NON VEHICLE,160571770,02/26/2016,98 ANDERSON AVE NW @APS KIPP COLLEGIATE,108,Dixie Hills,J,33.75633,-84.45114,
LARCENY-NON VEHICLE,160573091,02/26/2016,3535 PEACHTREE RD NE,210,Lenox,B,33.85182,-84.3595,
LARCENY-NON VEHICLE,160573103,02/26/2016,3393 PEACHTREE RD NE,210,Lenox,B,33.84676,-84.36212,
LARCENY-NON VEHICLE,160571276,02/26/2016,3300 PEACHTREE RD NE,208,North Buckhead,B,33.84514,-84.37031,
LARCENY-NON VEHICLE,160571292,02/26/2016,265 PEACHTREE CENTER AVE NE,509,Downtown,M,33.76158,-84.38496,
LARCENY-NON VEHICLE,160570560,02/26/2016,3909 CAMPBELLTON RD SW,412,Kings Forest,P,33.6924,-84.51637,
LARCENY-FROM VEHICLE,160571569,02/26/2016,3949 VERMONT RD NE,209,Brookhaven,B,33.86275,-84.35534,
LARCENY-FROM VEHICLE,160571669,02/26/2016,800 CHEROKEE AVE SE,605,Grant Park,W,33.73267,-84.37352,
LARCENY-FROM VEHICLE,160571091,02/26/2016,501 PULLIAM ST SW,303,Mechanicsville,V,33.74038,-84.39273,
LARCENY-FROM VEHICLE,160572251,02/26/2016,912 MARTIN L KING JR DR SW,101,Atlanta University Center,T,33.75427,-84.41723,
LARCENY-FROM VEHICLE,160571988,02/26/2016,1017 HIGHLAND VW NE,601,Virginia Highland,F,33.77896,-84.35418,
LARCENY-FROM VEHICLE,160572794,02/26/2016,1040 HUFF RD NW,203,Blandtown,D,33.78949,-84.42125,
LARCENY-FROM VEHICLE,160572371,02/26/2016,902 DONALD LEE HOLLOWELL PKWY NW,103,English Avenue,L,33.7728,-84.41689,
LARCENY-FROM VEHICLE,160573294,02/26/2016,1877 BONNIVIEW ST SW,306,Sylvan Hills,X,33.70359,-84.41626,
LARCENY-FROM VEHICLE,160571422,02/26/2016,3393 PEACHTREE RD NE @LENOX SQUARE,210,Lenox,B,33.84676,-84.36212,
LARCENY-FROM VEHICLE,160571222,02/26/2016,862 VERGINIA AVE,601,Virginia Highland,F,33.78234,-84.35917,
LARCENY-FROM VEHICLE,160570807,02/26/2016,630 JOHN WESLEY DOBBS AVE NE,604,Old Fourth Ward,M,33.75989,-84.36672,
LARCENY-FROM VEHICLE,160570982,02/26/2016,2095 PENELOPE ST NW,108,Penelope Neighbors,J,33.75295,-84.45425,
LARCENY-FROM VEHICLE,160570879,02/26/2016,1136 PEACHTREE ST NE,503,Midtown,E,33.78568,-84.38311,
LARCENY-FROM VEHICLE,160563581,02/26/2016,644 E PACES FERRY RD NE,212,Peachtree Park,B,33.84051,-84.36663,
LARCENY-FROM VEHICLE,160572402,02/26/2016,668 METROPOLITAN PKWY SW,302,Pittsburgh,V,33.7365,-84.40753,
LARCENY-FROM VEHICLE,160571955,02/26/2016,340 TED TURNER DR NW,508,Downtown,M,33.76386,-84.38922,
LARCENY-FROM VEHICLE,160573058,02/26/2016,600 PONCE DE LEON AVE NE,506,Midtown,E,33.77376,-84.36722,
LARCENY-FROM VEHICLE,160573419,02/26/2016,2348 CASCADE RD SW,409,Adams Park,R,33.72146,-84.46522,
LARCENY-FROM VEHICLE,160573302,02/26/2016,101 JACKSON ST NE,604,Sweet Auburn,M,33.75692,-84.37422,
LARCENY-NON VEHICLE,160573315,02/26/2016,3400 AROUND LENOX DR NE,210,Lenox,B,33.84578,-84.36489,
LARCENY-NON VEHICLE,160571855,02/26/2016,3393 PEACHTREE RD NE ,210,Lenox,B,33.84676,-84.36212,
LARCENY-NON VEHICLE,160572039,02/26/2016,1371 MARKET ST NW,501,Atlantic Station,E,33.7921,-84.39466,
LARCENY-NON VEHICLE,160572311,02/26/2016,1801 HOWELL MILL RD NW,204,Berkeley Park,D,33.80388,-84.41278,
LARCENY-NON VEHICLE,160571945,02/26/2016,2525 PIEDMONT RD NE,211,Lindbergh/Morosgo,B,33.824,-84.36521,
LARCENY-NON VEHICLE,160571565,02/26/2016,2841 GREENBRIAR PKWY SW @GREENBRIAR MALL,411,Greenbriar,R,33.68677,-84.49773,
LARCENY-NON VEHICLE,160562167,02/26/2016,55 MCDONOUGH BLVD SE,305,South Atlanta,Y,33.71987,-84.38667,
LARCENY-NON VEHICLE,160573117,02/26/2016,1255 W PEACHTREE ST NE @ARTS CENTER MARTA ST,502,Midtown,E,33.78966,-84.38716,
LARCENY-NON VEHICLE,160572348,02/26/2016,1459 MORELAND AVE SE,607,Custer/McDonough/Guice,W,33.71443,-84.35009,
LARCENY-NON VEHICLE,160572770,02/26/2016,3500 PEACHTREE RD NE,208,North Buckhead,B,33.85302,-84.36278,
BURGLARY-RESIDENCE,160573451,02/26/2016,680 NEW TOWN CIR SE,308,Thomasville Heights,Z,33.7067,-84.36412,
BURGLARY-NONRES,160571630,02/26/2016,2025 MONROE DR NE,212,Piedmont Heights,F,33.80964,-84.37407,
BURGLARY-RESIDENCE,160570840,02/26/2016,1770 RICHMOND AVE SE,307,Lakewood Heights,Y,33.70695,-84.37414,
BURGLARY-RESIDENCE,160571625,02/26/2016,3975 ADAMSVILLE DR SW,407,Baker Hills,H,33.76211,-84.51786,
BURGLARY-RESIDENCE,160572212,02/26/2016,4108 HAVERHILL DR NE,209,North Buckhead,B,33.86684,-84.37808,
BURGLARY-RESIDENCE,160571013,02/26/2016,600 PHIPPS BLVD NE,209,North Buckhead,B,33.85301,-84.36531,
BURGLARY-RESIDENCE,160570424,02/26/2016,193 MOURY AVE SW,305,The Villages at Carver,Y,33.71549,-84.39197,
AGG ASSAULT,160572217,02/26/2016,986 CONNALLY ST SE,304,Peoplestown,V,33.72758,-84.38129,
AGG ASSAULT,160570988,02/26/2016,179 MAPLE ST NW,102,Vine City,L,33.7595,-84.40504,
AGG ASSAULT,160572803,02/26/2016,2500 CENTER ST NW,113,Carey Park,G,33.78999,-84.47156,
AGG ASSAULT,160563794,02/26/2016,391 17TH ST NW,501,Atlantic Station,E,33.79109,-84.40088,
AGG ASSAULT,160570080,02/26/2016,572 SIMMONS ST NW,106,Bankhead,K,33.77025,-84.42064,
BURGLARY-RESIDENCE,160572156,02/26/2016,415 FAIRBURN RD SW,407,Fairburn Mays,H,33.74349,-84.50968,
BURGLARY-RESIDENCE,160573127,02/26/2016,708 LAKESIDE VILLAGE DR SE,611,The Villages at East Lake,O,33.74642,-84.31669,
BURGLARY-RESIDENCE,160571511,02/26/2016,2010 KIMBERLY RD SW,412,Ben Hill Terrace,P,33.69933,-84.52308,
BURGLARY-RESIDENCE,160571205,02/26/2016,653 BOULEVARD NE,603,Old Fourth Ward,M,33.77244,-84.37129,
ROBBERY-PEDESTRIAN,160573304,02/26/2016,2457 MARTIN L KING JR DR NW,111,Harland Terrace,I,33.7523,-84.46786,
ROBBERY-PEDESTRIAN,160572823,02/26/2016,970 PARSONS ST SW,104,Ashview Heights,T,33.7511,-84.41915,
ROBBERY-PEDESTRIAN,160563312,02/25/2016,1071 CHATTAHOOCHEE AVE  NW,204,Underwood Hills,D,33.80239,-84.42138,
ROBBERY-PEDESTRIAN,160562494,02/25/2016,887 MARTIN L KING JR DR NW,102,Vine City,L,33.7548,-84.41624,
ROBBERY-PEDESTRIAN,160560767,02/25/2016,50 MOUNT ZION RD SW @BRANDYWINE TOWNHOUS,312,Glenrose Heights,Z,33.66982,-84.38995,
ROBBERY-RESIDENCE,160560063,02/25/2016,600 MARTIN ST SE,303,Summerhill,V,33.73831,-84.38396,
AGG ASSAULT,160563781,02/25/2016,1117 LEE ST SW,402,Oakland City,S,33.72459,-84.42107,
AGG ASSAULT,160561820,02/25/2016,387 CLEVELAND AVE SW,309,Perkerson,X,33.6816,-84.40215,
AGG ASSAULT,160562662,02/25/2016,3398 RENAULT RD SE,313,Blair Villa/Poole Creek,Z,33.66223,-84.37903,
BURGLARY-RESIDENCE,160563065,02/25/2016,2909 CAMPBELLTON RD SW,409,Southwest,R,33.69869,-84.48265,
BURGLARY-RESIDENCE,160561560,02/25/2016,1721 CLIFTON WAY SE,612,East Atlanta,W,33.73713,-84.33146,
BURGLARY-RESIDENCE,160561853,02/25/2016,969 BURNT HICKORY DR SW,406,Green Acres Valley,I,33.72962,-84.49726,
BURGLARY-RESIDENCE,160562431,02/25/2016,320 FAIRBURN RD SW,407,Fairburn Mays,H,33.7451,-84.50858,
BURGLARY-NONRES,160560463,02/25/2016,1555 PEACHTREE ST NE,502,Midtown,E,33.79742,-84.38818,
BURGLARY-NONRES,160561444,02/25/2016,1100 PEACHTREE ST NE ,503,Midtown,E,33.78492,-84.38362,
BURGLARY-NONRES,160563019,02/25/2016,711 COSMOPOLITAN DR ,211,Lindbergh/Morosgo,B,33.82144,-84.36218,
BURGLARY-NONRES,160563568,02/25/2016,4418 ROSWELL RD NE,209,East Chastain Park,B,33.87556,-84.38112,
LARCENY-NON VEHICLE,160561243,02/25/2016,2237 CASCADE RD SW,409,Cascade Avenue/Road,S,33.72251,-84.4615,
LARCENY-NON VEHICLE,160562409,02/25/2016,3535 PEACHTREE RD NE @Multiple,210,Lenox,B,33.85182,-84.3595,
LARCENY-NON VEHICLE,160562920,02/25/2016,1371 MARKET ST,501,Atlantic Station,E,33.7921,-84.39466,
LARCENY-NON VEHICLE,160563110,02/25/2016,2900 PEACHTREE RD ,206,Peachtree Heights West,B,33.83399,-84.3841,
LARCENY-NON VEHICLE,160563178,02/25/2016,3534 MARTIN L KING JR DR SW,407,Adamsville,H,33.75771,-84.50344,
LARCENY-NON VEHICLE,160563155,02/25/2016,460 THOMASVILLE BLVD SE,308,Thomasville Heights,Z,33.70571,-84.35923,
LARCENY-NON VEHICLE,160563145,02/25/2016,12 BROAD ST SW,511,Downtown,M,33.7532,-84.39201,
LARCENY-FROM VEHICLE,160561140,02/25/2016,1450 DONNELLY AVE,402,Oakland City,S,33.72729,-84.4175,
LARCENY-FROM VEHICLE,160561511,02/25/2016,3272 WOOD VALLEY RD NW,202,West Paces Ferry/Northside,A,33.84471,-84.41602,
LARCENY-FROM VEHICLE,160562069,02/25/2016,4055 ROSWELL RD NE,209,North Buckhead,B,33.86584,-84.37985,
LARCENY-FROM VEHICLE,160562415,02/25/2016,275 E LAKE BLVD SE,611,The Villages at East Lake,O,33.74533,-84.31429,
LARCENY-FROM VEHICLE,160563086,02/25/2016,400 W PEACHTREE ST NW,504,Downtown,M,33.76614,-84.3876,
LARCENY-FROM VEHICLE,160563532,02/25/2016,3861 ROSWELL RD NE,209,North Buckhead,B,33.8596,-84.37979,
LARCENY-FROM VEHICLE,160562787,02/25/2016,2340 HOSEA L WILLIAMS DR NE,611,East Lake,O,33.75135,-84.31057,
LARCENY-FROM VEHICLE,160563236,02/25/2016,667 FAIRBURN RD NW,114,Fairburn Heights,H,33.77332,-84.50005,
LARCENY-FROM VEHICLE,160563790,02/25/2016,120 JACKSON ST NE ,604,Sweet Auburn,M,33.75769,-84.37433,
LARCENY-FROM VEHICLE,160561798,02/25/2016,3035 PEACHTREE RD NE,206,Buckhead Village,B,33.83798,-84.38089,
LARCENY-FROM VEHICLE,160562557,02/25/2016,447 MORELAND AVE NE,608,Candler Park,N,33.76653,-84.34889,
LARCENY-FROM VEHICLE,160562384,02/25/2016,880 GLENWOOD AVE SE,606,Grant Park,W,33.74058,-84.35903,
LARCENY-FROM VEHICLE,160562284,02/25/2016,101 BOULEVARD NE,604,Old Fourth Ward,M,33.75709,-84.37184,
LARCENY-FROM VEHICLE,160562580,02/25/2016,438 MORELAND AVE NE,602,Inman Park,N,33.76634,-84.34916,
LARCENY-FROM VEHICLE,160561784,02/25/2016,346 GLENDALE AVE NE,608,Candler Park,N,33.76373,-84.33532,
LARCENY-FROM VEHICLE,160562717,02/25/2016,200 N HIGHLAND AVE NE,602,Inman Park,N,33.7617,-84.36084,
LARCENY-FROM VEHICLE,160561845,02/25/2016,1130 PEACHTREE ST,503,Midtown,E,33.78526,-84.3831,
LARCENY-FROM VEHICLE,160563237,02/25/2016,586 EZZARD ST SE,604,Old Fourth Ward,M,33.75362,-84.36812,
LARCENY-FROM VEHICLE,160563359,02/25/2016,44 10TH ST NW ,503,Midtown,E,33.78155,-84.38604,
LARCENY-FROM VEHICLE,160563409,02/25/2016,3424 PIEDMONT RD NE,208,Buckhead Forest,B,33.84815,-84.37419,
LARCENY-FROM VEHICLE,160563440,02/25/2016,3232 PEACHTREE RD NE,208,Buckhead Forest,B,33.84413,-84.37409,
LARCENY-FROM VEHICLE,160563447,02/25/2016,908 VEDADO WAY NE,506,Midtown,E,33.77914,-84.37128,
LARCENY-FROM VEHICLE,160563473,02/25/2016,1955 CAMPBELLTON RD SW,408,Venetian Hills,S,33.70864,-84.45303,
LARCENY-FROM VEHICLE,160563488,02/25/2016,2740 GREENBRIAR PKWY SW @GREENBRIAR VILLAGE,411,Greenbriar,R,33.68887,-84.48877,
LARCENY-FROM VEHICLE,160560704,02/25/2016,765 MCDANIEL ST SW,302,Pittsburgh,V,33.73365,-84.40221,
LARCENY-FROM VEHICLE,160560546,02/25/2016,680 HUGH ST SW,301,Adair Park,V,33.73356,-84.41006,
LARCENY-FROM VEHICLE,160560235,02/25/2016,1715 HOWELL MILL RD NW @KROGER - HOWELL MILL,204,Berkeley Park,D,33.80181,-84.41267,
LARCENY-NON VEHICLE,160562758,02/25/2016,2746 VINEYARDS DR SE,312,Rosedale Heights,Z,33.67969,-84.36906,
LARCENY-NON VEHICLE,160561391,02/25/2016,706 CHARLES ALLEN DR NE,506,Midtown,E,33.77386,-84.37316,
LARCENY-NON VEHICLE,160562459,02/25/2016,1300 JOSEPH E BOONE BLVD NW,105,Hunter Hills,K,33.76204,-84.43066,
LARCENY-NON VEHICLE,160568017,02/25/2016,10700 SPINE RD,703,,,33.64365,-84.43237,
LARCENY-NON VEHICLE,160561349,02/25/2016,1230 PEACHTREE ST NE,502,Midtown,E,33.788,-84.38637,
LARCENY-FROM VEHICLE,160562809,02/25/2016,136 11TH ST NE,503,Midtown,E,33.78311,-84.38258,
LARCENY-NON VEHICLE,160562655,02/25/2016,1135 OAKLAND LN SW,403,Oakland City,S,33.71965,-84.42493,
LARCENY-NON VEHICLE,160560718,02/25/2016,1959 PIEDMONT RD NE,212,Morningside/Lenox Park,F,33.81108,-84.36631,
LARCENY-NON VEHICLE,160561606,02/25/2016,360 DECATUR ST SE,604,Sweet Auburn,M,33.75017,-84.37725,
LARCENY-NON VEHICLE,160562762,02/25/2016,180 HAWTHORN CIR NE,610,Kirkwood,O,33.75787,-84.31723,
AUTO THEFT,160562519,02/25/2016,140 KITTRELL DR,407,Baker Hills,H,33.75845,-84.52172,
AUTO THEFT,160562351,02/25/2016,893 PEACHTREE ST NE @BULLDOG,505,Midtown,E,33.77901,-84.38403,
AUTO THEFT,160560819,02/25/2016,405 UTOY CIR SW,407,Ridgecrest Forest,H,33.74307,-84.52772,
AUTO THEFT,160560022,02/25/2016,913 BERNINA AVE NE,602,Inman Park,N,33.76396,-84.35756,
AUTO THEFT,160563096,02/25/2016,2946 MACON DR SE,312,Glenrose Heights,Z,33.67422,-84.38849,
AUTO THEFT,160560427,02/25/2016,532 CLEVELAND AVE SW,311,Hammond Park,X,33.68116,-84.4059,
AUTO THEFT,160561161,02/25/2016,396 LINDEN AVE NE,603,Old Fourth Ward,M,33.76998,-84.37408,
AUTO THEFT,160561112,02/25/2016,308  SCOTT ST SW,406,,I,33.74967,-84.49578,
AUTO THEFT,160561396,02/25/2016,2905 3RD AVE SW,311,Hammond Park,X,33.67625,-84.40555,
AUTO THEFT,160561434,02/25/2016,2090 JONESBORO RD SE,308,Norwood Manor,Z,33.69773,-84.36999,
AUTO THEFT,160561660,02/25/2016,505 PRYOR ST SW,303,Mechanicsville,V,33.74099,-84.39483,
AUTO THEFT,160561738,02/25/2016,720 PENN AVE NE,505,Midtown,E,33.77402,-84.379,
AUTO THEFT,160563550,02/25/2016,947 LAWTON ST SW,402,Oakland City,S,33.72918,-84.42359,
AUTO THEFT,160563593,02/25/2016,761 SIDNEY MARCUS BLVD NE,211,Lindbergh/Morosgo,B,33.82564,-84.36308,
AUTO THEFT,160561076,02/25/2016,2959 FORREST HILLS DR SW,311,Hammond Park,X,33.67452,-84.3997,
AUTO THEFT,160560889,02/25/2016,310 THOMASVILLE BLVD SE,308,Thomasville Heights,Z,33.70559,-84.35628,
AUTO THEFT,160562219,02/25/2016,1143 WESTMONT RD SW,403,Cascade Avenue/Road,S,33.7238,-84.43789,
AUTO THEFT,160563062,02/25/2016,2348 CASCADE RD SW,409,Adams Park,R,33.72146,-84.46522,
AUTO THEFT,160563665,02/25/2016,1192 PRYOR ST SW,304,Peoplestown,V,33.72287,-84.3928,
AUTO THEFT,160563603,02/25/2016,2621 DONALD LEE HOLLOWELL PKWY NW,109,Center Hill,J,33.77617,-84.47272,
AUTO THEFT,160552334,02/24/2016,3200 LATONA DR SW @APS LONG MS,312,Glenrose Heights,Z,33.66668,-84.39526,
AUTO THEFT,160551395,02/24/2016,1220 MURPHY AVE SW,301,Capitol View,X,33.72155,-84.42157,
AUTO THEFT,160551026,02/24/2016,198 WHITAKER CIR NW,108,Dixie Hills,J,33.76125,-84.44551,
AUTO THEFT,160552097,02/24/2016,850 OAK ST SW ,401,West End,T,33.74053,-84.41671,
AUTO THEFT,160551577,02/24/2016,532 CLEVELAND AVE SW,311,Hammond Park,X,33.68116,-84.4059,
AUTO THEFT,160551638,02/24/2016,2860 OVERLOOK TRCE NE,210,Pine Hills,B,33.83327,-84.35835,
AUTO THEFT,160551721,02/24/2016,87 GASLIGHT LN NW,108,Dixie Hills,J,33.75635,-84.46594,
AUTO THEFT,160551227,02/24/2016,405 LAWTON ST SW,104,West End,T,33.74398,-84.42355,
AUTO THEFT,160552673,02/24/2016,2900 LANDRUM DR SW,409,Southwest,R,33.70623,-84.48372,
AUTO THEFT,160553017,02/24/2016,313 SKIPPER PL NW,112,Collier Heights,I,33.78134,-84.49154,
AUTO THEFT,160553178,02/24/2016,300 N HIGHLAND AVE NE,602,Inman Park,N,33.76284,-84.35859,
AUTO THEFT,160553225,02/24/2016,3600 CAMPBELLTON RD SW,412,Meadowbrook Forest,P,33.69019,-84.50624,
AUTO THEFT,160553280,02/24/2016,740 RALPH MCGILL BLVD NE,603,Old Fourth Ward,M,33.76681,-84.36338,
AUTO THEFT,160558056,02/24/2016,6000 SOUTH TERMINAL PKWY,704,,,33.6395,-84.44319,
LARCENY-NON VEHICLE,160550794,02/24/2016,2608 OLD HAPEVILLE RD SW,310,Browns Mill Park,Z,33.6834,-84.39374,
LARCENY-NON VEHICLE,160551425,02/24/2016,2520 VERBENA CIR NW,108,Dixie Hills,J,33.75604,-84.46588,
LARCENY-NON VEHICLE,160551390,02/24/2016,3012 JONESBORO RD SE,313,South River Gardens,Z,33.67225,-84.37156,
LARCENY-NON VEHICLE,160551241,02/24/2016,1025 MOORES MILL RD NW,201,Westminster/Milmar,C,33.83729,-84.42137,
LARCENY-NON VEHICLE,160552006,02/24/2016,3437 HOGAN RD SW,414,Ben Hill Forest,P,33.67633,-84.50167,
LARCENY-NON VEHICLE,160552531,02/24/2016,1414 LANSING ST SE,305,South Atlanta,Y,33.71605,-84.38464,
LARCENY-NON VEHICLE,160551129,02/24/2016,3537 FAIRBURN PL NW,114,Fairburn Heights,H,33.77217,-84.50329,
LARCENY-NON VEHICLE,160550309,02/24/2016,477 PEACHTREE ST NE,509,Downtown,M,33.76764,-84.38524,
LARCENY-FROM VEHICLE,160552511,02/24/2016,388 BILL KENNEDY WAY SE,606,Ormewood Park,W,33.74252,-84.35808,
LARCENY-NON VEHICLE,160552925,02/24/2016,160 TED TURNER DR NW,508,Downtown,M,33.75934,-84.39009,
LARCENY-FROM VEHICLE,160551244,02/24/2016,817 W PEACHTREE ST NE @BILTMORE HOTEL,505,Midtown,E,33.77696,-84.38697,
LARCENY-FROM VEHICLE,160551396,02/24/2016,2880 MANGO CIR NW,113,Monroe Heights,G,33.79399,-84.4823,
LARCENY-FROM VEHICLE,160550798,02/24/2016,2775 EMERALD CT SW,405,Harland Terrace,I,33.75193,-84.47954,
LARCENY-FROM VEHICLE,160553232,02/24/2016,438 MORELAND AVE NE,602,Inman Park,N,33.76634,-84.34916,
LARCENY-FROM VEHICLE,160553294,02/24/2016,913 BERNINA AVE NE,602,Inman Park,N,33.76396,-84.35756,
LARCENY-FROM VEHICLE,160550678,02/24/2016,639 LILLA DR SW,405,Florida Heights,I,33.74657,-84.46508,
LARCENY-FROM VEHICLE,160550611,02/24/2016,310 THOMASVILLE BLVD SE,308,Thomasville Heights,Z,33.70559,-84.35628,
LARCENY-FROM VEHICLE,160550808,02/24/2016,86 GASLIGHT LN NW,108,Dixie Hills,J,33.75646,-84.46636,
LARCENY-FROM VEHICLE,160551046,02/24/2016,197 PEYTON PL SW,405,Harland Terrace,I,33.75127,-84.4771,
LARCENY-FROM VEHICLE,160552674,02/24/2016,1154 LUCILE AVE SW,401,West End,T,33.74221,-84.42568,
LARCENY-FROM VEHICLE,160552401,02/24/2016,477 WINDSOR ST SW @Multiple,303,Mechanicsville,V,33.74172,-84.39836,
LARCENY-FROM VEHICLE,160551886,02/24/2016,200 MEMORIAL DR SW,512,Downtown,M,33.7474,-84.39298,
LARCENY-FROM VEHICLE,160551064,02/24/2016,337 N HIGHLAND AVE NE,602,Inman Park,N,33.7632,-84.357,
LARCENY-FROM VEHICLE,160551093,02/24/2016,1116 ROSEDALE DR NE,601,Virginia Highland,F,33.77996,-84.35073,
LARCENY-FROM VEHICLE,160552926,02/24/2016,886 MARTIN L KING JR DR SW,101,Atlanta University Center,T,33.75456,-84.41663,
LARCENY-FROM VEHICLE,160552942,02/24/2016,694 ARGONNE AVE NE,505,Midtown,E,33.7737,-84.37779,
LARCENY-FROM VEHICLE,160550687,02/24/2016,1806 PLYMOUTH RD NW,203,Hills Park,D,33.80489,-84.43814,
LARCENY-FROM VEHICLE,160553127,02/24/2016,3788 CAMPBELLTON RD SW,413,,P,33.69037,-84.51287,
LARCENY-FROM VEHICLE,160553104,02/24/2016,1400 W MARIETTA ST NW,106,Rockdale,G,33.78729,-84.43575,
LARCENY-FROM VEHICLE,160551361,02/24/2016,1800 MEMORIAL DR,,Kirkwood,O,33.74821,-84.32969,
LARCENY-FROM VEHICLE,160553064,02/24/2016,87 PEACHTREE ST SW,511,Downtown,M,33.75243,-84.39198,
LARCENY-FROM VEHICLE,160553208,02/24/2016,41 WALTON ST NW,508,Downtown,M,33.75577,-84.38998,
LARCENY-FROM VEHICLE,160553195,02/24/2016,390 17TH ST NW,501,Atlantic Station,E,33.7903,-84.39976,
LARCENY-FROM VEHICLE,160553182,02/24/2016,21 DANIEL ST SE,604,Old Fourth Ward,M,33.75366,-84.37126,
LARCENY-NON VEHICLE,160552588,02/24/2016,595 PIEDMONT AVE NE,603,Old Fourth Ward,M,33.77067,-84.38023,
LARCENY-NON VEHICLE,160552040,02/24/2016,2350 CHESHIRE BRIDGE RD NE,212,Lindridge/Martin Manor,F,33.8195,-84.35199,
LARCENY-NON VEHICLE,160552457,02/24/2016,2474 MARTIN L KING JR DR SW,405,Harland Terrace,I,33.7521,-84.46855,
LARCENY-NON VEHICLE,160552562,02/24/2016,1801 HOWELL MILL RD NW,204,Berkeley Park,D,33.80388,-84.41278,
BURGLARY-NONRES,160551652,02/24/2016,375 W ONTARIO AVE SW,404,Westview,T,33.7451,-84.43996,
LARCENY-NON VEHICLE,160551288,02/24/2016,374 CLEVELAND AVE SE,310,Browns Mill Park,Z,33.68079,-84.37384,
LARCENY-NON VEHICLE,160552676,02/24/2016,3495 BUCKHEAD LOOP NE,208,North Buckhead,B,33.85209,-84.3645,
LARCENY-NON VEHICLE,160552906,02/24/2016,1450 DONNELLY AVE SW,402,West End,T,33.73772,-84.43479,
LARCENY-NON VEHICLE,160552992,02/24/2016,375 18TH ST,501,Atlantic Station,E,33.79303,-84.39921,
BURGLARY-NONRES,160550038,02/24/2016,1020 LENOX PARK BLVD NE,210,Pine Hills,B,33.84956,-84.35045,
BURGLARY-RESIDENCE,160552508,02/24/2016,3478 THOMPSON DR NW,111,Adamsville,H,33.7615,-84.50152,
BURGLARY-RESIDENCE,160552604,02/24/2016,2346 LAKEWOOD AVE SW,310,Polar Rock,Z,33.69692,-84.39562,
BURGLARY-RESIDENCE,160551789,02/24/2016,106 HILLSIDE AVE SE,307,Lakewood Heights,Y,33.7042,-84.38492,
BURGLARY-RESIDENCE,160552999,02/24/2016,532 CLEVELAND AVE SW,311,Hammond Park,X,33.68116,-84.4059,
BURGLARY-RESIDENCE,160551836,02/24/2016,374 BASS ST SW,303,Mechanicsville,V,33.73551,-84.40025,
AGG ASSAULT,160553171,02/24/2016,57 WALTON ST NW,508,Downtown,M,33.75619,-84.39043,
AGG ASSAULT,160552579,02/24/2016,1365 EPWORTH ST SW,403,Venetian Hills,S,33.71765,-84.43098,
AGG ASSAULT,160552708,02/24/2016,239 SCIPLE TER NW,102,Vine City,L,33.76144,-84.41502,
ROBBERY-RESIDENCE,160552050,02/24/2016,2788 FORREST HILLS DR SW @DAYS INN SOUTH,311,Hammond Park,X,33.67892,-84.39898,
ROBBERY-PEDESTRIAN,160552559,02/24/2016,1454 OGLETHORPE AVE SW,402,West End,T,33.73663,-84.43531,
ROBBERY-COMMERCIAL,160541351,02/23/2016,2920 MARTIN LUTHER KING JR DRIVE ,405,Harland Terrace,I,33.75441,-84.48181,
ROBBERY-PEDESTRIAN,160542345,02/23/2016,1166 VIRGINIA AVE NE,601,Virginia Highland,F,33.78076,-84.34902,
ROBBERY-PEDESTRIAN,160542389,02/23/2016,477 PEACHTREE ST,509,Downtown,M,33.76764,-84.38524,
ROBBERY-PEDESTRIAN,160541927,02/23/2016,1715 HOWELL  MILL RD NW,204,Underwood Hills,D,33.80464,-84.41722,
AGG ASSAULT,160543150,02/23/2016,1740 LISBON DR SW,306,Sylvan Hills,X,33.70729,-84.41185,
AGG ASSAULT,160541289,02/23/2016,BUFORD HIGHWAY CONN NE / PEACHTREE ST NE,502,Midtown,E,33.79802,-84.39049,
AGG ASSAULT,160540712,02/23/2016,2931 MIDDLETON RD NW,111,,I,33.75294,-84.48775,
BURGLARY-RESIDENCE,160543163,02/23/2016,1599 SANDTOWN RD SW,408,Venetian Hills,S,33.71515,-84.44084,
BURGLARY-RESIDENCE,160543199,02/23/2016,600 GREENSFERRY AVE SW,101,The Villages at Castleberry Hill,T,33.74662,-84.40755,
BURGLARY-RESIDENCE,160540433,02/23/2016,919 CREW ST SW,304,Peoplestown,V,33.72972,-84.38984,
BURGLARY-RESIDENCE,160541537,02/23/2016,128 ATLANTA AVE SE,304,Peoplestown,V,33.73061,-84.38372,
BURGLARY-RESIDENCE,160541767,02/23/2016,370 NORTHSIDE DR NW,103,English Avenue,L,33.76507,-84.4042,
BURGLARY-RESIDENCE,160541984,02/23/2016,365 FAIRBURN RD NW,111,Adamsville,H,33.76542,-84.49986,
BURGLARY-RESIDENCE,160542820,02/23/2016,771 LINDBERGH DR NE,211,Lindbergh/Morosgo,B,33.82055,-84.36241,
BURGLARY-RESIDENCE,160541285,02/23/2016,897 HALL ST SW,402,Oakland City,S,33.73059,-84.42591,
BURGLARY-RESIDENCE,160542861,02/23/2016,415 ARMOUR DR NE,212,,F,33.81267,-84.37412,
BURGLARY-RESIDENCE,160541249,02/23/2016,123 BROMACK DR SE,310,Browns Mill Park,Z,33.68876,-84.38648,
BURGLARY-NONRES,160541323,02/23/2016,1401 HOSEA L WILLIAMS DR SE @TURNER MONUMENTAL A,609,Edgewood,O,33.75307,-84.34184,
BURGLARY-RESIDENCE,160543085,02/23/2016,2838 CONNALLY DR SW,411,Greenbriar,R,33.69488,-84.48101,
LARCENY-NON VEHICLE,160541941,02/23/2016,1225 CAROLINE ST NE @TARGET - CAROLINE,609,Edgewood,O,33.75605,-84.34813,
LARCENY-NON VEHICLE,160541947,02/23/2016,3535 PEACHTREE RD NE @TARGET - PEACHTREE,210,Lenox,B,33.85182,-84.3595,
LARCENY-NON VEHICLE,160542848,02/23/2016,1980 DELOWE DR SW,410,Campbellton Road,R,33.70106,-84.45698,
LARCENY-NON VEHICLE,160543065,02/23/2016,3393 PEACHTREE RD NE @Multiple,210,Lenox,B,33.84676,-84.36212,
LARCENY-NON VEHICLE,160541910,02/23/2016,2900 PEACHTREE RD NE,206,Peachtree Heights West,B,33.83399,-84.3841,
LARCENY-NON VEHICLE,160541074,02/23/2016,835 MARTIN L KING JR DR NW,102,Vine City,L,33.75504,-84.41457,
LARCENY-NON VEHICLE,160541800,02/23/2016,3393 PEACHTREE RD NE,210,Lenox,B,33.84676,-84.36212,
LARCENY-NON VEHICLE,160541772,02/23/2016,2525 PIEDMONT RD,211,Lindbergh/Morosgo,B,33.824,-84.36521,
LARCENY-FROM VEHICLE,160540909,02/23/2016,1483 ARTHUR LANGFORD JR PL SW,307,Joyland,Y,33.71097,-84.39789,
LARCENY-FROM VEHICLE,160540944,02/23/2016,1033 HOLLYWOOD RD NW,110,Almond Park,G,33.78308,-84.45882,
LARCENY-FROM VEHICLE,160542043,02/23/2016,1604 LAKEWOOD AVE SE,307,Lakewood Heights,Y,33.71036,-84.37973,
LARCENY-FROM VEHICLE,160542244,02/23/2016,935 MARIETTA ST NW,504,Marietta Street Artery,E,33.77795,-84.40849,
LARCENY-FROM VEHICLE,160542975,02/23/2016,781 MARIETTA ST NW,504,Marietta Street Artery,E,33.77357,-84.40423,
LARCENY-FROM VEHICLE,160542922,02/23/2016,1250 WEST PACES FERRY RD,201,West Paces Ferry/Northside,A,33.84907,-84.43003,
LARCENY-FROM VEHICLE,160542867,02/23/2016,2160 HILLS AVE NW,204,Underwood Hills,D,33.81423,-84.43088,
LARCENY-FROM VEHICLE,160542842,02/23/2016,549 AMSTERDAM AVE NE,601,Virginia Highland,F,33.78788,-84.36904,
LARCENY-FROM VEHICLE,160542423,02/23/2016,2357 BENJAMIN E MAYS DR SW,406,Audobon Forest,I,33.72297,-84.46569,
LARCENY-FROM VEHICLE,160542382,02/23/2016,560 AMSTERDAM AVE NE,213,Morningside/Lenox Park,F,33.78858,-84.36875,
LARCENY-FROM VEHICLE,160543244,02/23/2016,1700 NORTHSIDE DR NW,207,Berkeley Park,D,33.80077,-84.40869,
LARCENY-FROM VEHICLE,160543218,02/23/2016,2453 HARVEL DR NW,108,Harvel Homes Community,J,33.75997,-84.46743,
LARCENY-FROM VEHICLE,160540996,02/23/2016,1568 PINEVIEW TER SW,403,Cascade Avenue/Road,S,33.72903,-84.43926,
LARCENY-FROM VEHICLE,160540788,02/23/2016,1162 EGGLESTON ST SW,401,West End,T,33.73962,-84.42584,
LARCENY-FROM VEHICLE,160542305,02/23/2016,300 N HIGHLAND AVE NE,602,Inman Park,N,33.76284,-84.35859,
LARCENY-FROM VEHICLE,160541541,02/23/2016,2262 RIDGEDALE RD NE,610,Kirkwood,O,33.75335,-84.3133,
LARCENY-FROM VEHICLE,160541382,02/23/2016,147 BIXBY TER SE,610,Kirkwood,O,33.74862,-84.32203,
LARCENY-FROM VEHICLE,160541181,02/23/2016,1186 N HIGHLAND AVE NE,601,Virginia Highland,F,33.787,-84.35543,
LARCENY-FROM VEHICLE,160541898,02/23/2016,388 GRANT ST SE,605,Grant Park,W,33.74401,-84.37609,
LARCENY-FROM VEHICLE,160541738,02/23/2016,248 OAKRIDGE AVE SE,611,East Lake,O,33.74593,-84.2936,
LARCENY-FROM VEHICLE,160541736,02/23/2016,685 MERCER ST SE,605,Adair Park,V,33.72865,-84.41013,
LARCENY-FROM VEHICLE,160541719,02/23/2016,674 N HIGHLAND AVE NE,602,Poncey-Highland,N,33.7729,-84.35263,
LARCENY-NON VEHICLE,160541635,02/23/2016,150 10TH ST NE,503,Midtown,E,33.7821,-84.3822,
LARCENY-NON VEHICLE,160541400,02/23/2016,225 JAMES P BRAWLEY DR NW @APS BROWN MS,102,Vine City,L,33.76058,-84.41223,
LARCENY-NON VEHICLE,160541156,02/23/2016,1375 PEACHTREE ST NE,508,Midtown,E,33.79267,-84.38558,
LARCENY-NON VEHICLE,160541100,02/23/2016,1620 DELOWE DR SW,409,Adams Park,R,33.71157,-84.46225,
LARCENY-NON VEHICLE,160548044,02/23/2016,10700 SPINE RD,703,,,33.64063,-84.43256,
AUTO THEFT,160543182,02/23/2016,45 STAFFORD ST NW,105,Hunter Hills,K,33.75612,-84.42563,
AUTO THEFT,160543153,02/23/2016,39 ABERDEEN ST NE,609,Edgewood,O,33.75468,-84.3444,
AUTO THEFT,160543019,02/23/2016,445 MARKHAM ST SW,507,Castleberry Hill,M,33.75274,-84.40069,
AUTO THEFT,160541611,02/23/2016,1301 JOSEPH E BOONE BLVD NW,106,Bankhead,K,33.76362,-84.43041,
AUTO THEFT,160540604,02/23/2016,3769 CROSBY DR NW,114,Carroll Heights,H,33.77299,-84.51088,
AUTO THEFT,160540673,02/23/2016,50 MOUNT ZION RD SW @BRANDYWINE TOWNHOUS,312,Glenrose Heights,Z,33.66982,-84.38995,
AUTO THEFT,160540862,02/23/2016,2125 JOSEPH EBOONE BLVD NW,108,Center Hill,J,33.76479,-84.4579,
AUTO THEFT,160541083,02/23/2016,499 NORTHSIDE CIR,207,Loring Heights,E,33.79742,-84.40671,
AUTO THEFT,160541201,02/23/2016,1093 WEST AVE SW,302,Pittsburgh,V,33.72494,-84.39593,
AUTO THEFT,160541345,02/23/2016,2766 JONESBORO RD SE,313,South River Gardens,Z,33.67881,-84.36838,
AUTO THEFT,160532878,02/22/2016,2444 FORREST PARK RD SE,308,Rebel Valley Forest,Z,33.68706,-84.35977,
AUTO THEFT,160531137,02/22/2016,2112 JONES RD NW,112,Collier Heights,I,33.77382,-84.49338,
AUTO THEFT,160532701,02/22/2016,1677 DONALD LEE HOLLOWELL PKWY NW,110,Grove Park,J,33.77327,-84.44224,
AUTO THEFT,160531473,02/22/2016,1388 POLLARD DR SW,409,Adams Park,R,33.71806,-84.45607,
AUTO THEFT,160531541,02/22/2016,ARTHUR LANGFORD EB PKWY SW / PERKERSON RD SW,309,Perkerson,X,33.69663,-84.41244,
AUTO THEFT,160532395,02/22/2016,850 OAK ST SW ,401,West End,T,33.74053,-84.41671,
AUTO THEFT,160531972,02/22/2016,280 ARIZONA AVE NE,608,Lake Claire,N,33.76189,-84.33064,
LARCENY-NON VEHICLE,160538038,02/22/2016,6000 N TERMINAL PKWY,705,,,33.64184,-84.4477,
LARCENY-NON VEHICLE,160530762,02/22/2016,690 LINDBERGH DR NE,211,Lindbergh/Morosgo,B,33.8209,-84.36534,
LARCENY-NON VEHICLE,160531349,02/22/2016,232 RALPH D ABERNATHY BLVD SW,303,Mechanicsville,V,33.73664,-84.39553,
LARCENY-NON VEHICLE,160531423,02/22/2016,3411 HABERSHAM RD NW,206,South Tuxedo Park,B,33.84762,-84.39148,
LARCENY-NON VEHICLE,160532003,02/22/2016,159 WHITEFOORD AVE SE,609,Edgewood,O,33.74898,-84.34235,
LARCENY-NON VEHICLE,160532632,02/22/2016,3575 MARTIN L KING JR DR NW,111,Adamsville,H,33.75973,-84.50483,
LARCENY-NON VEHICLE,160531019,02/22/2016,1950 HOWELL MILL RD NW,205,Wildwood (NPU-C),C,33.80805,-84.41282,
LARCENY-NON VEHICLE,160532179,02/22/2016,699 PONCE DE LEON AVE NE @FORD FACTORY SQUARE,602,Poncey-Highland,N,33.77296,-84.36414,
LARCENY-NON VEHICLE,160522442,02/22/2016,904 MARTIN LUTHER KING BLVD SW,101,Atlanta University Center,T,33.75454,-84.41704,
LARCENY-FROM VEHICLE,160531726,02/22/2016,255 TED TURNER DR SW,507,Castleberry Hill,M,33.74755,-84.39824,
LARCENY-FROM VEHICLE,160531810,02/22/2016,1422 W PEACHTREE ST NW,502,Midtown,E,33.79345,-84.3882,
LARCENY-FROM VEHICLE,160530614,02/22/2016,3075 DONALD LEE HOLLOWELL PKWY NW,113,Brookview Heights,G,33.7847,-84.48777,
LARCENY-FROM VEHICLE,160530604,02/22/2016,745 HANSELL ST SE,605,Grant Park,W,33.73881,-84.36334,
LARCENY-FROM VEHICLE,160530004,02/22/2016,469 N HIGHLAND AVE NE,602,Inman Park,N,33.76681,-84.35289,
LARCENY-FROM VEHICLE,160511219,02/22/2016,626 DEKALB AVE SE,605,Old Fourth Ward,M,33.75283,-84.36687,
LARCENY-FROM VEHICLE,160533016,02/22/2016,191 RALPH D ABERNATHY BLVD SW,303,Mechanicsville,V,33.73701,-84.39419,
LARCENY-FROM VEHICLE,160532816,02/22/2016,545 WIMBLEDON RD NE,212,Piedmont Heights,F,33.80638,-84.36939,
LARCENY-FROM VEHICLE,160532786,02/22/2016,421 MEMORIAL DR SE,605,Grant Park,W,33.74655,-84.37366,
LARCENY-FROM VEHICLE,160530617,02/22/2016,627 IRWIN ST NE,604,Old Fourth Ward,M,33.75757,-84.36563,
LARCENY-FROM VEHICLE,160530566,02/22/2016,470 THOMASVILLE BLVD SE,308,Thomasville Heights,Z,33.70599,-84.35963,
LARCENY-FROM VEHICLE,160530475,02/22/2016,3232 PEACHTREE RD NE,208,Buckhead Forest,B,33.84413,-84.37409,
LARCENY-FROM VEHICLE,160530387,02/22/2016,599 WHITEHALL ST SW,303,Pittsburgh,V,33.74277,-84.40756,
LARCENY-FROM VEHICLE,160530334,02/22/2016,375 LUCKIE ST NW,504,Downtown,M,33.76494,-84.39578,
LARCENY-FROM VEHICLE,160530188,02/22/2016,314 LUCKIE ST NW,508,Downtown,M,33.76296,-84.39669,
LARCENY-FROM VEHICLE,160530182,02/22/2016,1635 TALLULAH ST NW,207,Berkeley Park,D,33.7996,-84.41119,
LARCENY-FROM VEHICLE,160531571,02/22/2016,75 MARTIN L KING JR DR SW,511,Downtown,M,33.75119,-84.38996,
LARCENY-FROM VEHICLE,160530723,02/22/2016,936 MAYSON TURNER RD NW,105,Washington Park,K,33.75829,-84.41795,
LARCENY-FROM VEHICLE,160530626,02/22/2016,774 CLEMONT DR NE,601,Virginia Highland,F,33.78316,-84.3622,
LARCENY-FROM VEHICLE,160530622,02/22/2016,161 TED TURNER DR,508,Downtown,M,33.75879,-84.38975,
LARCENY-FROM VEHICLE,160531400,02/22/2016,765 STOVALL BLVD NE,209,North Buckhead,B,33.86129,-84.36248,
LARCENY-FROM VEHICLE,160531122,02/22/2016,4749 EDWINA LN SW,412,Greenbriar Village,P,33.704,-84.54201,
LARCENY-FROM VEHICLE,160531097,02/22/2016,180 PRYOR ST SW,512,Downtown,M,33.74975,-84.39214,
LARCENY-FROM VEHICLE,160531087,02/22/2016,3594 KINGSBORO RD NE,210,Ridgedale Park,B,33.85277,-84.35125,
LARCENY-FROM VEHICLE,160531016,02/22/2016,701 HIGHLAND AVE NE,604,Old Fourth Ward,M,33.76124,-84.36391,
LARCENY-FROM VEHICLE,160530986,02/22/2016,1184 OAK STREET,401,Midtown,E,33.773,-84.38723,
LARCENY-FROM VEHICLE,160530922,02/22/2016,366 NELMS AVE NE,608,Lake Claire,N,33.76424,-84.33236,
LARCENY-FROM VEHICLE,160530764,02/22/2016,1270 W PEACHTREE ST NW,502,Midtown,E,33.78937,-84.3882,
LARCENY-FROM VEHICLE,160531604,02/22/2016,826 MARIETTA ST NW,504,Marietta Street Artery,E,33.77477,-84.4067,
LARCENY-FROM VEHICLE,160531579,02/22/2016,1019 COLLIER RD NW,204,,C,33.81147,-84.42035,
LARCENY-FROM VEHICLE,160532113,02/22/2016,3393 PEACHTREE RD NE,210,Lenox,B,33.84676,-84.36212,
LARCENY-FROM VEHICLE,160532568,02/22/2016,1186 N HIGHLAND AVE NE,601,Virginia Highland,F,33.787,-84.35543,
LARCENY-FROM VEHICLE,160532160,02/22/2016,127 ANDREW YOUNG INTERNA BLVD NW,508,Downtown,M,33.76028,-84.3915,
LARCENY-FROM VEHICLE,160532135,02/22/2016,540 NORTHSIDE DR NW,103,English Avenue,L,33.76927,-84.40507,
LARCENY-FROM VEHICLE,160532510,02/22/2016,1394 N HIGHLAND AVE NE,213,Morningside/Lenox Park,F,33.79262,-84.35285,
LARCENY-FROM VEHICLE,160532499,02/22/2016,396 PIEDMONT AVE NE,509,Downtown,M,33.76491,-84.3826,
LARCENY-FROM VEHICLE,160532369,02/22/2016,3535 PIEDMONT RD NE,208,North Buckhead,B,33.85231,-84.37869,
LARCENY-FROM VEHICLE,160532250,02/22/2016,1085 HOWELL MILL RD NW,503,Home Park,E,33.78455,-84.41142,
LARCENY-FROM VEHICLE,160532216,02/22/2016,2226 BELVEDERE AVE SW,409,Adams Park,R,33.72091,-84.46146,
LARCENY-FROM VEHICLE,160531676,02/22/2016,848 OGLETHORPE AVE SW,401,West End,T,33.73545,-84.41562,
LARCENY-FROM VEHICLE,160531654,02/22/2016,2647 BAKER RIDGE DR NW,112,Collier Heights,I,33.76924,-84.47529,
LARCENY-FROM VEHICLE,160532668,02/22/2016,680 PONCE DE LEON AVE NE,506,Midtown,E,33.77406,-84.36528,
LARCENY-FROM VEHICLE,160531949,02/22/2016,438 MORELAND AVE NE,602,Inman Park,N,33.76634,-84.34916,
LARCENY-FROM VEHICLE,160531851,02/22/2016,1136 CRESCENT AVE NE,503,Midtown,E,33.78575,-84.38451,
LARCENY-FROM VEHICLE,160531822,02/22/2016,154 KROG ST NE ,602,Inman Park,N,33.75885,-84.364,
LARCENY-NON VEHICLE,160531177,02/22/2016,2525 PIEDMONT RD NE @HOME DEPOT,211,Lindbergh/Morosgo,B,33.824,-84.36521,
LARCENY-NON VEHICLE,160530397,02/22/2016,1176 CHATTAHOOCHEE AVE NW,203,Blandtown,D,33.80058,-84.42561,
LARCENY-NON VEHICLE,160530408,02/22/2016,1184 SPRING ST NW,502,Midtown,E,33.78697,-84.38959,
LARCENY-NON VEHICLE,160532880,02/22/2016,202 CANDLER RD SE,611,East Lake,O,33.74754,-84.29153,
LARCENY-NON VEHICLE,160531827,02/22/2016,2525 PIEDMONT RD NE @HOME DEPOT,211,Lindbergh/Morosgo,B,33.824,-84.36521,
LARCENY-NON VEHICLE,160531684,02/22/2016,2044 CAMPBELLTON RD SW,410,Campbellton Road,R,33.70658,-84.4568,
LARCENY-NON VEHICLE,160531664,02/22/2016,1275 CAROLINE ST NE @TARGET - CAROLINE,609,Edgewood,O,33.75684,-84.3461,
BURGLARY-RESIDENCE,160531346,02/22/2016,2458 WILSON DR SW,409,Adams Park,R,33.71554,-84.46745,
BURGLARY-RESIDENCE,160532667,02/22/2016,814 MAGNOLIA WAY NW,102,Vine City,L,33.75805,-84.41419,
BURGLARY-RESIDENCE,160532524,02/22/2016,144 WATSON CIR SE,611,Kirkwood,O,33.74877,-84.31513,
BURGLARY-NONRES,160531296,02/22/2016,1316 LAKEWOOD AVE SE,305,South Atlanta,Y,33.71876,-84.38181,
BURGLARY-NONRES,160530926,02/22/2016,1005 LEE ST SW,402,Oakland City,S,33.72724,-84.41795,
BURGLARY-RESIDENCE,160532381,02/22/2016,509 BOULEVARD NE,603,Old Fourth Ward,M,33.76819,-84.37177,
BURGLARY-RESIDENCE,160532458,02/22/2016,372 ATLANTA AVE SE,605,Grant Park,W,33.73051,-84.37529,
BURGLARY-RESIDENCE,160531823,02/22/2016,108 DOGWOOD DR NW,112,Collier Heights,I,33.78156,-84.49449,
AGG ASSAULT,160531976,02/22/2016,1039 FERN AVE SE,304,Peoplestown,V,33.72615,-84.38536,
AGG ASSAULT,160530158,02/22/2016,605 BOULEVARD NE ,603,Old Fourth Ward,M,33.77097,-84.3714,
AGG ASSAULT,160531968,02/22/2016,60 MAYSON AVE NE,609,Edgewood,O,33.75538,-84.33865,
AGG ASSAULT,160531668,02/22/2016,1695 PRYOR RD SW,305,Betmar LaVilla,Y,33.70894,-84.39374,
AGG ASSAULT,160531403,02/22/2016,1026 PONCE DE LEON AVE NE,601,Virginia Highland,F,33.77456,-84.35375,
ROBBERY-RESIDENCE,160531282,02/22/2016,2226 TIGER FLOWERS DR NW,108,Dixie Hills,J,33.76119,-84.46062,
ROBBERY-RESIDENCE,160530457,02/22/2016,898 OAK ST SW,401,West End,T,33.74057,-84.41738,
ROBBERY-COMMERCIAL,160520248,02/21/2016,876 MARTIN L KING JR DR SW,101,Atlanta University Center,T,33.75462,-84.41628,
ROBBERY-PEDESTRIAN,160521881,02/21/2016,910 AUSTIN AVE NE,602,Inman Park,N,33.76191,-84.3578,
ROBBERY-PEDESTRIAN,160520093,02/21/2016,727 WYLIE ST SE,606,Cabbagetown,N,33.75204,-84.36355,
ROBBERY-PEDESTRIAN,160520280,02/21/2016,450 STONEWALL ST SW,507,Castleberry Hill,M,33.74954,-84.40249,
ROBBERY-PEDESTRIAN,160520377,02/21/2016,990 GREENWOOD AVE NE,601,Virginia Highland,F,33.77685,-84.35487,
AGG ASSAULT,160521570,02/21/2016,469 OLIVER ST NW,103,English Avenue,L,33.76757,-84.41527,
AGG ASSAULT,160520507,02/21/2016,900 NEW TOWN CIR SE,308,Thomasville Heights,Z,33.70837,-84.36007,
AGG ASSAULT,160520685,02/21/2016,636 WAYNES CT SE,313,South River Gardens,Z,33.67242,-84.36736,
AGG ASSAULT,160522434,02/21/2016,411 WESTCHESTER BLVD NW,107,Grove Park,J,33.76637,-84.45373,
AGG ASSAULT,160520616,02/21/2016,160 ELLIS ST NE,510,Downtown,M,33.75846,-84.3825,
AGG ASSAULT,160522531,02/21/2016,2187 JONESBORO RD SE,310,Lakewood,Z,33.69413,-84.3679,
BURGLARY-RESIDENCE,160520027,02/21/2016,1089 FOUNTAIN DR SW,104,Ashview Heights,T,33.75195,-84.42349,
BURGLARY-RESIDENCE,160521839,02/21/2016,1235 PRINCESS AVE SW,403,Oakland City,S,33.72121,-84.42565,
BURGLARY-RESIDENCE,160521120,02/21/2016,114 ATLANTA AVE SE,304,Peoplestown,V,33.73063,-84.3842,
BURGLARY-NONRES,160520655,02/21/2016,863 OAK ST SW,401,West End,T,33.74075,-84.41678,
BURGLARY-RESIDENCE,160522460,02/21/2016,820 MAGNA CARTA DR NW,112,Collier Heights,I,33.77644,-84.48151,
LARCENY-NON VEHICLE,160521337,02/21/2016,2685 METROPOLITAN PKWY SW,309,Perkerson,X,33.68274,-84.40902,
LARCENY-NON VEHICLE,160521545,02/21/2016,1241 MORELAND AVE SE @SUNSHINE PLAZA SC,607,Woodland Hills,W,33.72055,-84.35045,
LARCENY-NON VEHICLE,160522049,02/21/2016,3393 PEACHTREE RD NE @LENOX MALL,210,Lenox,B,33.84676,-84.36212,
LARCENY-NON VEHICLE,160491337,02/21/2016,835 MARTIN LUTHER KING JR DR,102,Vine City,L,33.75504,-84.41457,
LARCENY-FROM VEHICLE,160520260,02/21/2016,3140 E SHADOWLAWN AVE NE,206,Buckhead Village,B,33.84068,-84.37433,
LARCENY-FROM VEHICLE,160520252,02/21/2016,MARTIN L KING JR DR SW / PRYOR ST SW,511,Downtown,M,33.75101,-84.39045,
LARCENY-FROM VEHICLE,160520229,02/21/2016,893 PEACHTREE ST NE ,505,Midtown,E,33.77901,-84.38403,
LARCENY-FROM VEHICLE,160520181,02/21/2016,880 MARTIN L KING JR DR SW,101,Atlanta University Center,T,33.75453,-84.41638,
LARCENY-FROM VEHICLE,160520174,02/21/2016,136 11TH ST NE,503,Midtown,E,33.78311,-84.38258,
LARCENY-FROM VEHICLE,160520110,02/21/2016,1388 CARROLL DR NW ,203,Hills Park,D,33.80257,-84.43288,
LARCENY-FROM VEHICLE,160511915,02/21/2016,31 BAKER ST NW,508,Downtown,M,33.76257,-84.38867,
LARCENY-FROM VEHICLE,160522451,02/21/2016,3390 FAIRBURN RD SW,414,Ben Hill,P,33.6639,-84.52377,
LARCENY-FROM VEHICLE,160521223,02/21/2016,3398 PIEDMONT RD NE,208,Buckhead Forest,B,33.84712,-84.37385,
LARCENY-FROM VEHICLE,160522325,02/21/2016,1968 PEACHTREE RD NW @PIEDMONT HOSPITAL,207,,E,33.80881,-84.3951,
LARCENY-FROM VEHICLE,160522301,02/21/2016,2329 CASCADE RD SW,406,Cascade Heights,I,33.72223,-84.46478,
LARCENY-FROM VEHICLE,160522207,02/21/2016,3755 CARMIA DR SW,414,Princeton Lakes,P,33.65674,-84.5076,
LARCENY-FROM VEHICLE,160522100,02/21/2016,584 HOLDERNESS ST SW,401,West End,T,33.73921,-84.427,
LARCENY-FROM VEHICLE,160522005,02/21/2016,85 PEACHTREE CIR NE,502,Ansley Park,E,33.7915,-84.38275,
LARCENY-FROM VEHICLE,160521868,02/21/2016,441 16TH ST NW ,501,Atlantic Station,E,33.78874,-84.40468,
LARCENY-FROM VEHICLE,160520283,02/21/2016,2800 CAMPBELLTON RD SW,410,Campbellton Road,R,33.69967,-84.47996,
LARCENY-FROM VEHICLE,160521313,02/21/2016,960 KATHERWOOD DR SW,306,Sylvan Hills,X,33.71078,-84.41963,
LARCENY-FROM VEHICLE,160520996,02/21/2016,226 COURTLAND ST NE,509,Downtown,M,33.76051,-84.38429,
LARCENY-FROM VEHICLE,160520984,02/21/2016,2399 PIEDMONT RD NE,211,Lindbergh/Morosgo,B,33.82039,-84.36744,
LARCENY-FROM VEHICLE,160520890,02/21/2016,172 HOWELL ST NE,604,Old Fourth Ward,M,33.75874,-84.37094,
LARCENY-FROM VEHICLE,160520859,02/21/2016,144 WATSON CIR SE,611,Kirkwood,O,33.74877,-84.31513,
LARCENY-FROM VEHICLE,160520738,02/21/2016,540 PHARR RD NE,206,Buckhead Village,B,33.83707,-84.37018,
LARCENY-FROM VEHICLE,160520664,02/21/2016,2207 SANDRIDGE PL SW,412,Sandlewood Estates,P,33.70292,-84.54363,
LARCENY-FROM VEHICLE,160520452,02/21/2016,2507 DONALD LEE HOLLOWELL,109,Center Hill,J,33.77599,-84.46777,
LARCENY-FROM VEHICLE,160522582,02/21/2016,219 MAPLE ST NW,102,Vine City,L,33.76064,-84.40523,
LARCENY-FROM VEHICLE,160522542,02/21/2016,737 RALPH MCGILL BLVD NE,603,Old Fourth Ward,M,33.76606,-84.36302,
LARCENY-FROM VEHICLE,160521239,02/21/2016,2542 HOSEA L WILLIAMS DR NE,611,East Lake,O,33.75129,-84.30392,
LARCENY-NON VEHICLE,160521330,02/21/2016,878 PEACHTREE ST NE,505,Midtown,E,33.7788,-84.38438,
LARCENY-NON VEHICLE,160520265,02/21/2016,265 PEACHTREE CENTER AVE NE @Multiple,509,Downtown,M,33.76158,-84.38496,
LARCENY-NON VEHICLE,160522505,02/21/2016,1199 NORTHSIDE DR NW,501,Home Park,E,33.78735,-84.40737,
LARCENY-NON VEHICLE,160520424,02/21/2016,55 PHARR RD NW,206,Peachtree Heights West,B,33.83726,-84.38393,
LARCENY-NON VEHICLE,160521049,02/21/2016,330 WOODWARD WAY NW,205,Peachtree Battle Alliance,C,33.81716,-84.39848,
AUTO THEFT,160521431,02/21/2016,383 6TH ST NE,506,Midtown,E,33.77608,-84.37455,
AUTO THEFT,160521510,02/21/2016,2841 GREENBRIAR PKWY SW @GREENBRIAR MALL,411,Greenbriar,R,33.68845,-84.49328,
AUTO THEFT,160521522,02/21/2016,950 GARIBALDI ST SW @PITTMAN PARK,302,Pittsburgh,V,33.72889,-84.3991,
AUTO THEFT,160522544,02/21/2016,MORELAND AVE NE / PONCE DE LEON AVE NE,601,Poncey-Highland,N,33.77348,-84.34935,
AUTO THEFT,160522601,02/21/2016,761 SIDNEY MARCUS BLVD NE,211,Lindbergh/Morosgo,B,33.82564,-84.36308,
AUTO THEFT,160520699,02/21/2016,956 SIMS ST SW,302,Pittsburgh,V,33.72881,-84.40294,
AUTO THEFT,160520815,02/21/2016,2081 HOLLYWOOD RD NW,203,Riverside,D,33.81248,-84.46992,
AUTO THEFT,160520955,02/21/2016,501 CONNELL AVE SW,309,Perkerson,X,33.68327,-84.40662,
AUTO THEFT,160511982,02/20/2016,1770 RICHMOND CIR SE,307,Lakewood Heights,Y,33.70695,-84.37414,
AUTO THEFT,160512539,02/20/2016,1247 JOSEPH E BOONE BLVD NW,106,Bankhead,K,33.76361,-84.42842,
AUTO THEFT,160510722,02/20/2016,1477 EASON ST NW,105,Hunter Hills,K,33.75759,-84.43637,
AUTO THEFT,160510731,02/20/2016,4045 BLANTON AVE SW,413,Fairburn,P,33.69111,-84.52094,
AUTO THEFT,160510998,02/20/2016,115 HILLIARD ST SE,604,Sweet Auburn,M,33.75141,-84.37677,
LARCENY-NON VEHICLE,160511349,02/20/2016,180 CENTENNIAL OLYMPIC P DR NW,508,Downtown,M,33.75959,-84.39242,
LARCENY-NON VEHICLE,160511484,02/20/2016,1600 PRYOR RD SW,305,The Villages at Carver,Y,33.71266,-84.39337,
LARCENY-NON VEHICLE,160503613,02/20/2016,380 MORELAND AVE NE,602,Inman Park,N,33.76377,-84.3497,
LARCENY-NON VEHICLE,160510904,02/20/2016,2102 HOLLYWOOD RD NW,203,Riverside,D,33.81345,-84.46895,
LARCENY-NON VEHICLE,160511197,02/20/2016,181 NATHAN RD SW,407,Adamsville,H,33.75161,-84.50191,
LARCENY-NON VEHICLE,160511713,02/20/2016,850 OAK ST SW,401,West End,T,33.74057,-84.4168,
LARCENY-NON VEHICLE,160510304,02/20/2016,156 MILLS ST NW,504,Downtown,M,33.76522,-84.39252,
LARCENY-NON VEHICLE,160511470,02/20/2016,1375 NORTHSIDE DR NW,207,Loring Heights,E,33.79209,-84.40677,
LARCENY-FROM VEHICLE,160512013,02/20/2016,1919 METROPOLITAN PKWY SW,306,Sylvan Hills,X,33.70278,-84.41017,
LARCENY-FROM VEHICLE,160511558,02/20/2016,I-75 NB EXPY SW / CLEVELAND AVE SW,311,Glenrose Heights,Z,33.68112,-84.39837,
LARCENY-FROM VEHICLE,160511169,02/20/2016,1110 LINDRIDGE DR NE,212,Lindridge/Martin Manor,F,33.82007,-84.35319,
LARCENY-FROM VEHICLE,160510688,02/20/2016,3160 ESHA CT SW,409,Southwest,R,33.70436,-84.49427,
LARCENY-FROM VEHICLE,160510618,02/20/2016,492 HOLDERNESS ST SW,401,West End,T,33.74167,-84.42692,
LARCENY-FROM VEHICLE,160510551,02/20/2016,982 CREW ST SW,304,Peoplestown,V,33.72798,-84.38919,
LARCENY-FROM VEHICLE,160511434,02/20/2016,1162 EGGLESTON ST SW,401,West End,T,33.73962,-84.42584,
LARCENY-FROM VEHICLE,160511456,02/20/2016,1150 ASTOR AVE SW,306,Sylvan Hills,X,33.70137,-84.42678,
LARCENY-FROM VEHICLE,160510896,02/20/2016,1963 KING GEORGE LN SW,412,Kings Forest,P,33.70109,-84.51582,
LARCENY-FROM VEHICLE,160511678,02/20/2016,3242 PEACHTREE RD NE,208,Buckhead Forest,B,33.84425,-84.37311,
LARCENY-FROM VEHICLE,160511676,02/20/2016,850 OAK ST SW @WEST END MALL,401,West End,T,33.74057,-84.4168,
LARCENY-FROM VEHICLE,160512545,02/20/2016,3101 PIEDMONT RD NE,211,Peachtree Park,B,33.84075,-84.36979,
LARCENY-FROM VEHICLE,160511939,02/20/2016,800 CHEROKEE AVE SE @ZOO,605,Grant Park,W,33.7338,-84.37184,
LARCENY-FROM VEHICLE,160512500,02/20/2016,492 WATERFORD RD NW,112,Collier Heights,I,33.76844,-84.48427,
LARCENY-FROM VEHICLE,160512493,02/20/2016,1120 CURRAN ST NW,501,Home Park,E,33.78551,-84.40617,
LARCENY-FROM VEHICLE,160512388,02/20/2016,443 WOODWARD AVE SE,605,Grant Park,W,33.74532,-84.37306,
LARCENY-FROM VEHICLE,160512318,02/20/2016,1341 MORELAND AVE SE,607,Woodland Hills,W,33.718,-84.34994,
LARCENY-FROM VEHICLE,160512111,02/20/2016,608 GASKILL ST SE,606,Cabbagetown,N,33.74844,-84.36748,
LARCENY-FROM VEHICLE,160512077,02/20/2016,964 RALPH D ABERNATHY BLVD SW,401,West End,T,33.73773,-84.41962,
LARCENY-FROM VEHICLE,160512951,02/20/2016,2  12TH ST NE,503,Midtown,E,33.78466,-84.38759,
LARCENY-FROM VEHICLE,160512936,02/20/2016,1791 HARPER ST NW,204,Underwood Hills,D,33.80426,-84.41934,
LARCENY-FROM VEHICLE,160512698,02/20/2016,3830 PRINCETON LAKES CT SW,414,Princeton Lakes,P,33.65666,-84.51318,
LARCENY-FROM VEHICLE,160512664,02/20/2016,215 W WIEUCA RD NW,202,Chastain Park,A,33.8752,-84.39373,
LARCENY-NON VEHICLE,160512046,02/20/2016,3730 CARMIA DR SW,414,Princeton Lakes,P,33.65528,-84.5102,
LARCENY-NON VEHICLE,160512549,02/20/2016,2900 PEACHTREE RD NW @PUBLIX - PEACHTREE,206,Peachtree Heights West,B,33.83399,-84.3841,
LARCENY-NON VEHICLE,160511740,02/20/2016,1176 CHATTAHOOCHEE AVE NW,203,Blandtown,D,33.80058,-84.42561,
LARCENY-NON VEHICLE,160511782,02/20/2016,3393 PEACHTREE RD NE,210,Lenox,B,33.84676,-84.36212,
LARCENY-NON VEHICLE,160512607,02/20/2016,2615 DONALD LEE HOLLOWELL PKWY NW,109,Center Hill,J,33.7762,-84.47236,
LARCENY-NON VEHICLE,160511642,02/20/2016,231 18TH ST NW,501,Atlantic Station,E,33.79249,-84.3954,
LARCENY-NON VEHICLE,160512945,02/20/2016,152 LUCKIE STREET NW,508,Downtown,M,33.75869,-84.39147,
LARCENY-NON VEHICLE,160512259,02/20/2016,1175 RALPH D ABERNATHY BLVD SW,401,West End,T,33.73893,-84.42634,
LARCENY-NON VEHICLE,160510727,02/20/2016,1176 CHATTAHOOCHEE AVE NW,203,Blandtown,D,33.80058,-84.42561,
LARCENY-NON VEHICLE,160511014,02/20/2016,1280 CAROLINE ST NE,609,Edgewood,O,33.75957,-84.34602,
BURGLARY-NONRES,160510975,02/20/2016,3667 CAMPBELLTON RD SW,412,Ben Hill Acres,P,33.69034,-84.50805,
BURGLARY-NONRES,160510565,02/20/2016,930 HOWELL MILL RD NW,501,Home Park,E,33.77987,-84.41063,
BURGLARY-NONRES,160510627,02/20/2016,307 6TH ST NE,506,Midtown,E,33.7761,-84.37728,
BURGLARY-RESIDENCE,160511488,02/20/2016,1203 HOLLYWOOD RD NW,110,Almond Park,G,33.78785,-84.46377,
BURGLARY-RESIDENCE,160511475,02/20/2016,3720 DENVILLE TRCE SW,412,Cascade Green,P,33.71206,-84.50349,
BURGLARY-RESIDENCE,160511428,02/20/2016,470 16TH ST NW,501,Home Park,E,33.7883,-84.40387,
BURGLARY-RESIDENCE,160511426,02/20/2016,55 MAPLE ST NW,102,Vine City,L,33.75569,-84.40528,
AGG ASSAULT,160510222,02/20/2016,66 JAMES P BRAWLEY DR NW ,102,Vine City,L,33.75617,-84.41285,
AGG ASSAULT,160510245,02/20/2016,112 COURTLAND ST NE,510,Downtown,M,33.75756,-84.38434,
AGG ASSAULT,160511544,02/20/2016,129 NORTH AVE NE,509,Downtown,M,33.77103,-84.38318,
AGG ASSAULT,160510701,02/20/2016,1388 JOSEPH E BOONE BLVD NW,105,Hunter Hills,K,33.7633,-84.43337,
AGG ASSAULT,160511961,02/20/2016,180 UNIVERSITY AVE SW,302,Pittsburgh,V,33.72164,-84.39375,
AGG ASSAULT,160510124,02/20/2016,893 PEACHTREE ST NE @BULLDOG,505,Midtown,E,33.77901,-84.38403,
ROBBERY-PEDESTRIAN,160511546,02/20/2016,825 MCDANIEL ST SW,302,Pittsburgh,V,33.73238,-84.40214,
ROBBERY-PEDESTRIAN,160510891,02/20/2016,1079 MAYSON TURNER RD NW,105,Washington Park,K,33.76244,-84.42249,
HOMICIDE,160510459,02/20/2016,3137 LAKEWOOD AVE,306,Sylvan Hills,X,33.69751,-84.42089,
ROBBERY-PEDESTRIAN,160512950,02/20/2016,764 MIAMI CIR,211,Lindbergh/Morosgo,B,33.83188,-84.36198,
ROBBERY-PEDESTRIAN,160512696,02/20/2016,1065 PEACHTREE ST,503,Midtown,E,33.78667,-84.38318,
ROBBERY-PEDESTRIAN,160512491,02/20/2016,300 WILSON MILL RD SW,407,Wilson Mill Meadows,H,33.75186,-84.51553,
ROBBERY-RESIDENCE,160503144,02/19/2016,3021 MIDDLETON RD NW,111,,I,33.75314,-84.4892,
ROBBERY-PEDESTRIAN,160503154,02/19/2016,765 MCDANIEL ST SW,302,Pittsburgh,V,33.73365,-84.40221,
ROBBERY-PEDESTRIAN,160500417,02/19/2016,887 BRIDGEWATER ST SW,306,Sylvan Hills,X,33.70295,-84.41766,
ROBBERY-PEDESTRIAN,160500272,02/19/2016,45 IVAN ALLEN JR BLVD NW,504,Downtown,M,33.76477,-84.38918,
HOMICIDE,160501355,02/19/2016,816 HANK AARON DR SE,304,Summerhill,V,33.73238,-84.38782,
AGG ASSAULT,160502301,02/19/2016,449 CHAPPELL RD,103,Bankhead,K,33.76776,-84.43261,
AGG ASSAULT,160502161,02/19/2016,225 HAMILTON E HOLMES DR NW @APS DOUGLASS HS,108,Center Hill,J,33.76115,-84.4682,
AGG ASSAULT,160501830,02/19/2016,2841 GREENBRIAR PKWY SW @GREENBRIAR MALL,411,Greenbriar,R,33.68677,-84.49773,
AGG ASSAULT,160501279,02/19/2016,1944 PIEDMONT CIR NE,212,Piedmont Heights,F,33.81165,-84.36787,
AGG ASSAULT,160503136,02/19/2016,2612 STEELE AVE SW,310,Browns Mill Park,Z,33.68202,-84.39607,
BURGLARY-RESIDENCE,160502803,02/19/2016,470 16TH ST NW,501,Home Park,E,33.78781,-84.40468,
BURGLARY-RESIDENCE,160501064,02/19/2016,908 WELCH ST SW,302,Pittsburgh,V,33.73026,-84.40465,
BURGLARY-RESIDENCE,160500668,02/19/2016,262 MELLRICH AVE NE,610,Kirkwood,O,33.76033,-84.31313,
BURGLARY-RESIDENCE,160500518,02/19/2016,1472 AVON AVE SW,403,Venetian Hills,S,33.72225,-84.4361,
BURGLARY-RESIDENCE,160501698,02/19/2016,1315 ELIZABETH AVE SW,403,Venetian Hills,S,33.71885,-84.43583,
BURGLARY-RESIDENCE,160502840,02/19/2016,329 ATLANTA AVE SE,605,Grant Park,W,33.73003,-84.37698,
BURGLARY-RESIDENCE,160502649,02/19/2016,470 16TH ST NW,501,Home Park,E,33.7883,-84.40387,
BURGLARY-NONRES,160502187,02/19/2016,2115 MONROE DR NE,212,Piedmont Heights,F,33.81021,-84.37274,
BURGLARY-NONRES,160501706,02/19/2016,801 GLENWOOD AVE SE @APS JACKSON HS,605,Grant Park,W,33.73958,-84.36161,
BURGLARY-NONRES,160501699,02/19/2016,606 PRYOR ST SW @ZION GROVE BAPTIST,303,Mechanicsville,V,33.73819,-84.39421,
BURGLARY-RESIDENCE,160501280,02/19/2016,1423 MILL ACRES DR SW,409,Cascade Heights,I,33.71665,-84.47122,
BURGLARY-RESIDENCE,160500363,02/19/2016,1572 HARDEE ST NE,609,Edgewood,O,33.75546,-84.33644,
LARCENY-NON VEHICLE,160501861,02/19/2016,2525 PIEDMONT RD NE @HOME DEPOT,211,Lindbergh/Morosgo,B,33.824,-84.36521,
LARCENY-NON VEHICLE,160502723,02/19/2016,1225 CAROLINE ST NE,609,Edgewood,O,33.75605,-84.34813,
LARCENY-NON VEHICLE,160501855,02/19/2016,231 18TH ST NW,501,Atlantic Station,E,33.79275,-84.39544,
LARCENY-NON VEHICLE,160501845,02/19/2016,2685 METROPOLITAN PKWY SW,309,Perkerson,X,33.68274,-84.40902,
LARCENY-NON VEHICLE,160501765,02/19/2016,1225 CAROLINE ST NE ,609,Edgewood,O,33.75605,-84.34813,
LARCENY-NON VEHICLE,160503279,02/19/2016,1801 HOWELL MILL RD NW,204,Berkeley Park,D,33.80388,-84.41278,
LARCENY-NON VEHICLE,160501306,02/19/2016,835 MARTIN L KING JR DR NW,102,Vine City,L,33.75504,-84.41457,
LARCENY-NON VEHICLE,160503310,02/19/2016,2539 PIEDMONT RD NE @TARGET - PIEDMONT,211,Lindbergh/Morosgo,B,33.82403,-84.36328,
LARCENY-NON VEHICLE,160503235,02/19/2016,835 MARTIN L KING JR DR NW,102,Vine City,L,33.75504,-84.41457,
LARCENY-NON VEHICLE,160503032,02/19/2016,231 NW 18TH ST,501,Atlantic Station,E,33.79275,-84.39544,
LARCENY-NON VEHICLE,160501608,02/19/2016,2685 METROPOLITAN PKWY SW,309,Perkerson,X,33.68274,-84.40902,
LARCENY-FROM VEHICLE,160503466,02/19/2016,600 PHIPPS BLVD NE,209,North Buckhead,B,33.85348,-84.3653,
LARCENY-FROM VEHICLE,160503298,02/19/2016,1955 CAMPBELLTON RD SW,408,Venetian Hills,S,33.7083,-84.45292,
LARCENY-FROM VEHICLE,160501231,02/19/2016,311 COURTLAND ST NE ,509,Downtown,M,33.76306,-84.38365,
LARCENY-FROM VEHICLE,160503285,02/19/2016,3242 PEACHTREE RD NE,208,Buckhead Forest,B,33.84425,-84.37311,
LARCENY-FROM VEHICLE,160503111,02/19/2016,3405 LENOX RD NE,210,Lenox,B,33.848,-84.35947,
LARCENY-FROM VEHICLE,160502079,02/19/2016,933 PEACHTREE ST NE,503,Midtown,E,33.78013,-84.38355,
LARCENY-FROM VEHICLE,160501971,02/19/2016,4300 NORTHSIDE DR NW,202,Mt. Paran/Northside,A,33.87191,-84.41005,
LARCENY-FROM VEHICLE,160501888,02/19/2016,3365 PIEDMONT RD NE,208,North Buckhead,B,33.84687,-84.37284,
LARCENY-FROM VEHICLE,160501761,02/19/2016,I-75 SB EXPY NW / MOUNT PARAN RD NW,201,Paces,A,33.8649,-84.43967,
LARCENY-FROM VEHICLE,160501674,02/19/2016,269 FAIRBURN RD NW,111,Adamsville,H,33.76228,-84.50259,
LARCENY-FROM VEHICLE,160501603,02/19/2016,615 FERRIS ST SW,404,Westwood Terrace,I,33.73847,-84.45419,
LARCENY-FROM VEHICLE,160501518,02/19/2016,2349 CHESHIRE BRIDGE RD NE,212,Lindridge/Martin Manor,F,33.81924,-84.35086,
LARCENY-FROM VEHICLE,160501359,02/19/2016,1330 WESTMINSTER WALK NW,201,Margaret Mitchell,A,33.83411,-84.42991,
LARCENY-FROM VEHICLE,160501286,02/19/2016,872 PLYMOUTH RD NE,213,Morningside/Lenox Park,F,33.7992,-84.35858,
LARCENY-FROM VEHICLE,160501275,02/19/2016,370 NORTHSIDE DR,103,English Avenue,L,33.76527,-84.40498,
LARCENY-FROM VEHICLE,160503530,02/19/2016,3101 PIEDMONT RD NE,211,Peachtree Park,B,33.84075,-84.36979,
LARCENY-FROM VEHICLE,160501024,02/19/2016,551 GARY RD NW,109,Center Hill,J,33.76996,-84.46114,
LARCENY-FROM VEHICLE,160501023,02/19/2016,303 PEACHTREE CENTER AVE NE,509,Downtown,M,33.76289,-84.38589,
LARCENY-FROM VEHICLE,160491199,02/19/2016,893 PEACHTREE ST NE @BULLDOG,505,Midtown,E,33.77901,-84.38403,
LARCENY-FROM VEHICLE,160501065,02/19/2016,2722 ALTAVIEW DR SE,312,Rosedale Heights,Z,33.68044,-84.38146,
LARCENY-FROM VEHICLE,160500835,02/19/2016,3000 CONTINENTAL COLONY PKWY SW,411,Greenbriar,R,33.68077,-84.4937,
LARCENY-FROM VEHICLE,160501071,02/19/2016,855 PEACHTREE ST NE,505,Midtown,E,33.77798,-84.38389,
LARCENY-FROM VEHICLE,160500943,02/19/2016,3000 STONE HOGAN CONN SW,411,Greenbriar,R,33.67424,-84.49697,
LARCENY-FROM VEHICLE,160501099,02/19/2016,763 AMSTERDAM AVE NE,601,Virginia Highland,F,33.78735,-84.3621,
LARCENY-FROM VEHICLE,160501197,02/19/2016,396 RAWSON ST SW,303,Mechanicsville,V,33.74283,-84.40064,
LARCENY-FROM VEHICLE,160500564,02/19/2016,3200 STONE RD SW,411,Greenbriar,R,33.6697,-84.49403,
LARCENY-FROM VEHICLE,160500719,02/19/2016,1298 EASTRIDGE RD SW,408,Venetian Hills,S,33.71982,-84.4447,
LARCENY-FROM VEHICLE,160502077,02/19/2016,400 W PEACHTREE ST NW,504,Downtown,M,33.76614,-84.3876,
LARCENY-NON VEHICLE,160502503,02/19/2016,201 17TH ST NW,501,Atlantic Station,E,33.79151,-84.39455,
LARCENY-NON VEHICLE,160502096,02/19/2016,1510 PIEDMONT AVE NE,213,Piedmont Heights,F,33.79619,-84.37,
LARCENY-NON VEHICLE,160502444,02/19/2016,1801 HOWELL MILL RD,204,Berkeley Park,D,33.80388,-84.41278,
LARCENY-NON VEHICLE,160502916,02/19/2016,84 FORSYTH ST SW,512,Downtown,M,33.75225,-84.39374,
LARCENY-NON VEHICLE,160503207,02/19/2016,75 5TH ST NW,505,Midtown,E,33.77694,-84.38963,
LARCENY-NON VEHICLE,160501191,02/19/2016,3730 CARMIA DR SW ,414,Princeton Lakes,P,33.65488,-84.51022,
LARCENY-NON VEHICLE,160502234,02/19/2016,894 DONNELLY AVE SW ,402,Oakland City,S,33.7275,-84.41803,
LARCENY-NON VEHICLE,160502088,02/19/2016,1624 PEACHTREE BATTLE AVE NW,201,Margaret Mitchell,A,33.82851,-84.44053,
LARCENY-NON VEHICLE,160502586,02/19/2016,929 CHARLES ALLEN DR NE,506,Midtown,E,33.78001,-84.36934,
LARCENY-NON VEHICLE,160508040,02/19/2016,6000 SOUTH TERMINAL KWY,706,,,33.64082,-84.44629,
AUTO THEFT,160501607,02/19/2016,156 MURRAY HILL AVE NE,610,Kirkwood,O,33.75671,-84.31627,
AUTO THEFT,160502541,02/19/2016,400 FAIRBURN RD SW,407,Fairburn Mays,H,33.74366,-84.50936,
AUTO THEFT,160500785,02/19/2016,3378 GREENBRIAR PKWY SW,413,,P,33.68299,-84.50129,
LARCENY-NON VEHICLE,160500760,02/19/2016,599 DELBRIDGE ST NW,102,Vine City,L,33.75766,-84.40703,
AUTO THEFT,160503370,02/19/2016,221 CLEVELAND AVE SW,310,Browns Mill Park,Z,33.68143,-84.39669,
AUTO THEFT,160491929,02/18/2016,2989 CAMPBELLTON RD SW ,409,Southwest,R,33.69596,-84.48623,
AUTO THEFT,160491856,02/18/2016,270 17TH ST NW,501,Atlantic Station,E,33.79072,-84.39776,
AUTO THEFT,160490913,02/18/2016,299 THORNTON ST SW,307,Joyland,Y,33.71192,-84.39869,
AUTO THEFT,160492026,02/18/2016,1976 SANDSTREAM CT SW,412,Sandlewood Estates,P,33.70191,-84.53951,
AUTO THEFT,160490967,02/18/2016,1770 RICHMOND CIR SE,307,Lakewood Heights,Y,33.70695,-84.37414,
AUTO THEFT,160490582,02/18/2016,91 PEYTON PL SW,405,Harland Terrace,I,33.75253,-84.47669,
AUTO THEFT,160490786,02/18/2016,415 WESTCHESTER BLVD NW,107,Grove Park,J,33.7665,-84.45369,
LARCENY-NON VEHICLE,160492297,02/18/2016,2909 CAMPBELLTON RD SW,409,Southwest,R,33.69869,-84.48265,
LARCENY-NON VEHICLE,160492310,02/18/2016,2531 NORTHSIDE DR NW,205,Brandon,C,33.82442,-84.40766,
LARCENY-NON VEHICLE,160491388,02/18/2016,2525 PIEDMONT RD NE ,211,Lindbergh/Morosgo,B,33.824,-84.36521,
LARCENY-NON VEHICLE,160491393,02/18/2016,2521 PIEDMONT RD NE,211,Lindbergh/Morosgo,B,33.82397,-84.36684,
LARCENY-NON VEHICLE,160491499,02/18/2016,477 PEACHTREE ST NE,509,Downtown,M,33.76764,-84.38524,
LARCENY-NON VEHICLE,160492015,02/18/2016,2980 JONESBORO RD SE;,313,South River Gardens,Z,33.67339,-84.37144,
LARCENY-FROM VEHICLE,160492236,02/18/2016,3340 PEACHTREE RD NE @TOWER PLACE,208,North Buckhead,B,33.84743,-84.37089,
LARCENY-FROM VEHICLE,160492285,02/18/2016,120 RENAISSANCE PKWY NE,509,Downtown,M,33.76912,-84.38346,
LARCENY-FROM VEHICLE,160491151,02/18/2016,1323 METROPOLITAN PKWY SW,301,Capitol View,X,33.71866,-84.40821,
LARCENY-FROM VEHICLE,160490784,02/18/2016,565 MCDANIEL ST SW,303,Mechanicsville,V,33.73977,-84.40237,
LARCENY-FROM VEHICLE,160491166,02/18/2016,560 DUTCH VALLEY RD NE,213,Morningside/Lenox Park,F,33.79244,-84.36915,
LARCENY-FROM VEHICLE,160491956,02/18/2016,1111 EUCLID AVE NE,602,Inman Park,N,33.764,-84.35057,
LARCENY-FROM VEHICLE,160492489,02/18/2016,254 SIMON TER NW,112,Collier Heights,I,33.76269,-84.47547,
LARCENY-FROM VEHICLE,160492179,02/18/2016,862 PONCE DE LEON PL NE,601,Virginia Highland,F,33.77818,-84.36398,
LARCENY-FROM VEHICLE,160493432,02/18/2016,1099 EUCLID AVE NE,602,Inman Park,N,33.76376,-84.35075,
LARCENY-FROM VEHICLE,160492590,02/18/2016,180 CARROLL ST SE,606,Cabbagetown,N,33.74962,-84.36791,
LARCENY-FROM VEHICLE,160492887,02/18/2016,2644 METROPOLITAN PKWY SW,309,Perkerson,X,33.68229,-84.40739,
LARCENY-FROM VEHICLE,160492855,02/18/2016,442 14TH ST NW,501,Home Park,E,33.78558,-84.401,
LARCENY-FROM VEHICLE,160493384,02/18/2016,1170 HOWELL MILL RD NW,501,Home Park,E,33.7858,-84.41208,
LARCENY-FROM VEHICLE,160491318,02/18/2016,4005 CAMPBELLTON RD SW,412,Ben Hill Terrace,P,33.69627,-84.52076,
LARCENY-FROM VEHICLE,160491972,02/18/2016,676 HIGHLAND AVE NE,604,Old Fourth Ward,M,33.76142,-84.36492,
LARCENY-FROM VEHICLE,160490235,02/18/2016,1700 HOWELL MILL RD ,204,Underwood Hills,D,33.80076,-84.41623,
LARCENY-FROM VEHICLE,160492304,02/18/2016,1071 CHATTAHOOCHEE AVE NW,204,Underwood Hills,D,33.80147,-84.4223,
LARCENY-FROM VEHICLE,160492301,02/18/2016,360 SIMPSON TER NW,107,Grove Park,J,33.76496,-84.4476,
LARCENY-FROM VEHICLE,160281696,02/18/2016,1725 STANTON RD SW,408,,R,33.70811,-84.44406,
LARCENY-NON VEHICLE,160492065,02/18/2016,2685 METROPOLITAN PKWY SW,309,Perkerson,X,33.68274,-84.40902,
LARCENY-NON VEHICLE,160491384,02/18/2016,2539 PIEDMONT RD NE @TARGET - PIEDMONT,211,Lindbergh/Morosgo,B,33.82403,-84.36328,
LARCENY-NON VEHICLE,160492242,02/18/2016,1380 ATLANTIC DR NW,501,Atlantic Station,E,33.79293,-84.3975,
LARCENY-NON VEHICLE,160492631,02/18/2016,3393 PEACHTREE RD NE @Multiple,210,Lenox,B,33.84676,-84.36212,
LARCENY-NON VEHICLE,160493147,02/18/2016,835 MARTIN L KING JR DR NW,102,Vine City,L,33.75504,-84.41457,
LARCENY-NON VEHICLE,160493223,02/18/2016,2555 BOLTON RD,201,,C,33.82028,-84.45188,
LARCENY-NON VEHICLE,160492811,02/18/2016,3500 PEACHTREE RD NE,208,North Buckhead,B,33.85248,-84.36058,
LARCENY-NON VEHICLE,160493220,02/18/2016,835 MARTIN L KING JR DR NW,102,Vine City,L,33.75504,-84.41457,
LARCENY-NON VEHICLE,160492824,02/18/2016,1801 HOWELL MILL RD NW,204,Berkeley Park,D,33.80388,-84.41278,
LARCENY-NON VEHICLE,160492446,02/18/2016,687 LILLIAN AVE SW,301,Adair Park,V,33.73028,-84.41022,
LARCENY-NON VEHICLE,160491120,02/18/2016,1191 OAKLAND LN SW,403,Oakland City,S,33.71965,-84.42716,
LARCENY-NON VEHICLE,160492564,02/18/2016,225 BAKER ST NW,508,Downtown,M,33.76274,-84.39443,
BURGLARY-RESIDENCE,160491909,02/18/2016,4205 LAKE FORREST DR NE,209,East Chastain Park,B,33.86972,-84.38685,
BURGLARY-NONRES,160490278,02/18/2016,3850 JONESBORO RD SE @EXPOSITION CENTER,313,South River Gardens,Z,33.65088,-84.36362,
BURGLARY-RESIDENCE,160492416,02/18/2016,2479 ABNER TER NW,110,Carver Hills,G,33.80063,-84.46635,
BURGLARY-RESIDENCE,160483321,02/18/2016,317 ARD PL NW,111,Adamsville,H,33.76398,-84.50284,
BURGLARY-RESIDENCE,160492787,02/18/2016,1572 HARDEE ST NE,609,Edgewood,O,33.75546,-84.33644,
BURGLARY-RESIDENCE,160492494,02/18/2016,369 MCDANIEL ST SW,101,The Villages at Castleberry Hill,T,33.74505,-84.40523,
BURGLARY-RESIDENCE,160492460,02/18/2016,820 W MARIETTA ST NW,103,English Avenue,L,33.78045,-84.41554,
BURGLARY-RESIDENCE,160493155,02/18/2016,1917 BADER AVE SW,306,Sylvan Hills,X,33.70226,-84.41441,
BURGLARY-RESIDENCE,160491466,02/18/2016,192 MAYSON AVE NE,609,Edgewood,O,33.75891,-84.33882,
BURGLARY-RESIDENCE,160492046,02/18/2016,820 W MARIETTA ST NW,103,English Avenue,L,33.78089,-84.41622,
BURGLARY-RESIDENCE,160492195,02/18/2016,1611 FOREST LAKES AVE SE,611,The Villages at East Lake,O,33.74328,-84.31267,
AGG ASSAULT,160492880,02/18/2016,305 HEMPHILL SCHOOL RD NW,111,Adamsville,H,33.76362,-84.50074,
AGG ASSAULT,160492414,02/18/2016,2363 CENTRAL DR NW,108,Dixie Hills,J,33.75888,-84.46447,
BURGLARY-RESIDENCE,160491967,02/18/2016,820 W MARIETTA ST NW,103,English Avenue,L,33.78045,-84.41554,
BURGLARY-RESIDENCE,160491789,02/18/2016,155 LYNHURST DR SW,406,,I,33.74925,-84.48889,
BURGLARY-RESIDENCE,160491339,02/18/2016,1483 ARTHUR LANGFORD JR PL SW,307,Joyland,Y,33.71097,-84.39789,
AGG ASSAULT,160493394,02/18/2016,1078 WESTMOOR DR NW,105,Washington Park,K,33.75931,-84.4232,
AGG ASSAULT,160491237,02/18/2016,3450 BENJAMIN E MAYS DR SW @APS MAYS HS,407,Mays,H,33.73364,-84.50386,
ROBBERY-PEDESTRIAN,160491073,02/18/2016,2020 BOLTON RD NW,203,Riverside,D,33.81125,-84.47594,
ROBBERY-PEDESTRIAN,160490990,02/18/2016,717 LEE ST SW,401,West End,T,33.73516,-84.41421,
HOMICIDE,160482874,02/18/2016,3041 SW LANDRUM DR,409,Southwest,R,33.70649,-84.48782,
ROBBERY-PEDESTRIAN,160493370,02/18/2016,1500 JONESBORO RD,305,South Atlanta,Y,33.71295,-84.38257,
ROBBERY-PEDESTRIAN,160492106,02/18/2016,1565 MARTIN L KING JR DR NW @MOZLEY PARK,104,Mozley Park,K,33.7536,-84.44235,
ROBBERY-PEDESTRIAN,160493363,02/18/2016,2069 CHESHIRE BRIDGE RD NE,213,Lindridge/Martin Manor,F,33.81148,-84.35523,
ROBBERY-PEDESTRIAN,160492303,02/18/2016,1019 NORTH AVE NW,106,Bankhead,K,33.76907,-84.42089,
ROBBERY-RESIDENCE,160490183,02/18/2016,1225 GARDENIA ST NW,105,Hunter Hills,K,33.7561,-84.42742,
ROBBERY-RESIDENCE,160483117,02/18/2016,172 LOGAN ST SE,605,Capitol Gateway,V,33.74477,-84.38229,
ROBBERY-RESIDENCE,160482225,02/17/2016,85 MOUNT ZION RD SW,312,Glenrose Heights,Z,33.67291,-84.39153,
ROBBERY-PEDESTRIAN,160481692,02/17/2016,50 LOWER ALABAMA ST SW,511,Downtown,M,33.75194,-84.38964,
ROBBERY-PEDESTRIAN,160481602,02/17/2016,881 DONALD LEE HOLLOWELL PKWY NW,103,English Avenue,L,33.77345,-84.41612,
ROBBERY-PEDESTRIAN,160483398,02/17/2016,224 PONCE DE LEON AVE NE,505,Midtown,E,33.77283,-84.37989,
HOMICIDE,160483379,02/17/2016,765 PINEHURST TERR,402,West End,T,33.73438,-84.43194,
AGG ASSAULT,160481743,02/17/2016,2075 GLENWOOD AVE SE,611,East Lake,O,33.74003,-84.31933,
AGG ASSAULT,160482100,02/17/2016,1085 GARIBALDI ST SW,302,Pittsburgh,V,33.72528,-84.39941,
AGG ASSAULT,160482380,02/17/2016,1177 JOSEPH E BOONE BLVD NW,106,Bankhead,K,33.7636,-84.42619,
BURGLARY-RESIDENCE,160481036,02/17/2016,532 CLEVELAND AVE SW,311,Hammond Park,X,33.68116,-84.4059,
BURGLARY-RESIDENCE,160480313,02/17/2016,1222 CAMPBELLTON PL SW,403,Oakland City,S,33.71763,-84.42868,
BURGLARY-RESIDENCE,160483030,02/17/2016,2597 CHURCH ST NW,203,Riverside,D,33.81107,-84.47318,
BURGLARY-NONRES,160480483,02/17/2016,2020 HOWELL MILL RD NW ,205,Wildwood (NPU-C),C,33.81022,-84.41347,
BURGLARY-NONRES,160480567,02/17/2016,857 COLLIER RD,205,Wildwood (NPU-C),C,33.81036,-84.41606,
BURGLARY-NONRES,160480195,02/17/2016,1402 N HIGHLAND AVE NE,213,Morningside/Lenox Park,F,33.79285,-84.35203,
BURGLARY-NONRES,160480474,02/17/2016,1170 HOWELL MILL RD NW,501,Home Park,E,33.7858,-84.41208,
BURGLARY-NONRES,160480479,02/17/2016,857 COLLIER RD NW,205,Wildwood (NPU-C),C,33.80986,-84.41626,
BURGLARY-RESIDENCE,160481953,02/17/2016,1341 EPWORTH ST SW,403,Venetian Hills,S,33.71845,-84.43114,
BURGLARY-RESIDENCE,160481878,02/17/2016,240 ANDREW J HAIRSTON PL NW,102,Vine City,L,33.76127,-84.41426,
BURGLARY-RESIDENCE,160481945,02/17/2016,47 OLLIE ST NW,105,Washington Park,K,33.7561,-84.42109,
BURGLARY-RESIDENCE,160483315,02/17/2016,2064 BOLTON RD NW,203,Riverside,D,33.81201,-84.4738,
BURGLARY-RESIDENCE,160482980,02/17/2016,818 BURCHILL ST SW,306,Sylvan Hills,X,33.71231,-84.4155,
BURGLARY-NONRES,160481802,02/17/2016,365 ORMOND ST SE,605,Grant Park,W,33.73125,-84.37561,
BURGLARY-NONRES,160480496,02/17/2016,1700 NORTHSIDE DR NW,207,Berkeley Park,D,33.80121,-84.40791,
BURGLARY-NONRES,160480566,02/17/2016,857 COLLIER RD NW,205,Wildwood (NPU-C),C,33.81036,-84.41606,
LARCENY-NON VEHICLE,160482255,02/17/2016,187 MOURY AVE SE,305,The Villages at Carver,Y,33.71274,-84.38825,
LARCENY-NON VEHICLE,160482239,02/17/2016,835 MARTIN L KING JR DR NW,102,Vine City,L,33.75504,-84.41457,
LARCENY-NON VEHICLE,160482656,02/17/2016,1801 HOWELL MILL RD NW,204,Berkeley Park,D,33.80388,-84.41278,
LARCENY-NON VEHICLE,160481986,02/17/2016,2539 PIEDMONT RD NE @TARGET - PIEDMONT,211,Lindbergh/Morosgo,B,33.82403,-84.36328,
LARCENY-NON VEHICLE,160482504,02/17/2016,2539 PIEDMONT RD NE @TARGET - PIEDMONT,211,Lindbergh/Morosgo,B,33.82403,-84.36328,
LARCENY-NON VEHICLE,160483223,02/17/2016,1801 HOWELL MILL RD,204,Berkeley Park,D,33.80388,-84.41278,
LARCENY-NON VEHICLE,160481876,02/17/2016,595 PIEDMONT AVE NE ,603,Old Fourth Ward,M,33.77067,-84.38023,
LARCENY-FROM VEHICLE,160482183,02/17/2016,2608 METROPOLITAN PKWY SW,309,Perkerson,X,33.68379,-84.40722,
LARCENY-FROM VEHICLE,160482521,02/17/2016,2274 BOULEVARD GRANADA SW,409,Adams Park,R,33.71891,-84.46336,
LARCENY-FROM VEHICLE,160482215,02/17/2016,560 SAINT CHARLES AVE NE,506,Midtown,E,33.77555,-84.36863,
LARCENY-FROM VEHICLE,160483416,02/17/2016,2160 MONROE DR NE,212,Piedmont Heights,F,33.81098,-84.37003,
LARCENY-FROM VEHICLE,160483311,02/17/2016,1495 CHATTAHOOCHEE AVE NW,204,Underwood Hills,D,33.80887,-84.43622,
LARCENY-FROM VEHICLE,160483284,02/17/2016,870 PIEDMONT AVE NE,505,Midtown,E,33.77815,-84.38134,
LARCENY-FROM VEHICLE,160483159,02/17/2016,1544 PIEDMONT AVE NE @ANSLEY MALL,213,Piedmont Heights,F,33.79789,-84.37101,
LARCENY-FROM VEHICLE,160483265,02/17/2016,2341 MARIETTA BLVD NW,203,Bolton,D,33.81923,-84.45204,
LARCENY-FROM VEHICLE,160483150,02/17/2016,1019 COLLIER RD NW,204,,C,33.81147,-84.42035,
LARCENY-FROM VEHICLE,160483135,02/17/2016,1185 COLLIER RD,204,,C,33.81136,-84.4253,
LARCENY-FROM VEHICLE,160483262,02/17/2016,292 MORELAND AVE NE,602,Inman Park,N,33.76203,-84.35108,
LARCENY-FROM VEHICLE,160481947,02/17/2016,47 25TH ST NW,207,Brookwood,E,33.80108,-84.39504,
LARCENY-FROM VEHICLE,160480649,02/17/2016,108 DOGWOOD DR NW,112,Collier Heights,I,33.78156,-84.49449,
LARCENY-FROM VEHICLE,160481694,02/17/2016,2980 PIEDMONT RD NE,206,Garden Hills,B,33.83597,-84.36893,
LARCENY-FROM VEHICLE,160481604,02/17/2016,1017 EDGEWOOD AVE NE,602,Inman Park,N,33.75678,-84.35438,
LARCENY-FROM VEHICLE,160481424,02/17/2016,1544 PIEDMONT AVE NE @ANSLEY MALL,213,Piedmont Heights,F,33.79789,-84.37101,
LARCENY-FROM VEHICLE,160481263,02/17/2016,1220 MECASLIN STREET,501,Home Park,E,33.78791,-84.39991,
LARCENY-FROM VEHICLE,160481234,02/17/2016,67 25TH ST NW,207,Brookwood,E,33.80089,-84.39575,
LARCENY-NON VEHICLE,160481130,02/17/2016,3500 LENOX RD NE,208,North Buckhead,B,33.85088,-84.3625,
LARCENY-NON VEHICLE,160501210,02/17/2016,2025 JONESBORO RD,310,Lakewood,Z,33.69828,-84.37248,
LARCENY-NON VEHICLE,160481943,02/17/2016,1115 S RIVER INDUSTRIAL BLVD SE,313,South River Gardens,Z,33.68289,-84.35389,
AUTO THEFT,160483362,02/17/2016,614 14TH ST NW,501,Home Park,E,33.78613,-84.40737,
AUTO THEFT,160481830,02/17/2016,1820 PEACHTREE RD NW,207,Ardmore,E,33.80482,-84.39407,
AUTO THEFT,160483260,02/17/2016,1754 RICHMOND CIR SE,307,Lakewood Heights,Y,33.70698,-84.3745,
AUTO THEFT,160480619,02/17/2016,1145 CHATHAM AVE SW,403,Cascade Avenue/Road,S,33.72395,-84.44344,
AUTO THEFT,160480785,02/17/2016,500 CLEVELAND AVE SE,310,Browns Mill Park,Z,33.68149,-84.36933,
AUTO THEFT,160480797,02/17/2016,140 ROSSER ST SW,104,Ashview Heights,T,33.75088,-84.42405,
AUTO THEFT,160481180,02/17/2016,195 ARIZONA AVE NE,609,Edgewood,O,33.75902,-84.3312,
AUTO THEFT,160481242,02/17/2016,2841 GREENBRIAR PKWY SW @JP ALLEN GREENBRIAR,411,Greenbriar,R,33.68677,-84.49773,
AUTO THEFT,160471759,02/16/2016,430 CLAIRE DR NE,608,Lake Claire,N,33.76595,-84.32406,
AUTO THEFT,160473261,02/16/2016,333 ANGIER AVE NE,603,Old Fourth Ward,M,33.76659,-84.37678,
AUTO THEFT,160470878,02/16/2016,1616 PIEDMONT AVE NE,213,Piedmont Heights,F,33.79848,-84.36825,
AUTO THEFT,160470578,02/16/2016,1072 CASCADE AVE SW,403,Cascade Avenue/Road,S,33.72605,-84.44581,
AUTO THEFT,160471118,02/16/2016,358 FRASER ST SE,605,Capitol Gateway,V,33.74513,-84.38612,
AUTO THEFT,160471436,02/16/2016,2175 PIEDMONT RD NE,211,Lindridge/Martin Manor,F,33.81716,-84.36632,
AUTO THEFT,160473072,02/16/2016,1983 HOWELL MILL RD NW,205,Channing Valley,C,33.80884,-84.41276,
AUTO THEFT,160471822,02/16/2016,18 MARIETTA ST,508,Downtown,M,33.75462,-84.39036,
AUTO THEFT,160471618,02/16/2016,1479 MARTIN L KING JR DR NW,105,Hunter Hills,K,33.75386,-84.43583,
AUTO THEFT,160470187,02/16/2016,2572 LENOX RD NE,210,Pine Hills,B,33.82467,-84.35248,
LARCENY-NON VEHICLE,160471147,02/16/2016,1659 JACKSON SQ NW,113,Lincoln Homes,G,33.79719,-84.47527,
LARCENY-NON VEHICLE,160473008,02/16/2016,803 MERCER ST SE,605,Grant Park,W,33.73527,-84.36111,
LARCENY-NON VEHICLE,160472045,02/16/2016,663 CARRIAGE WAY NW,202,Mt. Paran/Northside,A,33.86944,-84.40935,
LARCENY-NON VEHICLE,160472386,02/16/2016,2625 PIEDMONT RD NE,211,Lindbergh/Morosgo,B,33.82742,-84.36532,
LARCENY-NON VEHICLE,160291937,02/16/2016,234 MEMORIAL DR ,512,Downtown,M,33.7465,-84.39536,
LARCENY-NON VEHICLE,160472299,02/16/2016,1600 PRYOR RD SW,305,The Villages at Carver,Y,33.71266,-84.39337,
LARCENY-NON VEHICLE,160472092,02/16/2016,881 DONALD LEE HOLLOWELL PKWY NW,103,English Avenue,L,33.77345,-84.41612,
LARCENY-NON VEHICLE,160470522,02/16/2016,2881 DEERWOOD DR SW,414,Ben Hill,P,33.67104,-84.51548,
LARCENY-NON VEHICLE,160471866,02/16/2016,857 OAK ST SW,401,West End,T,33.74075,-84.41668,
LARCENY-NON VEHICLE,160471423,02/16/2016,17 SIMPSON ST NW,508,Downtown,M,33.76614,-84.3876,
LARCENY-NON VEHICLE,160472957,02/16/2016,232 FORSYTH ST SW,512,Downtown,M,33.74852,-84.39636,
LARCENY-NON VEHICLE,160472956,02/16/2016,226 RALPH D ABERNATHY BLVD SW,303,Mechanicsville,V,33.73675,-84.39489,
LARCENY-NON VEHICLE,160472569,02/16/2016,235 PEACHTREE ST NE,509,Downtown,M,33.76044,-84.38702,
LARCENY-FROM VEHICLE,160471808,02/16/2016,555 WHITEHALL ST SW,303,Mechanicsville,V,33.74297,-84.40628,
LARCENY-FROM VEHICLE,160472945,02/16/2016,1620 DELOWE DR SW,409,Adams Park,R,33.71157,-84.46225,
LARCENY-FROM VEHICLE,160473256,02/16/2016,1083 EUCLID AVE NE,602,Inman Park,N,33.76309,-84.3516,
LARCENY-FROM VEHICLE,160473202,02/16/2016,399 ILLINOIS AVE NW,107,Grove Park,J,33.76607,-84.4515,
LARCENY-FROM VEHICLE,160473126,02/16/2016,1170 HOWELL MILL RD NW,501,Home Park,E,33.7858,-84.41208,
LARCENY-FROM VEHICLE,160473105,02/16/2016,166 EDWARDS ST NW,105,Hunter Hills,K,33.75984,-84.43511,
LARCENY-FROM VEHICLE,160471271,02/16/2016,3201 MARTIN L KING JR DR NW,111,,I,33.75428,-84.49165,
LARCENY-FROM VEHICLE,160471084,02/16/2016,120 STAFFORD ST SW,104,Mozley Park,K,33.75162,-84.42689,
LARCENY-FROM VEHICLE,160471078,02/16/2016,175 PETERS ST SW,507,Castleberry Hill,M,33.7498,-84.39934,
LARCENY-FROM VEHICLE,160471045,02/16/2016,1616 PIEDMONT AVE NE @ANSLEY FOREST APT,213,Piedmont Heights,F,33.80017,-84.37036,
LARCENY-FROM VEHICLE,160470819,02/16/2016,1380 CENTRA VILLA DR,408,Venetian Hills,S,33.71809,-84.45246,
LARCENY-FROM VEHICLE,160470755,02/16/2016,555 ARGONNE DR NW,205,Arden/Habersham,C,33.8358,-84.40466,
LARCENY-FROM VEHICLE,160470732,02/16/2016,1221 ANCHOR TER SW,408,Venetian Hills,S,33.72186,-84.4502,
LARCENY-FROM VEHICLE,160473044,02/16/2016,1193 COLLIER RD NW,204,,C,33.81172,-84.4245,
LARCENY-FROM VEHICLE,160472983,02/16/2016,2345  ADAMS DR,203,Bolton,D,33.81881,-84.45333,
LARCENY-FROM VEHICLE,160470598,02/16/2016,2764 DEERWOOD LN SW,414,Ben Hill,P,33.67163,-84.51551,
LARCENY-FROM VEHICLE,160470636,02/16/2016,1601 MELROSE DR ,306,Sylvan Hills,X,33.71122,-84.42217,
LARCENY-FROM VEHICLE,160470093,02/16/2016,369 MCDANIEL ST SW,101,The Villages at Castleberry Hill,T,33.74505,-84.40523,
LARCENY-FROM VEHICLE,160461324,02/16/2016,78 BROAD ST NW,511,Downtown,M,33.75221,-84.39284,
LARCENY-FROM VEHICLE,160470547,02/16/2016,1752 PRYOR RD SW,307,Betmar LaVilla,Y,33.70731,-84.39674,
LARCENY-FROM VEHICLE,160472967,02/16/2016,1240 CHATTAHOOCHEE AVE NW,203,Blandtown,D,33.8009,-84.42858,
LARCENY-FROM VEHICLE,160470630,02/16/2016,1595 MARLBROOK DR NE,608,Candler Park,N,33.76724,-84.33534,
LARCENY-NON VEHICLE,160472606,02/16/2016,835 MARTIN L KING JR DR NW,102,Vine City,L,33.75504,-84.41457,
LARCENY-NON VEHICLE,160472311,02/16/2016,3393 PEACHTREE RD NE @Multiple,210,Lenox,B,33.84676,-84.36212,
LARCENY-NON VEHICLE,160471507,02/16/2016,3393 PEACHTREE RD NE,210,Lenox,B,33.84676,-84.36212,
LARCENY-NON VEHICLE,160471304,02/16/2016,12 BROAD ST SW,511,Downtown,M,33.7532,-84.39201,
BURGLARY-NONRES,160470265,02/16/2016,3755 CARMIA DR SW,414,Princeton Lakes,P,33.6569,-84.51004,
BURGLARY-NONRES,160470015,02/16/2016,480 JOHN WESLEY DOBBS AVE NE,604,Old Fourth Ward,M,33.75942,-84.37151,
BURGLARY-NONRES,160470467,02/16/2016,777 PONCE DE LEON AVE NE,602,Poncey-Highland,N,33.77361,-84.36187,
BURGLARY-RESIDENCE,160473152,02/16/2016,3164 CUSHMAN CIR SW,406,,I,33.74898,-84.49168,
BURGLARY-RESIDENCE,160471935,02/16/2016,2115 PIEDMONT RD NE,212,Morningside/Lenox Park,F,33.81274,-84.36659,
BURGLARY-RESIDENCE,160473264,02/16/2016,975 MYRTLE ST NE,503,Midtown,E,33.78124,-84.37908,
BURGLARY-RESIDENCE,160472589,02/16/2016,1700 STANTON RD SW,408,,R,33.70907,-84.44364,
BURGLARY-RESIDENCE,160472136,02/16/2016,2959 LEVEL RIDGE RD SE,312,Orchard Knob,Z,33.67436,-84.37979,
BURGLARY-RESIDENCE,160471266,02/16/2016,1161 COLEMAN ST SW,302,Pittsburgh,V,33.72324,-84.40424,
BURGLARY-RESIDENCE,160471871,02/16/2016,2230 PENELOPE ST NW,108,Dixie Hills,J,33.75631,-84.4575,
BURGLARY-RESIDENCE,160471098,02/16/2016,655 LYNN CIR SW,406,,I,33.73756,-84.48707,
BURGLARY-RESIDENCE,160471755,02/16/2016,172 HOWARD ST NE,610,Kirkwood,O,33.75721,-84.32358,
BURGLARY-RESIDENCE,160471372,02/16/2016,880 GLENWOOD AVE SE,606,Grant Park,W,33.73991,-84.35917,
AGG ASSAULT,160471884,02/16/2016,2882 RIVER RIDGE DR SE,312,Orchard Knob,Z,33.67593,-84.38054,
AGG ASSAULT,160461278,02/15/2016,1595 MCPHERSON AVE SE,612,East Atlanta,W,33.74351,-84.33526,
AGG ASSAULT,160452560,02/15/2016,3335 MARTIN L KING JR DR,111,Adamsville,H,33.7551,-84.49652,
AGG ASSAULT,160460334,02/15/2016,610 SPRING ST NW,509,Downtown,M,33.77101,-84.38895,
AGG ASSAULT,160462328,02/15/2016,2285 METROPOLITAN PKWY SW,309,Perkerson,X,33.69195,-84.4086,
AGG ASSAULT,160462041,02/15/2016,675 METROPOLITAN PKWY SW,301,Adair Park,V,33.73653,-84.41018,
ROBBERY-PEDESTRIAN,160462782,02/15/2016,3676 RAMSEY CIR SW,414,Princeton Lakes,P,33.66294,-84.51254,
ROBBERY-PEDESTRIAN,160461447,02/15/2016,80 JESSE HILL JR DR SE,510,Downtown,M,33.75168,-84.38198,
ROBBERY-PEDESTRIAN,160461298,02/15/2016,241 PINE ST NE,603,Old Fourth Ward,M,33.76741,-84.37989,
BURGLARY-RESIDENCE,160461931,02/15/2016,209 PEACHTREE CIR NE,502,Ansley Park,E,33.79565,-84.38516,
BURGLARY-RESIDENCE,160462753,02/15/2016,1870 CAMPBELLTON RD SW,408,,R,33.70939,-84.44964,
BURGLARY-RESIDENCE,160462102,02/15/2016,452 HILLCREST AVE NE,608,Candler Park,N,33.76653,-84.34068,
BURGLARY-RESIDENCE,160461236,02/15/2016,560 PEEPLES ST SW,401,West End,T,33.73971,-84.42024,
BURGLARY-RESIDENCE,160461783,02/15/2016,2203 MACON DR SW,310,Polar Rock,Z,33.69424,-84.39083,
BURGLARY-RESIDENCE,160461410,02/15/2016,950 MARIETTA ST NW,504,Marietta Street Artery,E,33.77689,-84.40807,
BURGLARY-RESIDENCE,160460095,02/15/2016,960 OAKLAND DR SW,402,Oakland City,S,33.72885,-84.42701,
BURGLARY-NONRES,160461933,02/15/2016,2436 BOLTON RD NW,201,,C,33.82126,-84.45414,
BURGLARY-NONRES,160460995,02/15/2016,2200 CHESHIRE BRIDGE RD NE,212,Lindridge/Martin Manor,F,33.81517,-84.35343,
BURGLARY-RESIDENCE,160462103,02/15/2016,1717 FOREST LAKES AVE SE,611,The Villages at East Lake,O,33.74367,-84.31235,
BURGLARY-RESIDENCE,160460999,02/15/2016,433 HIGHLAND AVE NE,604,Old Fourth Ward,M,33.76128,-84.37323,
BURGLARY-RESIDENCE,160461208,02/15/2016,2430 CHESHIRE BRIDGE RD NE,212,Lindridge/Martin Manor,F,33.82149,-84.35161,
BURGLARY-RESIDENCE,160462572,02/15/2016,3383 LAKE VALLEY RD NW,111,Adamsville,H,33.76469,-84.49923,
BURGLARY-RESIDENCE,160462809,02/15/2016,277 CARLYLE PARK DR NE,609,Edgewood,O,33.76055,-84.33701,
LARCENY-NON VEHICLE,160461560,02/15/2016,2841 GREENBRIAR PKWY SW @GREENBRIAR MALL,411,Greenbriar,R,33.68677,-84.49773,
LARCENY-NON VEHICLE,160462451,02/15/2016,364 HILL ST SE,605,Grant Park,W,33.74475,-84.37895,
LARCENY-NON VEHICLE,160462283,02/15/2016,ATLANTIC DR NW / 18TH ST NW,501,Atlantic Station,E,33.79242,-84.3974,
LARCENY-NON VEHICLE,160462511,02/15/2016,2745 OLD HAPEVILLE RD SW @SUMMERDALE COMMONS    ,311,Glenrose Heights,Z,33.68009,-84.3942,
LARCENY-NON VEHICLE,160461335,02/15/2016,835 MARTIN LUTHER KING JR DR,102,Vine City,L,33.75504,-84.41457,
LARCENY-NON VEHICLE,160461627,02/15/2016,12 BROAD ST SW,511,Downtown,M,33.7532,-84.39201,
LARCENY-NON VEHICLE,160462487,02/15/2016,231 18TH ST NW,501,Atlantic Station,E,33.79275,-84.39544,
LARCENY-NON VEHICLE,160462284,02/15/2016,375 18TH ST NW @TARGET,501,Atlantic Station,E,33.79303,-84.39921,
LARCENY-NON VEHICLE,160461866,02/15/2016,2625 PIEDMONT RD NE,211,Lindbergh/Morosgo,B,33.82742,-84.36532,
LARCENY-NON VEHICLE,160461754,02/15/2016,3500 PEACHTREE RD NE ,208,North Buckhead,B,33.85252,-84.36116,
LARCENY-FROM VEHICLE,160460881,02/15/2016,116 PONCE DE LEON AVE NE,505,Midtown,E,33.77248,-84.38382,
LARCENY-FROM VEHICLE,160461626,02/15/2016,WOODWARD AVE SE / WOOD ST SE,605,Grant Park,W,33.74553,-84.37254,
LARCENY-FROM VEHICLE,160461476,02/15/2016,201 MOURY AVE SW,305,The Villages at Carver,Y,33.71691,-84.39276,
LARCENY-FROM VEHICLE,160461311,02/15/2016,656 CLEBURNE TER NE,602,Poncey-Highland,N,33.7723,-84.35388,
LARCENY-FROM VEHICLE,160461252,02/15/2016,2650 LOIS LN SE,310,Browns Mill Park,Z,33.68246,-84.38735,
LARCENY-FROM VEHICLE,160461051,02/15/2016,2517 DONALD LEE HOLLOWELL PKWY NW,109,Center Hill,J,33.77605,-84.46824,
LARCENY-FROM VEHICLE,160462027,02/15/2016,2665 TUPELO ST SE,611,East Lake,O,33.74872,-84.29978,
LARCENY-FROM VEHICLE,160460877,02/15/2016,1058 RIDGE AVE SW,304,Peoplestown,V,33.72594,-84.39167,
LARCENY-FROM VEHICLE,160461809,02/15/2016,1038 W PEACHTREE ST NW,503,Midtown,E,33.78304,-84.38815,
LARCENY-FROM VEHICLE,160462580,02/15/2016,242 BOULEVARD SE,606,Cabbagetown,N,33.74798,-84.3679,
LARCENY-FROM VEHICLE,160462527,02/15/2016,3850 STONE RD SW,413,,P,33.68437,-84.51105,
LARCENY-FROM VEHICLE,160462522,02/15/2016,988 WOODBOURNE DR SW,306,Sylvan Hills,X,33.70957,-84.42057,
LARCENY-FROM VEHICLE,160461979,02/15/2016,41 BRITTANY WAY NE,210,Pine Hills,B,33.83104,-84.35516,
LARCENY-FROM VEHICLE,160460878,02/15/2016,1371 KIMBERLY RD SW,412,Ashley Courts,P,33.71871,-84.52137,
LARCENY-FROM VEHICLE,160460770,02/15/2016,455 FULTON ST SW,303,Mechanicsville,V,33.74173,-84.40283,
LARCENY-FROM VEHICLE,160460630,02/15/2016,540 HUMPFRIES ST SW,301,Mechanicsville,V,33.7399,-84.40488,
