UC2_Literal,Report Number,Report Date,Location,Beat,Neigborhood,NPU,Lat,Long,
HOMICIDE,161520625,05/31/2016,1305 OAKLAND DR,403,Oakland City,S,33.71896,-84.42892,
ROBBERY-PEDESTRIAN,161522406,05/31/2016,738 MYRTLE ST NE,505,Midtown,E,33.77482,-84.3805,
ROBBERY-PEDESTRIAN,161523145,05/31/2016,1620 HOLLYWOOD RD NW,113,Scotts Crossing,G,33.79988,-84.47023,
ROBBERY-PEDESTRIAN,161522986,05/31/2016,1425 JOSEPH E BOONE BLVD NW,107,Hunter Hills,K,33.76355,-84.433,
ROBBERY-PEDESTRIAN,161522749,05/31/2016,863 OAK ST SW,410,Fort Valley,R,33.70055,-84.45149,
ROBBERY-PEDESTRIAN,161521886,05/31/2016,446 LINDSAY ST NW,103,English Avenue,L,33.76623,-84.41659,
ROBBERY-RESIDENCE,161521559,05/31/2016,765 MCDANIEL ST SW,302,Pittsburgh,V,33.73396,-84.40177,
ROBBERY-COMMERCIAL,161520843,05/31/2016,1053 CASCADE AVE,403,Cascade Avenue/Road,S,33.72653,-84.44555,
AGG ASSAULT,161521809,05/31/2016,2001 SYLVAN RD SW @CARIBU APTS,306,Sylvan Hills,X,33.69959,-84.41862,
AGG ASSAULT,161512252,05/31/2016,1140 DOLPHIN DR SW,406,Cascade Avenue/Road,S,33.72386,-84.46165,
AGG ASSAULT,161520072,05/31/2016,2306 CAREY DR SE,310,Lakewood,Z,33.69102,-84.36971,
AGG ASSAULT,161523119,05/31/2016,2909 CAMPBELLTON RD SW,409,Southwest,R,33.69869,-84.48265,
BURGLARY-RESIDENCE,161522026,05/31/2016,2637 BUTNER RD SW,413,Butner/Tell,P,33.68323,-84.5345,
BURGLARY-RESIDENCE,161521918,05/31/2016,3226 SAVILLE ST SW,414,Princeton Lakes,P,33.66542,-84.5161,
BURGLARY-RESIDENCE,161521776,05/31/2016,2411 SANDFALL CT SW,412,Sandlewood Estates,P,33.70497,-84.54322,
BURGLARY-RESIDENCE,161522926,05/31/2016,1005 BALDWIN ST SW,104,Ashview Heights,T,33.74647,-84.42057,
BURGLARY-RESIDENCE,161521684,05/31/2016,1355 BYRERE TER TERR,403,Venetian Hills,S,33.71798,-84.43162,
BURGLARY-RESIDENCE,161522378,05/31/2016,2318 HIGHVIEW RD SW,406,Beecher Hills,I,33.72926,-84.46371,
BURGLARY-RESIDENCE,161522809,05/31/2016,1660 PEACHTREE ST NW,502,Midtown,E,33.79874,-84.39164,
BURGLARY-RESIDENCE,161521455,05/31/2016,2980 JONESBORO RD SE,313,South River Gardens,Z,33.67339,-84.37144,
BURGLARY-RESIDENCE,161520623,05/31/2016,778 MAGNOLIA WAY NW,102,Vine City,L,33.75804,-84.41371,
BURGLARY-RESIDENCE,161521603,05/31/2016,2827 CHERRY LAUREL LN SW,411,Greenbriar,R,33.69642,-84.48201,
BURGLARY-RESIDENCE,161520860,05/31/2016,595 ELMWOOD RD NW,107,Grove Park,J,33.77094,-84.43853,
BURGLARY-RESIDENCE,161521182,05/31/2016,28 GOULD ST SE,307,Lakewood Heights,Y,33.70716,-84.37759,
BURGLARY-NONRES,161520039,05/31/2016,929 CHARLES ALLEN DR,506,Midtown,E,33.78119,-84.37151,
BURGLARY-NONRES,161520398,05/31/2016,2081 BOLTON RD NW,203,Riverside,D,33.8124,-84.47223,
BURGLARY-NONRES,161520666,05/31/2016,1415 MECASLIN ST NW,501,Atlantic Station,E,33.79494,-84.39734,
BURGLARY-NONRES,161520935,05/31/2016,1820 MARIETTA BLVD NW,203,Hills Park,D,33.80431,-84.43779,
BURGLARY-NONRES,161521040,05/31/2016,937 SIMS ST SW,302,Pittsburgh,V,33.72957,-84.40329,
BURGLARY-NONRES,161521181,05/31/2016,3167 PEACHTREE RD NE,206,Buckhead Village,B,33.84031,-84.37588,
BURGLARY-NONRES,161520451,05/31/2016,349 DECATUR ST SE,604,Sweet Auburn,M,33.74988,-84.37788,
BURGLARY-RESIDENCE,161521187,05/31/2016,234 MEMORIAL DR SW,512,Downtown,M,33.7465,-84.39536,
BURGLARY-RESIDENCE,161522977,05/31/2016,820 MAGNA CARTA DR NW,112,Collier Heights,I,33.77644,-84.48151,
BURGLARY-NONRES,161522371,05/31/2016,30 IVAN ALLEN JR BLVD NW,508,Downtown,M,33.76444,-84.3884,
BURGLARY-NONRES,161520919,05/31/2016,543 10TH ST NW,501,Home Park,E,33.78166,-84.40511,
BURGLARY-RESIDENCE,161521228,05/31/2016,765 MCDANIEL ST SW,302,Pittsburgh,V,33.73396,-84.40177,
LARCENY-NON VEHICLE,161522930,05/31/2016,1974 SYLVAN RD SW,306,Sylvan Hills,X,33.70008,-84.41803,
LARCENY-NON VEHICLE,161521708,05/31/2016,507 JOSEPH E LOWERY BLVD SW,401,West End,T,33.74097,-84.41809,
LARCENY-NON VEHICLE,161521104,05/31/2016,1715 HOWELL MILL RD NW ,204,Berkeley Park,D,33.80089,-84.4157,
LARCENY-NON VEHICLE,161521818,05/31/2016,3393 PEACHTREE RD NE @Multiple,210,Lenox,B,33.84676,-84.36212,
LARCENY-NON VEHICLE,161520225,05/31/2016,1617 JOSEPH E BOONE BLVD NW,107,Grove Park,J,33.76385,-84.44072,
LARCENY-NON VEHICLE,161522260,05/31/2016,835 MARTIN L KING JR DR NW,102,Vine City,L,33.75504,-84.41457,
LARCENY-NON VEHICLE,161522922,05/31/2016,1801 HOWELL MILL RD NW,204,Berkeley Park,D,33.80388,-84.41278,
LARCENY-NON VEHICLE,161521495,05/31/2016,3730 CARMIA DR SW @PUBLIX - CARMIA,414,Princeton Lakes,P,33.65573,-84.5109,
LARCENY-FROM VEHICLE,161520817,05/31/2016,500 BISHOP ST NW,207,Loring Heights,E,33.7918,-84.40572,
LARCENY-FROM VEHICLE,161520742,05/31/2016,1544 PIEDMONT AVE NE ,213,Piedmont Heights,F,33.79789,-84.37101,
LARCENY-FROM VEHICLE,161520367,05/31/2016,735 PRINCE PL NW,109,Center Hill,J,33.77502,-84.4664,
LARCENY-FROM VEHICLE,161520101,05/31/2016,1871 HONEYSUCKLE LN SW,410,Campbellton Road,R,33.7068,-84.45326,
LARCENY-FROM VEHICLE,161520964,05/31/2016,115 W PEACHTREE PL NW,508,Downtown,M,33.7644,-84.39083,
LARCENY-FROM VEHICLE,161521070,05/31/2016,1220 MECASLIN ST NW,501,Home Park,E,33.78791,-84.39991,
LARCENY-FROM VEHICLE,161521007,05/31/2016,3850 JONESBORO RD SE @EXPOSITION CENTER,313,South River Gardens,Z,33.65088,-84.36362,
LARCENY-FROM VEHICLE,161520016,05/31/2016,46 4TH ST NW,505,Midtown,E,33.77502,-84.38903,
LARCENY-FROM VEHICLE,161520012,05/31/2016,437 MEMORIAL DR SE,605,Grant Park,W,33.74639,-84.37285,
LARCENY-FROM VEHICLE,161520098,05/31/2016,GLENWOOD AVE SE / BILL KENNEDY WAY SE,606,Ormewood Park,W,33.73976,-84.3582,
LARCENY-FROM VEHICLE,161522794,05/31/2016,801 GLENWOOD AVE SE @APS JACKSON HS,605,Grant Park,W,33.73958,-84.36161,
LARCENY-FROM VEHICLE,161522758,05/31/2016,2285 PEACHTREE RD NE @SHANGHAI RESTAURANT,211,,E,33.81637,-84.38954,
LARCENY-FROM VEHICLE,161522695,05/31/2016,1564 DEKALB AVE NE,608,Candler Park,N,33.76294,-84.33644,
LARCENY-FROM VEHICLE,161522934,05/31/2016,4371 POWERS FERRY RD,202,Chastain Park,A,33.87554,-84.39783,
LARCENY-FROM VEHICLE,161522851,05/31/2016,1120 CURRAN ST NW,501,Home Park,E,33.78551,-84.40617,
LARCENY-FROM VEHICLE,161522396,05/31/2016,1220 MECASLIN ST NW,501,Home Park,E,33.78791,-84.39991,
LARCENY-FROM VEHICLE,161522655,05/31/2016,850 OAK ST SW @WEST END MALL,401,West End,T,33.74057,-84.4168,
LARCENY-FROM VEHICLE,161522519,05/31/2016,3500 PEACHTREE RD NE,208,North Buckhead,B,33.85252,-84.36116,
LARCENY-FROM VEHICLE,161523101,05/31/2016,238 15TH ST NE,502,Ansley Park,E,33.78935,-84.37967,
LARCENY-FROM VEHICLE,161522941,05/31/2016,755 HANK AARON DR SW @TURNER FIELD,304,Summerhill,V,33.73624,-84.389,
LARCENY-FROM VEHICLE,161522966,05/31/2016,670 DALLAS ST NE,603,Old Fourth Ward,M,33.76949,-84.36363,
LARCENY-FROM VEHICLE,161523080,05/31/2016,140 WEST WIEUCA RD NW,201,West Paces Ferry/Northside,A,33.84907,-84.43003,
LARCENY-FROM VEHICLE,161522954,05/31/2016,753 EDGEWOOD AVE NE,602,Inman Park,N,33.75443,-84.36262,
LARCENY-FROM VEHICLE,161521770,05/31/2016,1220 MECASLIN ST NW,501,Home Park,E,33.78791,-84.39991,
LARCENY-FROM VEHICLE,161521829,05/31/2016,3211 MLK JR DR NW,111,,I,33.75392,-84.49196,
LARCENY-FROM VEHICLE,161521400,05/31/2016,840 MARIETTA ST NW,504,Marietta Street Artery,E,33.77522,-84.40691,
LARCENY-FROM VEHICLE,161521299,05/31/2016,742 CRESTWELL CIR SW,407,Mays,H,33.74467,-84.50391,
LARCENY-FROM VEHICLE,161521490,05/31/2016,907 MARIETTA ST NW,504,Marietta Street Artery,E,33.77697,-84.40787,
LARCENY-FROM VEHICLE,161521727,05/31/2016,734 LAKEVIEW AVE NE,506,Midtown,E,33.7748,-84.36731,
LARCENY-FROM VEHICLE,161521665,05/31/2016,126 BAKER ST NE,509,Downtown,M,33.76255,-84.38328,
LARCENY-FROM VEHICLE,161522105,05/31/2016,31 BAKER DR SW,311,Glenrose Heights,Z,33.67683,-84.3955,
LARCENY-FROM VEHICLE,161522134,05/31/2016,1505 CHATTAHOOCHEE AVE NW,204,Bolton,D,33.80986,-84.43736,
LARCENY-FROM VEHICLE,161521935,05/31/2016,2041 PRYOR RD SW,310,Polar Rock,Z,33.6978,-84.39912,
LARCENY-FROM VEHICLE,161521581,05/31/2016,207 PEACHTREE CENTER AVE NE,509,Downtown,M,33.7602,-84.38554,
LARCENY-FROM VEHICLE,161521597,05/31/2016,2289 PALMETTO ST SW,413,Fairburn,P,33.69217,-84.52537,
LARCENY-NON VEHICLE,161521925,05/31/2016,955 JUNIPER ST,503,Midtown,E,33.78083,-84.38246,
LARCENY-NON VEHICLE,161520992,05/31/2016,100 6TH ST NE,505,Midtown,E,33.77756,-84.38417,
LARCENY-NON VEHICLE,161521609,05/31/2016,125 10TH ST NE,503,Midtown,E,33.78163,-84.38311,
LARCENY-NON VEHICLE,161522047,05/31/2016,2001 SYLVAN RD SW,306,Sylvan Hills,X,33.69981,-84.4184,
LARCENY-NON VEHICLE,161521815,05/31/2016,787 LORIDANS DR NE,209,North Buckhead,B,33.87324,-84.36155,
LARCENY-NON VEHICLE,161523087,05/31/2016,1801 HOWELL MILL RD NW,204,Berkeley Park,D,33.80388,-84.41278,
LARCENY-NON VEHICLE,161522819,05/31/2016,1073 PIEDMONT AVE NE @PIEDMONT PARK,502,Midtown,E,33.78381,-84.37904,
LARCENY-NON VEHICLE,161522621,05/31/2016,208 6TH ST NE,505,Midtown,E,33.77724,-84.38073,
LARCENY-NON VEHICLE,161522534,05/31/2016,706 ELOISE ST SE,605,Grant Park,W,33.73505,-84.36257,
LARCENY-NON VEHICLE,161522145,05/31/2016,67 DANIEL ST,611,Old Fourth Ward,M,33.75239,-84.37067,
LARCENY-NON VEHICLE,161521867,05/31/2016,2147 BEECHER RD SW,406,Beecher Hills,I,33.73281,-84.45924,
LARCENY-NON VEHICLE,161521442,05/31/2016,705 UNIVERSITY AVE SW,301,Adair Park,V,33.72228,-84.41051,
LARCENY-NON VEHICLE,161521407,05/31/2016,175  PEACHTREE ST SW,512,Downtown,M,33.74985,-84.39389,
LARCENY-NON VEHICLE,161521780,05/31/2016,957 NORTH AVE NW,106,Bankhead,K,33.769,-84.41889,
LARCENY-NON VEHICLE,161521208,05/31/2016,1363 PLAZA AVE,402,Bush Mountain,S,33.72831,-84.43236,
LARCENY-NON VEHICLE,161520674,05/31/2016,898 OAK ST SW,401,West End,T,33.74057,-84.41738,
LARCENY-NON VEHICLE,161520193,05/31/2016,48 CLEVELAND AVE SE,310,Browns Mill Park,Z,33.68153,-84.38708,
LARCENY-NON VEHICLE,161521817,05/31/2016,1160 MOORES MILL RD NW,201,Brandon,C,33.83133,-84.42498,
AUTO THEFT,161521161,05/31/2016,445 CLEVELAND AVE SE,312,Rosedale Heights,Z,33.68149,-84.37152,
AUTO THEFT,161522956,05/31/2016,3440 BOULDER PARK DR SW,405,Harland Terrace,I,33.75148,-84.48809,
AUTO THEFT,161522987,05/31/2016,183 MOUNT ZION RD,312,Glenrose Heights,Z,33.67268,-84.38507,
AUTO THEFT,161522995,05/31/2016,554 LAWTON ST SW,401,West End,T,33.73999,-84.42315,
AUTO THEFT,161520889,05/31/2016,1220 MECASLIN ST NW,501,Home Park,E,33.78791,-84.39991,
AUTO THEFT,161520869,05/31/2016,1195 MILTON TER SE,305,Chosewood Park,Y,33.72186,-84.38105,
AUTO THEFT,161521736,05/31/2016,3730 CARMIA DR SW @PUBLIX - CARMIA,414,Princeton Lakes,P,33.65636,-84.51073,
AUTO THEFT,161521551,05/31/2016,1630 JONESBORO RD SE,307,Lakewood Heights,Y,33.70722,-84.37976,
AUTO THEFT,161522668,05/31/2016,1865 CHESHIRE BRIDGE RD NE @CHESHIRE MOTOR INN,213,Morningside/Lenox Park,F,33.80864,-84.36137,
AUTO THEFT,161522332,05/31/2016,3691 COLLIER DR NW,114,Fairburn Heights,H,33.76969,-84.50678,
AUTO THEFT,161521248,05/31/2016,3901 CAMPBELLTON RD SW,412,Kings Forest,P,33.69231,-84.51621,
AUTO THEFT,161522176,05/31/2016,3215 CONTINENTAL COLONY PKWY SW,411,Greenbriar,R,33.67999,-84.49393,
AUTO THEFT,161522516,05/31/2016,185 MARTHA AVE,610,Kirkwood,O,33.75746,-84.31367,
AUTO THEFT,161520616,05/31/2016,2980 JONESBORO RD SE,313,South River Gardens,Z,33.67339,-84.37144,
AUTO THEFT,161520267,05/31/2016,2656 DONALD LEE HOLLOWELL PKWY NW,112,Collier Heights,I,33.77619,-84.47402,
AUTO THEFT,161521389,05/31/2016,669 MAGNOLIA ST,102,Vine City,L,33.75835,-84.40942,
AUTO THEFT,161510484,05/30/2016,3984 FERRY LN SW,407,Baker Hills,H,33.757,-84.51805,
AUTO THEFT,161512266,05/30/2016,49 BOULEVARD NE,604,Old Fourth Ward,M,33.75565,-84.37202,
AUTO THEFT,161511900,05/30/2016,131 PONCE DE LEON AVE NE,505,Midtown,E,33.77234,-84.38307,
AUTO THEFT,161511789,05/30/2016,2405 FAIRBURN RD SW @BEN HILL PARK,413,,P,33.6889,-84.51291,
AUTO THEFT,161511270,05/30/2016,GA 400 SB EXPY NE / LENOX RD NE,208,North Buckhead,B,33.85177,-84.3699,
AUTO THEFT,161511175,05/30/2016,816 MAGNOLIA WAY NW,102,Vine City,L,33.75805,-84.41421,
AUTO THEFT,161511023,05/30/2016,241 AARON ST NW,108,Penelope Neighbors,J,33.75406,-84.45141,
AUTO THEFT,161510888,05/30/2016,3672 CROSBY DR NW,114,Carroll Heights,H,33.77327,-84.50829,
AUTO THEFT,161510164,05/30/2016,3501 MARK PL NW,114,Fairburn Heights,H,33.77443,-84.50186,
AUTO THEFT,161510122,05/30/2016,3424 MARTIN L KING JR DR SW @ADAMSVILLE-COLLIER H,407,Adamsville,H,33.75503,-84.50014,
AUTO THEFT,161510858,05/30/2016,1425 ELLSWORTH INDUSTRIAL BLVD NW,203,Blandtown,D,33.79388,-84.42575,
AUTO THEFT,161510740,05/30/2016,659 PEACHTREE ST NE @GEORGIAN TERRACE,505,Midtown,E,33.77258,-84.38449,
LARCENY-NON VEHICLE,161510397,05/30/2016,3012 JONESBORO RD SE,313,South River Gardens,Z,33.67225,-84.37156,
LARCENY-NON VEHICLE,161511030,05/30/2016,190 MARIETTA ST NW,507,Downtown,M,33.75857,-84.39422,
LARCENY-NON VEHICLE,161510037,05/30/2016,100 CENTENNIAL OLYMPIC P DR SW,507,Castleberry Hill,M,33.75223,-84.39888,
LARCENY-NON VEHICLE,161511703,05/30/2016,820 N HIGHLAND AVE NE,601,Virginia Highland,F,33.77702,-84.35269,
LARCENY-NON VEHICLE,161511137,05/30/2016,3201 ATLANTA INDUSTRIAL PKWY NW,114,Atlanta Industrial Park,G,33.79145,-84.49587,
LARCENY-FROM VEHICLE,161511545,05/30/2016,1000 COLLIER RD NW,204,Underwood Hills,D,33.80979,-84.42049,
LARCENY-FROM VEHICLE,161511734,05/30/2016,2479 ABNER TER NW,110,Scotts Crossing,G,33.80106,-84.46803,
LARCENY-FROM VEHICLE,161511603,05/30/2016,596 MONTGOMERY FERRY RD NE,213,Piedmont Heights,F,33.80353,-84.36836,
LARCENY-FROM VEHICLE,161511229,05/30/2016,835 MARTIN L KING JR DR NW,102,Vine City,L,33.75504,-84.41457,
LARCENY-FROM VEHICLE,161511584,05/30/2016,135 W WIEUCA RD NW @CHASTAIN PARK,202,Chastain Park,A,33.87589,-84.39202,
LARCENY-FROM VEHICLE,161510258,05/30/2016,211 AARON ST NW,108,Penelope Neighbors,J,33.75304,-84.45124,
LARCENY-FROM VEHICLE,161510678,05/30/2016,98 CONE ST NW,508,Downtown,M,33.75746,-84.3911,
LARCENY-FROM VEHICLE,161511978,05/30/2016,360  MCAFEE ST NW,504,Downtown,M,33.76533,-84.39458,
LARCENY-FROM VEHICLE,161510131,05/30/2016,350 PETERS ST SW,507,Castleberry Hill,M,33.74519,-84.40311,
LARCENY-FROM VEHICLE,161510180,05/30/2016,925 BOWEN ST NW,207,Berkeley Park,D,33.79722,-84.41797,
LARCENY-FROM VEHICLE,161510265,05/30/2016,204 MOURY AVE SW,305,The Villages at Carver,Y,33.71678,-84.39291,
LARCENY-FROM VEHICLE,161510323,05/30/2016,1396 GAULT ST SE,305,Chosewood Park,Y,33.71618,-84.37203,
LARCENY-FROM VEHICLE,161512165,05/30/2016,1600 ELLSWORTH INDUSTRIAL BLVD NW,203,Blandtown,D,33.79826,-84.42811,
LARCENY-FROM VEHICLE,161510551,05/30/2016,2007 MOREHOUSE DR NW,108,Dixie Hills,J,33.7613,-84.45299,
LARCENY-FROM VEHICLE,161510595,05/30/2016,2781 GLENWOOD AVE SE,611,East Lake,O,33.73938,-84.29618,
LARCENY-FROM VEHICLE,161510542,05/30/2016,443 MORELAND AVE SE,606,Ormewood Park,W,33.74179,-84.34973,
LARCENY-FROM VEHICLE,161510605,05/30/2016,505 W ONTARIO AVE SW,404,Westview,T,33.74127,-84.44004,
LARCENY-FROM VEHICLE,161510830,05/30/2016,3448 ROLLING GREEN RDG SW,412,Heritage Valley,P,33.70938,-84.50153,
LARCENY-FROM VEHICLE,161510836,05/30/2016,100 LUCKIE ST NW,508,Downtown,M,33.7573,-84.38992,
LARCENY-FROM VEHICLE,161510066,05/30/2016,1991 HOWELL MILL RD NW,205,Channing Valley,C,33.80902,-84.41277,
LARCENY-FROM VEHICLE,161510095,05/30/2016,2020 BOLTON RD NW,203,Riverside,D,33.81125,-84.47594,
LARCENY-FROM VEHICLE,161510105,05/30/2016,3424 MARTIN L KING JR DR SW,407,Adamsville,H,33.75503,-84.50014,
LARCENY-FROM VEHICLE,161510043,05/30/2016,3393 PEACHTREE RD NE @LENOX MALL,210,Lenox,B,33.84676,-84.36212,
LARCENY-FROM VEHICLE,161511047,05/30/2016,501 CENTER HILL AVE NW,109,Center Hill,J,33.76895,-84.46353,
LARCENY-FROM VEHICLE,161511108,05/30/2016,2 BAKER ST NE,509,Downtown,M,33.76234,-84.38731,
LARCENY-FROM VEHICLE,161511233,05/30/2016,595 PIEDMONT AVE NE @PUBLIX - PIEDMONT,603,Old Fourth Ward,M,33.77067,-84.38023,
LARCENY-FROM VEHICLE,161511159,05/30/2016,1839 PEACHTREE RD NW,207,,E,33.80671,-84.39389,
LARCENY-FROM VEHICLE,161511678,05/30/2016,330 PINE ST NE,603,Old Fourth Ward,M,33.76741,-84.37686,
LARCENY-FROM VEHICLE,161511657,05/30/2016,PEACHTREE WALK NE/ 11TH ST NE,503,Midtown,E,33.78369,-84.38646,
LARCENY-FROM VEHICLE,161511217,05/30/2016,968 MEMORIAL DR SE,606,Reynoldstown,N,33.74676,-84.35595,
LARCENY-FROM VEHICLE,161510966,05/30/2016,4055 ROSWELL RD NE,209,North Buckhead,B,33.86584,-84.37985,
LARCENY-FROM VEHICLE,161511006,05/30/2016,1000 MARIETTA ST NW,504,Marietta Street Artery,E,33.77914,-84.41116,
LARCENY-FROM VEHICLE,161511918,05/30/2016,1025 HOWELL MILL RD NW,501,Home Park,E,33.78285,-84.41126,
LARCENY-FROM VEHICLE,161510969,05/30/2016,802 PRYOR ST,303,Mechanicsville,V,33.73265,-84.39372,
LARCENY-FROM VEHICLE,161511911,05/30/2016,537 PARK AVE SE,605,Grant Park,W,33.74031,-84.37167,
LARCENY-FROM VEHICLE,161510925,05/30/2016,840 MARIETTA ST NW,504,Marietta Street Artery,E,33.77522,-84.40691,
LARCENY-FROM VEHICLE,161511830,05/30/2016,156 FORSYTH ST SW,512,Downtown,M,33.75017,-84.39515,
LARCENY-FROM VEHICLE,161510957,05/30/2016,1160 MOORES MILL RD,201,Brandon,C,33.83133,-84.42498,
LARCENY-FROM VEHICLE,161510965,05/30/2016,1425 ELLSWORTH INDUSTRIAL BLVD NW,203,Blandtown,D,33.79388,-84.42575,
LARCENY-FROM VEHICLE,161511319,05/30/2016,3393 PEACHTREE RD NE,210,Lenox,B,33.84676,-84.36212,
LARCENY-FROM VEHICLE,161511330,05/30/2016,659 AUBURN AVE NE,604,Old Fourth Ward,M,33.75599,-84.36628,
LARCENY-FROM VEHICLE,161511337,05/30/2016,3330 PIEDMONT RD NE ,208,Buckhead Forest,B,33.84564,-84.37462,
LARCENY-FROM VEHICLE,161511338,05/30/2016,999 JEFFERSON ST NW,106,Knight Park/Howell Station,K,33.77569,-84.42006,
LARCENY-FROM VEHICLE,161511347,05/30/2016,716 PONCE DE LEON PL NE @PARIS ON PONCE,601,Virginia Highland,F,33.77389,-84.36396,
LARCENY-FROM VEHICLE,161511440,05/30/2016,441 16TH ST NW @IKEA,501,Atlantic Station,E,33.78874,-84.40468,
LARCENY-FROM VEHICLE,161511157,05/30/2016,3050 MARTIN L KING JR DR SW,405,Harland Terrace,I,33.75177,-84.4857,
LARCENY-FROM VEHICLE,161511025,05/30/2016,2350 CARVER DR NW,108,Dixie Hills,J,33.75973,-84.4645,
LARCENY-NON VEHICLE,161511485,05/30/2016,835 MARTIN L KING JR DR NW,102,Vine City,L,33.75504,-84.41457,
LARCENY-NON VEHICLE,161511370,05/30/2016,835 MARTIN L KING JR DR NW,102,Vine City,L,33.75504,-84.41457,
LARCENY-NON VEHICLE,161511346,05/30/2016,3393 PEACHTREE RD NE,210,Lenox,B,33.84676,-84.36212,
LARCENY-NON VEHICLE,161511279,05/30/2016,375 18TH ST NW @TARGET - 18TH,501,Atlantic Station,E,33.79303,-84.39921,
LARCENY-NON VEHICLE,161511427,05/30/2016,1350 JOSEPH E BOONE BLVD NW,105,Hunter Hills,K,33.76333,-84.43206,
LARCENY-NON VEHICLE,161510525,05/30/2016,1250 W PACES FERRY RD NW,202,West Paces Ferry/Northside,A,33.84862,-84.42869,
LARCENY-NON VEHICLE,161510587,05/30/2016,2099 PEACHTREE RD NE,207,,E,33.81196,-84.39139,
LARCENY-NON VEHICLE,161511093,05/30/2016,3030 HEADLAND DR SW,411,Greenbriar,R,33.68841,-84.48742,
LARCENY-NON VEHICLE,161511176,05/30/2016,1275 CAROLINE ST NE @TARGET - CAROLINE,609,Edgewood,O,33.75684,-84.3461,
LARCENY-NON VEHICLE,161512017,05/30/2016,267 MARIETTA STREET,508,Downtown,M,33.76071,-84.39469,
BURGLARY-NONRES,161512098,05/30/2016,1231 GLENWOOD AVE SE,612,East Atlanta,W,33.73984,-84.34733,
BURGLARY-NONRES,161512162,05/30/2016,1120 RALPH D ABERNATHY BLVD SW,402,West End,T,33.73801,-84.42451,
BURGLARY-RESIDENCE,161511729,05/30/2016,755 NORTH AVE NE,602,Poncey-Highland,N,33.77104,-84.36209,
BURGLARY-RESIDENCE,161510015,05/30/2016,2115 PIEDMONT RD NE,212,Morningside/Lenox Park,F,33.81274,-84.36659,
BURGLARY-NONRES,161510472,05/30/2016,288 CHEROKEE PL SE,605,Grant Park,W,33.73801,-84.37819,
BURGLARY-NONRES,161510940,05/30/2016,1350 JOSEPH E BOONE BLVD NW,105,Hunter Hills,K,33.76333,-84.43206,
BURGLARY-NONRES,161510704,05/30/2016,394 CLEVELAND AVE SW,311,Hammond Park,X,33.6806,-84.40164,
BURGLARY-RESIDENCE,161511904,05/30/2016,210 GREENHAVEN DR SE,611,The Villages at East Lake,O,33.74157,-84.31314,
BURGLARY-RESIDENCE,161511928,05/30/2016,3378 GREENBRIAR PKWY SW,413,,P,33.68387,-84.50204,
BURGLARY-RESIDENCE,161510666,05/30/2016,1993 BENT CREEK WAY SW,410,Campbellton Road,R,33.70084,-84.46568,
BURGLARY-RESIDENCE,161512270,05/30/2016,349 PEYTON RD SW,406,Peyton Forest,I,33.74656,-84.47844,
BURGLARY-RESIDENCE,161510050,05/30/2016,745 FOUNTAINHEAD LN NE,211,Lindbergh/Morosgo,B,33.81912,-84.36408,
BURGLARY-RESIDENCE,161512196,05/30/2016,1057 FAIR ST SW,104,Ashview Heights,T,33.74926,-84.42233,
BURGLARY-RESIDENCE,161510915,05/30/2016,49 BOULEVARD SE,604,Sweet Auburn,M,33.75275,-84.37186,
BURGLARY-RESIDENCE,161511652,05/30/2016,771 LINDBERGH DR NE,211,Lindbergh/Morosgo,B,33.82055,-84.36241,
BURGLARY-RESIDENCE,161511237,05/30/2016,702 MYRTLE ST NE,505,Midtown,E,33.77377,-84.38025,
AGG ASSAULT,161510375,05/30/2016,415 MORELAND AVE SE,606,Ormewood Park,W,33.74265,-84.34963,
AGG ASSAULT,161512129,05/30/2016,600 MARTIN ST SE,304,Summerhill,V,33.73831,-84.38396,
AGG ASSAULT,161510956,05/30/2016,3725 PRINCETON LAKES PKWY SW,414,Princeton Lakes,P,33.65908,-84.50847,
AGG ASSAULT,161512081,05/30/2016,231 PEACHTREE CENTER AVE NE,509,Downtown,M,33.76002,-84.38616,
AGG ASSAULT,161510062,05/30/2016,125 UNIVERSITY AVE SW,304,Peoplestown,V,33.72175,-84.39264,
AGG ASSAULT,161511938,05/30/2016,960 CONSTITUTION RD,308,Norwood Manor,Z,33.69307,-84.35805,
ROBBERY-RESIDENCE,161512203,05/30/2016,2745 OLD HAPEVILLE RD SW,311,Glenrose Heights,Z,33.67992,-84.39348,
ROBBERY-COMMERCIAL,161511194,05/30/2016,132 JOSEPH E LOWERY BLVD NW,105,Washington Park,K,33.75871,-84.41774,
ROBBERY-PEDESTRIAN,161511209,05/30/2016,477 PEACHTREE ST NE,509,Downtown,M,33.76764,-84.38524,
ROBBERY-PEDESTRIAN,161512312,05/30/2016,960 E PACES FERRY RD NE,210,Buckhead Heights,B,33.84691,-84.35618,
ROBBERY-PEDESTRIAN,161510225,05/30/2016,364 SINCLAIR AVE NE,602,Inman Park,N,33.7641,-84.3539,
ROBBERY-PEDESTRIAN,161510457,05/30/2016,1829 CAMPBELLTON RD SW,408,Venetian Hills,S,33.71,-84.44863,
ROBBERY-PEDESTRIAN,161500114,05/29/2016,120 MARIETTA ST NW @GLENN BUILDING,507,Downtown,M,33.75713,-84.39294,
HOMICIDE,161482899,05/29/2016,1157 INDALE PL SW,403,Oakland City,S,33.72343,-84.42885,
ROBBERY-RESIDENCE,161501214,05/29/2016,930 SELLS AVE SW,104,Harris Chiles,T,33.74532,-84.41841,
AGG ASSAULT,161500093,05/29/2016,799 COOPER ST SW,303,Mechanicsville,V,33.73303,-84.39734,
AGG ASSAULT,161500635,05/29/2016,1204 BRONX ST NW,105,Hunter Hills,K,33.75744,-84.42703,
BURGLARY-RESIDENCE,161501590,05/29/2016,49 BOULEVARD SE,604,Sweet Auburn,M,33.75275,-84.37186,
BURGLARY-RESIDENCE,161501493,05/29/2016,1494 WESTWOOD AVE SW,404,Westview,T,33.73788,-84.43661,
BURGLARY-RESIDENCE,161502379,05/29/2016,2788 DEFOORS FERRY RD NW,201,,C,33.82114,-84.44713,
BURGLARY-RESIDENCE,161501125,05/29/2016,982 HILBURN DR SE,612,East Atlanta,W,33.72782,-84.32713,
BURGLARY-RESIDENCE,161502234,05/29/2016,1461 CENTRA VILLA DR SW,409,Adams Park,R,33.71548,-84.45366,
BURGLARY-RESIDENCE,161500286,05/29/2016,635 S GRAND AVE NW,109,Center Hill,J,33.77247,-84.46243,
BURGLARY-NONRES,161501963,05/29/2016,720 CLIFTON RD SE,612,East Atlanta,W,33.73445,-84.32967,
BURGLARY-NONRES,161500588,05/29/2016,2640 METROPOLITAN PKWY SW,309,Perkerson,X,33.68243,-84.40766,
BURGLARY-NONRES,161500806,05/29/2016,2179 CHESHIRE BRIDGE RD NE,213,Lindridge/Martin Manor,F,33.81438,-84.35297,
BURGLARY-NONRES,161502305,05/29/2016,1098 MORELAND AVE SE,607,East Atlanta,W,33.72471,-84.34932,
LARCENY-NON VEHICLE,161501954,05/29/2016,2841 GREENBRIAR PKWY SW @GREENBRIAR MALL,411,Greenbriar,R,33.68677,-84.49773,
LARCENY-NON VEHICLE,161501680,05/29/2016,2841 GREENBRIAR PKWY SW @MAGIC JOHNSON,411,Greenbriar,R,33.68677,-84.49773,
LARCENY-NON VEHICLE,161501153,05/29/2016,375 18TH ST NW @TARGET - 18TH,501,Atlantic Station,E,33.79303,-84.39921,
LARCENY-FROM VEHICLE,161502195,05/29/2016,1026 EDIE AVE SE,607,Boulevard Heights,W,33.72665,-84.36318,
LARCENY-FROM VEHICLE,161500393,05/29/2016,820 SIDNEY MARCUS BLVD NE,211,Lindbergh/Morosgo,B,33.8257,-84.36113,
LARCENY-FROM VEHICLE,161500509,05/29/2016,608 14TH ST NW,501,Home Park,E,33.78578,-84.40707,
LARCENY-FROM VEHICLE,161501767,05/29/2016,257 MILLS ST NW,504,Downtown,M,33.76534,-84.39613,
LARCENY-FROM VEHICLE,161502089,05/29/2016,441 16TH ST NW @IKEA,501,Atlantic Station,E,33.78874,-84.40468,
LARCENY-FROM VEHICLE,161501998,05/29/2016,711 COSMOPOLITAN DR NE,211,Lindbergh/Morosgo,B,33.82144,-84.36218,
LARCENY-FROM VEHICLE,161502073,05/29/2016,2500 CENTER ST NW,113,Carey Park,G,33.78999,-84.47156,
LARCENY-FROM VEHICLE,161501392,05/29/2016,181 PEACHTREE ST NE @RITZ,510,Downtown,M,33.75861,-84.3872,
LARCENY-FROM VEHICLE,161500647,05/29/2016,2020 HOWELL MILL RD NW @PUBLIX - HOWELL,205,Wildwood (NPU-C),C,33.81022,-84.41347,
LARCENY-FROM VEHICLE,161500676,05/29/2016,159 INTERLOCHEN DR NE,209,East Chastain Park,B,33.86852,-84.38242,
LARCENY-FROM VEHICLE,161501090,05/29/2016,438 MCAFEE ST NW,504,Downtown,M,33.76576,-84.39468,
LARCENY-FROM VEHICLE,161501220,05/29/2016,55 BENNETT ST NW,207,,C,33.81219,-84.3942,
LARCENY-FROM VEHICLE,161500748,05/29/2016,1561 S GORDON ST SW,404,Westview,T,33.74001,-84.43878,
LARCENY-FROM VEHICLE,161500755,05/29/2016,759 POLLARD BLVD SW @HOWARD JOHNSONS ,304,Summerhill,V,33.73405,-84.39127,
LARCENY-FROM VEHICLE,161500826,05/29/2016,3376 PEACHTREE RD NE,208,North Buckhead,B,33.84934,-84.3664,
LARCENY-FROM VEHICLE,161501056,05/29/2016,396 LUCKIE ST NW,504,Downtown,M,33.76543,-84.39623,
LARCENY-FROM VEHICLE,161501088,05/29/2016,75 MARTIN L KING JR DR SW,511,Downtown,M,33.75119,-84.38996,
LARCENY-FROM VEHICLE,161501227,05/29/2016, 59 HOWELL ST NE ,604,Old Fourth Ward,M,33.75599,-84.36974,
LARCENY-FROM VEHICLE,161501212,05/29/2016,2779 GLENLOCKE CIR NW,113,Monroe Heights,G,33.79726,-84.48115,
LARCENY-FROM VEHICLE,161501175,05/29/2016,1955 COMPTON DR SE @SOUTH BEND PARK,307,Lakewood Heights,Y,33.69844,-84.38313,
LARCENY-FROM VEHICLE,161500033,05/29/2016,1529 PIEDMONT AVE NE,213,Morningside/Lenox Park,F,33.79625,-84.36946,
LARCENY-FROM VEHICLE,161502277,05/29/2016,604 GLENN ST SW,303,Pittsburgh,V,33.7381,-84.40738,
LARCENY-FROM VEHICLE,161502267,05/29/2016,771 FRASER ST SE,304,Summerhill,V,33.73355,-84.38662,
LARCENY-FROM VEHICLE,161481939,05/29/2016,399 17TH ST NW,501,Atlantic Station,E,33.79021,-84.40208,
LARCENY-FROM VEHICLE,161501981,05/29/2016,2488 BAKER RD NW,109,Center Hill,J,33.76933,-84.4689,
LARCENY-FROM VEHICLE,161500961,05/29/2016,349 DECATUR ST SE,604,Sweet Auburn,M,33.74993,-84.37706,
LARCENY-NON VEHICLE,161501377,05/29/2016,790 HUFF RD NW,203,Blandtown,D,33.78768,-84.41319,
LARCENY-NON VEHICLE,161501665,05/29/2016,1801 HOWELL MILL RD NW,204,Berkeley Park,D,33.80388,-84.41278,
LARCENY-NON VEHICLE,161500497,05/29/2016,730 BONAVENTURE AVE NE,601,Virginia Highland,F,33.77441,-84.36107,
AUTO THEFT,161500526,05/29/2016,131 GRAPE ST NE,604,Old Fourth Ward,M,33.75784,-84.37117,
AUTO THEFT,161502384,05/29/2016,3030 HEADLAND DR SW,411,Greenbriar,R,33.68841,-84.48742,
AUTO THEFT,161501821,05/29/2016,3340 PEACHTREE RD NE @TOWER PLACE,208,North Buckhead,B,33.84743,-84.37089,
AUTO THEFT,161501583,05/29/2016,3040 HEADLAND DR SW,411,Greenbriar,R,33.68948,-84.48818,
AUTO THEFT,161501442,05/29/2016,1900 NORTH AVE NW,107,Grove Park,J,33.76825,-84.44953,
AUTO THEFT,161501346,05/29/2016,1935 ALISON CT SW,410,Fort Valley,R,33.70055,-84.45149,
AUTO THEFT,161500578,05/29/2016,104 BOULEVARD SE,604,Old Fourth Ward,M,33.75176,-84.37097,
AUTO THEFT,161501383,05/29/2016,2467 SCOTTRIDGE DR NW,108,Harvel Homes Community,J,33.75909,-84.46792,
AUTO THEFT,161492759,05/28/2016,450 CENTENNIAL OLYMPIC PKWY,504,Downtown,M,33.76662,-84.3919,
AUTO THEFT,161492269,05/28/2016,3390 FAIRBURN RD SW,414,Ben Hill,P,33.6632,-84.52404,
AUTO THEFT,161491198,05/28/2016,1241 METROPOLITAN PKWY,301,Capitol View,X,33.71272,-84.41349,
AUTO THEFT,161492206,05/28/2016,1077 FOUNTAIN DR SW,104,Ashview Heights,T,33.75222,-84.42296,
AUTO THEFT,161491384,05/28/2016,255 PEACHTREE ST NE,509,Downtown,M,33.76143,-84.38744,
AUTO THEFT,161491302,05/28/2016,3300 LENOX RD NE,210,Pine Hills,B,33.84349,-84.35825,
AUTO THEFT,161491172,05/28/2016,2087 LIBERTY CT NW,204,Bolton,D,33.81794,-84.44166,
AUTO THEFT,161491129,05/28/2016,870 MAYSON TURNER RD NW,107,Grove Park,J,33.7713,-84.43396,
AUTO THEFT,161491066,05/28/2016,1326 WHITE ST SW,402,West End,T,33.73738,-84.43154,
AUTO THEFT,161490704,05/28/2016,1388 JOSEPH E BOONE BLVD NW,105,Hunter Hills,K,33.7633,-84.43337,
LARCENY-NON VEHICLE,161491227,05/28/2016,2820 PEACHTREE RD NW,206,Peachtree Heights West,B,33.83196,-84.38513,
LARCENY-NON VEHICLE,161490786,05/28/2016,509 ATWOOD ST SW,401,West End,T,33.74117,-84.42913,
LARCENY-NON VEHICLE,161491439,05/28/2016,710 PEACHTREE ST NE @HOWELL HOUSE,505,Midtown,E,33.77407,-84.38526,
LARCENY-NON VEHICLE,161491369,05/28/2016,641 NORTH AVE NE,603,Old Fourth Ward,M,33.77103,-84.36618,
LARCENY-NON VEHICLE,161491326,05/28/2016,171 AUBURN AVE NE,510,Downtown,M,33.75546,-84.38185,
LARCENY-NON VEHICLE,161491143,05/28/2016,1073 PIEDMONT AVE NE,502,Virginia Highland,F,33.78627,-84.37049,
LARCENY-NON VEHICLE,161491952,05/28/2016,1275 CAROLINE ST NE @TARGET - CAROLINE,609,Edgewood,O,33.75684,-84.3461,
LARCENY-FROM VEHICLE,161492629,05/28/2016,490 GLENN ST SW,303,Mechanicsville,V,33.73805,-84.40262,
LARCENY-FROM VEHICLE,161491604,05/28/2016,1919 METROPOLITAN PKWY SW,306,Sylvan Hills,X,33.70278,-84.41017,
LARCENY-FROM VEHICLE,161491929,05/28/2016,1747  METROPOLITAN PKWY SW,306,Sylvan Hills,X,33.70597,-84.40813,
LARCENY-FROM VEHICLE,161490714,05/28/2016,924 SOCIETY CIR SW,407,Mays,H,33.74693,-84.50081,
LARCENY-FROM VEHICLE,161490471,05/28/2016,3752 ROSWELL RD NE,209,East Chastain Park,B,33.85729,-84.38201,
LARCENY-FROM VEHICLE,161490538,05/28/2016,448 RALPH D ABERNATHY BLVD SW,303,Mechanicsville,V,33.73642,-84.40248,
LARCENY-FROM VEHICLE,161491301,05/28/2016,806 MAIDEN LN NE,601,Virginia Highland,F,33.77471,-84.36062,
LARCENY-FROM VEHICLE,161490494,05/28/2016,732 BONAVENTURE AVE NE,601,Virginia Highland,F,33.77452,-84.36118,
LARCENY-FROM VEHICLE,161490502,05/28/2016,521 EDGEWOOD AVE,604,Old Fourth Ward,M,33.75397,-84.37055,
LARCENY-FROM VEHICLE,161490464,05/28/2016,920 BOWEN ST NE,207,Berkeley Park,D,33.79722,-84.41797,
LARCENY-FROM VEHICLE,161490727,05/28/2016,595 NORTH AVE NW,103,English Avenue,L,33.77013,-84.40695,
LARCENY-FROM VEHICLE,161490845,05/28/2016,269 MARIETTA ST NW,508,Downtown,M,33.76087,-84.39542,
LARCENY-FROM VEHICLE,161491064,05/28/2016,1569 LIBERTY PKWY NW,204,Bolton,D,33.81753,-84.44048,
LARCENY-FROM VEHICLE,161491155,05/28/2016,935 MARIETTA ST NW,504,Marietta Street Artery,E,33.7778,-84.40865,
LARCENY-FROM VEHICLE,161490456,05/28/2016,658 TRAVIS ST NW,103,English Avenue,L,33.77236,-84.40851,
LARCENY-FROM VEHICLE,161490017,05/28/2016,1574 CRAFTSMAN RD NW,110,Rockdale,G,33.78693,-84.44644,
LARCENY-FROM VEHICLE,161490331,05/28/2016,3639 PIEDMONT RD NE,209,North Buckhead,B,33.85408,-84.38196,
LARCENY-FROM VEHICLE,161490193,05/28/2016,HOWELL MILL RD NW / COLLIER RD NW,205,Channing Valley,C,33.80944,-84.41286,
LARCENY-FROM VEHICLE,161490274,05/28/2016,1231 GLENWOOD AVE SE,612,East Atlanta,W,33.73984,-84.34733,
LARCENY-FROM VEHICLE,161491594,05/28/2016,1203 W PACES FERRY RD NW,202,Randall Mill,A,33.85005,-84.4274,
LARCENY-FROM VEHICLE,161492523,05/28/2016,333  ANGIER AVE NE,603,Old Fourth Ward,M,33.76704,-84.37691,
LARCENY-FROM VEHICLE,161492683,05/28/2016,400 TRABERT AVE NW,207,Loring Heights,E,33.79429,-84.40109,
LARCENY-FROM VEHICLE,161492524,05/28/2016,3393 PEACHTREE RD NE @LENOX SQUARE,210,Lenox,B,33.84676,-84.36212,
LARCENY-FROM VEHICLE,161492446,05/28/2016,400 TRABERT AVE NW,207,Loring Heights,E,33.79429,-84.40109,
LARCENY-FROM VEHICLE,161492047,05/28/2016,1876 PERRY BLVD NW,110,West Highlands,G,33.7941,-84.44865,
LARCENY-FROM VEHICLE,161492290,05/28/2016,2641 ACORN AVE NE,206,Garden Hills,B,33.82706,-84.37822,
LARCENY-FROM VEHICLE,161492380,05/28/2016,828 RALPH MCGILL BLVD NE,602,Poncey-Highland,N,33.76826,-84.36043,
LARCENY-FROM VEHICLE,161491585,05/28/2016,3670 CAMP CREEK PKWY,414,Princeton Lakes,P,33.655,-84.50859,
LARCENY-FROM VEHICLE,161491557,05/28/2016,2975 HEADLAND DR SW @BIG LOTS - HEADLAND,411,Greenbriar,R,33.69168,-84.4872,
LARCENY-FROM VEHICLE,161491736,05/28/2016,1950 HOWELL MILL RD NW,205,Wildwood (NPU-C),C,33.80805,-84.41282,
LARCENY-FROM VEHICLE,161491786,05/28/2016,132 10TH ST NE,503,Midtown,E,33.78175,-84.3825,
LARCENY-FROM VEHICLE,161491715,05/28/2016,464 ANGIER AVE NE,603,Old Fourth Ward,M,33.76648,-84.3717,
LARCENY-FROM VEHICLE,161491452,05/28/2016,135 W WIEUCA RD NW ,202,Chastain Park,A,33.87589,-84.39202,
LARCENY-FROM VEHICLE,161491606,05/28/2016,1325 PLAZA AVE SW,402,Bush Mountain,S,33.7283,-84.43113,
LARCENY-NON VEHICLE,161492230,05/28/2016,689 CASCADE AVE SW,404,Westview,T,33.73636,-84.4368,
LARCENY-NON VEHICLE,161491624,05/28/2016,2975 HEADLAND DR SW,411,Greenbriar,R,33.68965,-84.48681,
LARCENY-NON VEHICLE,161492421,05/28/2016,1275 CAROLINE ST NE @TARGET - CAROLINE,609,Edgewood,O,33.75674,-84.34619,
LARCENY-NON VEHICLE,161491514,05/28/2016,1371 MARKET ST NW,501,Atlantic Station,E,33.7921,-84.39466,
LARCENY-NON VEHICLE,161491277,05/28/2016,3393 PEACHTREE RD NE @LENOX MALL,210,Lenox,B,33.84676,-84.36212,
LARCENY-NON VEHICLE,161491282,05/28/2016,3500 PEACHTREE RD NE,208,North Buckhead,B,33.85302,-84.36278,
LARCENY-NON VEHICLE,161491233,05/28/2016,3535 PEACHTREE RD NE,210,Lenox,B,33.85182,-84.3595,
BURGLARY-RESIDENCE,161492603,05/28/2016,1028 PEYTON RD SW,406,Audobon Forest,I,33.72891,-84.47516,
BURGLARY-RESIDENCE,161490612,05/28/2016,415 ARMOUR DR NE,212,,F,33.81267,-84.37412,
BURGLARY-RESIDENCE,161491696,05/28/2016,369 MCDANIEL ST SW,101,The Villages at Castleberry Hill,T,33.74505,-84.40523,
BURGLARY-RESIDENCE,161491037,05/28/2016,361 17TH ST NW,501,Atlantic Station,E,33.79127,-84.39851,
BURGLARY-RESIDENCE,161491189,05/28/2016,891 MAYSON TURNER RD NW,102,Vine City,L,33.75681,-84.41657,
LARCENY-NON VEHICLE,161492237,05/28/2016,375 LUCKIE ST NW,504,Downtown,M,33.76485,-84.39602,
BURGLARY-RESIDENCE,161492700,05/28/2016,433 HIGHLAND AVE NE,604,Old Fourth Ward,M,33.76128,-84.37323,
BURGLARY-RESIDENCE,161492284,05/28/2016,1156 HUBBARD ST SW,302,Pittsburgh,V,33.72335,-84.40222,
BURGLARY-RESIDENCE,161490854,05/28/2016,3940 WISTERIA LN SW,407,Wisteria Gardens,H,33.75659,-84.51018,
BURGLARY-RESIDENCE,161490716,05/28/2016,730 PRYOR ST SW,303,Mechanicsville,V,33.73477,-84.3945,
BURGLARY-RESIDENCE,161490934,05/28/2016,1123 LAROSA TER SW,403,Oakland City,S,33.72352,-84.4248,
BURGLARY-RESIDENCE,161490660,05/28/2016,787 MAGNOLIA WAY NW,102,Vine City,L,33.75823,-84.41382,
AGG ASSAULT,161490475,05/28/2016,195 FAIRBURN RD NW,111,Adamsville,H,33.76072,-84.50421,
AGG ASSAULT,161491554,05/28/2016,934 MAYSON TURNER RD NW,105,Washington Park,K,33.75824,-84.41848,
AGG ASSAULT,161491679,05/28/2016,1141 MOBILE ST NW,105,Hunter Hills,K,33.76262,-84.42453,
AGG ASSAULT,161492444,05/28/2016,3114 HICKMAN DR NW,111,,I,33.75423,-84.48889,
HOMICIDE,161482643,05/28/2016,319 NW MORRIS BROWN AVE,108,Dixie Hills,J,33.76255,-84.45331,
ROBBERY-PEDESTRIAN,161492783,05/28/2016,412 JAMES P BRAWLEY DR NW,103,English Avenue,L,33.76592,-84.41292,
ROBBERY-PEDESTRIAN,161490120,05/28/2016,1783 JOHNSON RD NW,110,Rockdale,G,33.78547,-84.44593,
ROBBERY-RESIDENCE,161492060,05/28/2016,940 NEW TOWN CIR SE,308,Thomasville Heights,Z,33.70838,-84.3593,
ROBBERY-COMMERCIAL,161490296,05/28/2016,2193 PEACHTREE RD NE,211,,E,33.81411,-84.39144,
ROBBERY-RESIDENCE,161481925,05/27/2016,960 E PACES FERRY RD NE,210,Buckhead Heights,B,33.84691,-84.35618,
ROBBERY-PEDESTRIAN,161482923,05/27/2016,312 EUGENIA ST SW,303,Mechanicsville,V,33.74285,-84.39845,
ROBBERY-PEDESTRIAN,161483225,05/27/2016,158 ALABAMA ST SW,511,Downtown,M,33.75393,-84.39293,
ROBBERY-PEDESTRIAN,161480562,05/27/2016,274 RALPH D ABERNATHY BLVD SW,303,Mechanicsville,V,33.7368,-84.39687,
ROBBERY-PEDESTRIAN,161482824,05/27/2016,800 CASPLAN ST SW,306,Sylvan Hills,X,33.70847,-84.41424,
HOMICIDE,161481137,05/27/2016,2592 BAKER RD NW,112,Collier Heights,I,33.7686,-84.47346,
AGG ASSAULT,161482962,05/27/2016,61 NORTH AVE NW @THE VARSITY,505,Midtown,E,33.77133,-84.38942,
AGG ASSAULT,161481924,05/27/2016,1932 METROPOLITAN PKWY SW,306,Sylvan Hills,X,33.70158,-84.4075,
ROBBERY-PEDESTRIAN,161482859,05/27/2016,1177 JOSEPH E BOONE BLVD NW,106,Bankhead,K,33.76449,-84.4259,
ROBBERY-PEDESTRIAN,161481685,05/27/2016,50 ALABAMA ST SW,511,Downtown,M,33.75194,-84.38964,
ROBBERY-PEDESTRIAN,161480626,05/27/2016,2909 CAMPBELLTON RD SW,409,Southwest,R,33.69869,-84.48265,
ROBBERY-COMMERCIAL,161483032,05/27/2016,1053 CASCADE AVE SW,403,Cascade Avenue/Road,S,33.72653,-84.44555,
ROBBERY-PEDESTRIAN,161482813,05/27/2016,1088 PEACHTREE ST NE,502,Midtown,E,33.78421,-84.3835,
ROBBERY-PEDESTRIAN,161480487,05/27/2016,700 MCGRUDER ST NE,604,Old Fourth Ward,M,33.7586,-84.36513,
AGG ASSAULT,161482570,05/27/2016,2784 METROPOLITAN PKWY SW,311,Hammond Park,X,33.67879,-84.40802,
AGG ASSAULT,161482949,05/27/2016,3 CHARLESTON AVE SE,307,Lakewood Heights,Y,33.70798,-84.37913,
AGG ASSAULT,161482397,05/27/2016,920 MAYSON TURNER RD NW,105,Washington Park,K,33.7579,-84.41772,
BURGLARY-RESIDENCE,161481808,05/27/2016,991 FAIR ST SW,104,Ashview Heights,T,33.74924,-84.42012,
BURGLARY-RESIDENCE,161481837,05/27/2016,8201 IVY CHASE WAY NE,209,North Buckhead,B,33.85633,-84.3815,
BURGLARY-RESIDENCE,161482612,05/27/2016,940 NEW TOWN CIR SE,308,Thomasville Heights,Z,33.70838,-84.3593,
BURGLARY-RESIDENCE,161482373,05/27/2016,1830 CHESHIRE BRIDGE RD NE,212,Morningside/Lenox Park,F,33.80924,-84.36251,
AGG ASSAULT,161482259,05/27/2016,169 TRINITY AVE SW,512,Downtown,M,33.74978,-84.39327,
LARCENY-NON VEHICLE,161481680,05/27/2016,3030 HEADLAND DR SW,411,Greenbriar,R,33.68841,-84.48742,
BURGLARY-RESIDENCE,161482965,05/27/2016,3200 LENOX RD NE,210,Pine Hills,B,33.84293,-84.35825,
BURGLARY-RESIDENCE,161481587,05/27/2016,1430 ATHENS AVE SW,301,Capitol View,X,33.71583,-84.40867,
BURGLARY-NONRES,161481401,05/27/2016,3247 ROSWELL RD NE,208,Buckhead Forest,B,33.84376,-84.37894,
BURGLARY-RESIDENCE,161480058,05/27/2016,180 JACKSON ST NE,604,Sweet Auburn,M,33.75932,-84.37442,
BURGLARY-NONRES,161480859,05/27/2016,986 CHEROKEE AVE SE,605,Grant Park,W,33.72757,-84.37324,
BURGLARY-NONRES,161481359,05/27/2016,840 MARION AVE SE,605,Grant Park,W,33.73154,-84.36569,
BURGLARY-NONRES,161481692,05/27/2016,727 WYLIE ST SE,606,Cabbagetown,N,33.75204,-84.36355,
LARCENY-NON VEHICLE,161480439,05/27/2016,100 LAKEWOOD WAY SW,307,Lakewood Heights,Y,33.69921,-84.39286,
LARCENY-NON VEHICLE,161482114,05/27/2016,3393 PEACHTREE RD NE,210,Lenox,B,33.84676,-84.36212,
LARCENY-NON VEHICLE,161481855,05/27/2016,375 18TH ST NW @TARGET - 18TH,501,Atlantic Station,E,33.79303,-84.39921,
LARCENY-NON VEHICLE,161481373,05/27/2016,80 JESSE HILL JR DR SE @GRADY HOSPITAL,510,Downtown,M,33.75168,-84.38198,
LARCENY-FROM VEHICLE,161482682,05/27/2016,126 TERRACE DR NE,211,Peachtree Hills,B,33.82173,-84.38441,
LARCENY-FROM VEHICLE,161482258,05/27/2016,850 OAK ST SW,401,West End,T,33.74053,-84.41671,
LARCENY-FROM VEHICLE,161481881,05/27/2016,1425 ELLSWORTH INDUSTRIAL BLVD NW,203,Blandtown,D,33.79388,-84.42575,
LARCENY-FROM VEHICLE,161481444,05/27/2016,871 PINEHURST TER SW,402,Oakland City,S,33.73137,-84.43188,
LARCENY-FROM VEHICLE,161482355,05/27/2016,2525 PIEDMONT RD NE,211,Lindbergh/Morosgo,B,33.824,-84.36521,
LARCENY-FROM VEHICLE,161482389,05/27/2016,3393 PEACHTREE RD NE,210,Lenox,B,33.84676,-84.36212,
LARCENY-FROM VEHICLE,161482404,05/27/2016,2841 GREENBRIAR PKWY SW @GREENBRIAR MALL ,411,Greenbriar,R,33.68845,-84.49328,
LARCENY-FROM VEHICLE,161482284,05/27/2016,2975 GREENBRIAR PKWY SW,411,Greenbriar,R,33.6864,-84.49406,
LARCENY-FROM VEHICLE,161481210,05/27/2016,205 ARMOUR DR NE,212,,E,33.81032,-84.38105,
LARCENY-FROM VEHICLE,161480414,05/27/2016,190 RALPH D ABERNATHY BLVD SW,303,Mechanicsville,V,33.73673,-84.39383,
LARCENY-FROM VEHICLE,161480384,05/27/2016,1218 JOSEPH E BOONE BLVD NW,105,Hunter Hills,K,33.76324,-84.42748,
LARCENY-FROM VEHICLE,161483149,05/27/2016,3242 PEACHTREE RD NE,208,Buckhead Forest,B,33.84425,-84.37311,
LARCENY-FROM VEHICLE,161482982,05/27/2016,1025 HOWELL MILL RD NW,501,Home Park,E,33.78285,-84.41126,
LARCENY-FROM VEHICLE,161483051,05/27/2016,2045 DONALD LEE HOLLOWELL PKWY NW,107,Grove Park,J,33.7774,-84.45214,
LARCENY-FROM VEHICLE,161483075,05/27/2016,3500 PEACHTREE RD NE @SAKS FIFTH AVENUE,208,North Buckhead,B,33.85302,-84.36278,
LARCENY-FROM VEHICLE,161480750,05/27/2016,1133 HUFF RD NW,203,Blandtown,D,33.78978,-84.42557,
LARCENY-FROM VEHICLE,161482787,05/27/2016,155 W PACES FERRY RD,206,South Tuxedo Park,B,33.84588,-84.38843,
LARCENY-FROM VEHICLE,161481539,05/27/2016,2611 MARTIN L KING JR DR NW,111,Harland Terrace,I,33.75406,-84.47338,
LARCENY-FROM VEHICLE,161480673,05/27/2016,270 CHALMERS DR NW,112,Collier Heights,I,33.7628,-84.47749,
LARCENY-FROM VEHICLE,161481362,05/27/2016,63 THE PRADO NE,502,Ansley Park,E,33.79196,-84.37683,
LARCENY-FROM VEHICLE,161481132,05/27/2016,3367 MARTIN L KING JR DR NW,111,Adamsville,H,33.75483,-84.49787,
LARCENY-NON VEHICLE,161481423,05/27/2016,625 NE PIEDMONT AVE,505,Midtown,E,33.77153,-84.38144,
LARCENY-NON VEHICLE,161480277,05/27/2016,759 PENN AVE NE,505,Midtown,E,33.77535,-84.37841,
LARCENY-NON VEHICLE,161481784,05/27/2016,692 CATHERINE ST SW,301,Adair Park,V,33.72568,-84.41023,
LARCENY-NON VEHICLE,161480246,05/27/2016,1025 HOWELL MILL RD NW,501,Home Park,E,33.78285,-84.41126,
LARCENY-NON VEHICLE,161480980,05/27/2016,2495 FERNLEAF CT NW,204,Fernleaf,C,33.82009,-84.43938,
LARCENY-NON VEHICLE,161482606,05/27/2016,400 W PEACHTREE ST NW,504,Downtown,M,33.76614,-84.3876,
LARCENY-NON VEHICLE,161482448,05/27/2016,1995 LOIS PL NW,110,Grove Park,J,33.78471,-84.45338,
AUTO THEFT,161481080,05/27/2016,460 THOMASVILLE BLVD SE,308,Thomasville Heights,Z,33.70602,-84.35939,
AUTO THEFT,161481056,05/27/2016,201 MOURY AVE SW,305,Lakewood Heights,Y,33.70243,-84.39902,
AUTO THEFT,161481295,05/27/2016,3275 PEACHTREE RD NE,208,Peachtree Park,B,33.84439,-84.36942,
AUTO THEFT,161481946,05/27/2016,1495 CHATTAHOOCHEE AVE NW,204,Underwood Hills,D,33.80887,-84.43622,
AUTO THEFT,161481000,05/27/2016,426 MARIETTA ST NW,507,Downtown,M,33.76452,-84.3974,
AUTO THEFT,161481698,05/27/2016,2244 METROPOLITAN PKWY SW @BISHOP BROS,309,Perkerson,X,33.6929,-84.4067,
AUTO THEFT,161481890,05/27/2016,431 MARIETTA ST NW,504,Downtown,M,33.76495,-84.39684,
AUTO THEFT,161480068,05/27/2016,2100 METROPOLITAN PKWY SW,306,Sylvan Hills,X,33.697,-84.40768,
LARCENY-NON VEHICLE,161488035,05/27/2016,6000 S TERMINAL PKWY,704,,,33.63751,-84.44824,
LARCENY-NON VEHICLE,161481380,05/27/2016,1090 GUN CLUB RD NW,110,Almond Park,G,33.78493,-84.45711,
LARCENY-NON VEHICLE,161482288,05/27/2016,432 W PEACHTREE ST NW,509,Downtown,M,33.76767,-84.38752,
LARCENY-NON VEHICLE,161482698,05/27/2016,2 PARK PL,508,Downtown,M,33.75628,-84.38848,
AUTO THEFT,161480467,05/27/2016,1044 HANK AARON DR SE @BOYNTON VILLAGE APT,304,Peoplestown,V,33.7262,-84.38771,
AUTO THEFT,161481003,05/27/2016,49 BOULEVARD SE,604,Sweet Auburn,M,33.75253,-84.3721,
AUTO THEFT,161482980,05/27/2016,1498 SHARON ST NW,105,Hunter Hills,K,33.75482,-84.43656,
AUTO THEFT,161472143,05/26/2016,3160 GREENBRIAR PKWY SW,411,Greenbriar,R,33.68593,-84.49685,
AUTO THEFT,161471826,05/26/2016,240 AMAL DR SW,307,Betmar LaVilla,Y,33.70616,-84.3953,
AUTO THEFT,161471562,05/26/2016,70 MAYSON AVE NE,609,Edgewood,O,33.75508,-84.33875,
AUTO THEFT,161471346,05/26/2016,659 PEACHTREE ST NE @GEORGIAN TERRACE,505,Midtown,E,33.77258,-84.38449,
AUTO THEFT,161470825,05/26/2016,569 LOVEJOY ST NW,504,Downtown,M,33.76742,-84.39293,
AUTO THEFT,161472856,05/26/2016,502 WOODS DR NW,109,Center Hill,J,33.76882,-84.46904,
LARCENY-NON VEHICLE,161471419,05/26/2016,120 LOGAN ST SE,605,Capitol Gateway,V,33.74477,-84.3835,
LARCENY-NON VEHICLE,161473356,05/26/2016,1314 LA FRANCE ST NE,609,Edgewood,O,33.76057,-84.34478,
LARCENY-NON VEHICLE,161471427,05/26/2016,5 W PACES FERRY RD NW,206,South Tuxedo Park,B,33.83957,-84.38031,
LARCENY-NON VEHICLE,161472462,05/26/2016,1801 PIEDMONT AVE NE ,213,Morningside/Lenox Park,F,33.80428,-84.36697,
LARCENY-NON VEHICLE,161472913,05/26/2016,2500 CENTER ST NW @ETHERIDGE COURT APT,113,Carey Park,G,33.79088,-84.4723,
LARCENY-NON VEHICLE,161470799,05/26/2016,979 DONNELLY AVE SW,402,Oakland City,S,33.72897,-84.41954,
LARCENY-NON VEHICLE,161471349,05/26/2016,112 COURTLAND ST SW,511,Downtown,M,33.75107,-84.38756,
LARCENY-NON VEHICLE,161471802,05/26/2016,1783 WESTWOOD AVE SW,404,Westview,T,33.73895,-84.44614,
AUTO THEFT,161473116,05/26/2016,977 SPAIN PL NW,106,Bankhead,K,33.77245,-84.41925,
AUTO THEFT,161472896,05/26/2016,2080 DONALD LEE HOLLOWELL PKWY NW,107,Grove Park,J,33.77639,-84.45349,
LARCENY-NON VEHICLE,161473273,05/26/2016,100 10TH ST NW,503,Midtown,E,33.78095,-84.39033,
LARCENY-NON VEHICLE,161472539,05/26/2016,176 PEACHTREE ST NW,508,Downtown,M,33.75827,-84.38785,
LARCENY-NON VEHICLE,161473432,05/26/2016,500 10TH ST NE @BELTLINE BUSINESS,502,,E,33.78223,-84.36922,
LARCENY-NON VEHICLE,161471401,05/26/2016,133 CARNEGIE WAY NW,508,Downtown,M,33.75809,-84.3881,
LARCENY-NON VEHICLE,161470122,05/26/2016,447 EDGEWOOD AVE SE,604,Sweet Auburn,M,33.75416,-84.37288,
LARCENY-NON VEHICLE,161473119,05/26/2016,180 JACKSON ST NE @ATLANTA OVERLOOK AP,604,Sweet Auburn,M,33.75929,-84.37628,
LARCENY-NON VEHICLE,161472984,05/26/2016,180 JACKSON ST NE,604,Sweet Auburn,M,33.75932,-84.37442,
LARCENY-NON VEHICLE,151471800,05/26/2016,2980 PIEDMONT RD,206,Blandtown,D,33.80058,-84.42561,
LARCENY-FROM VEHICLE,161472745,05/26/2016,805 BRIDGEWATER ST SW,306,Sylvan Hills,X,33.70303,-84.41523,
LARCENY-FROM VEHICLE,161473171,05/26/2016,2144 KIPLING CIR SE,308,Thomasville Heights,Z,33.69592,-84.35533,
LARCENY-FROM VEHICLE,161470957,05/26/2016,1170 STATE ST NW,501,Home Park,E,33.78674,-84.39898,
LARCENY-FROM VEHICLE,161470891,05/26/2016,3450 FORREST PARK RD SE;,313,South River Gardens,Z,33.66061,-84.35549,
LARCENY-FROM VEHICLE,161471249,05/26/2016,472 TUFTON TRL SE;,312,Glenrose Heights,Z,33.66543,-84.38433,
LARCENY-FROM VEHICLE,161473331,05/26/2016,232 8TH ST,503,Midtown,E,33.77961,-84.37981,
LARCENY-FROM VEHICLE,161470796,05/26/2016,130 CARNEGIE WAY NW,508,Downtown,M,33.75794,-84.38823,
LARCENY-FROM VEHICLE,161470708,05/26/2016,2301 VENETIAN DR SW,409,Adams Park,R,33.7175,-84.46395,
LARCENY-FROM VEHICLE,161473225,05/26/2016,995 BRADY AVE NW,501,Home Park,E,33.78146,-84.41322,
LARCENY-FROM VEHICLE,161472305,05/26/2016,1919 METROPOLITAN PKWY SW,306,Sylvan Hills,X,33.70278,-84.41017,
LARCENY-FROM VEHICLE,161470405,05/26/2016,1133 HUFF RD NW,203,Blandtown,D,33.78978,-84.42557,
LARCENY-FROM VEHICLE,161472944,05/26/2016,437 MEMORIAL DR SE,605,Grant Park,W,33.74639,-84.37285,
LARCENY-FROM VEHICLE,161472929,05/26/2016,230 BRADBERRY ST SW,507,Castleberry Hill,M,33.74863,-84.40093,
LARCENY-FROM VEHICLE,161472853,05/26/2016,2165 CHESHIRE BRIDGE RD NE,213,Lindridge/Martin Manor,F,33.81341,-84.35347,
LARCENY-FROM VEHICLE,161472843,05/26/2016,515 RALPH D ABERNATHY BLVD SW,302,Pittsburgh,V,33.73669,-84.40518,
LARCENY-FROM VEHICLE,161472718,05/26/2016,75 PRYOR,303,Mechanicsville,V,33.73234,-84.3937,
LARCENY-FROM VEHICLE,161472615,05/26/2016,768 MARIETTA ST NW,504,Marietta Street Artery,E,33.77331,-84.40403,
LARCENY-FROM VEHICLE,161472501,05/26/2016,501 EDGEWOOD AVE SE,604,Old Fourth Ward,M,33.75394,-84.371,
LARCENY-FROM VEHICLE,161471226,05/26/2016,2890 1ST AVE SW,311,Hammond Park,X,33.6757,-84.40003,
LARCENY-FROM VEHICLE,161473129,05/26/2016,1634 MCLENDON AVE NE,608,Candler Park,N,33.765,-84.33395,
LARCENY-FROM VEHICLE,161471971,05/26/2016,200 W WIEUCA RD NE,209,East Chastain Park,B,33.87729,-84.38018,
LARCENY-FROM VEHICLE,161471845,05/26/2016,441 16TH ST NW @IKEA,501,Atlantic Station,E,33.78874,-84.40468,
LARCENY-NON VEHICLE,161473224,05/26/2016,725 PONCE DE LEON AVE NE @KROGER - PONCE,602,Poncey-Highland,N,33.77343,-84.36351,
LARCENY-FROM VEHICLE,161351767,05/26/2016,270- 15TH ST NE,502,Ansley Park,E,33.78821,-84.37819,
BURGLARY-NONRES,161470821,05/26/2016,211 MEMORIAL DR SE @APS COOK ES,605,Capitol Gateway,V,33.74622,-84.38115,
LARCENY-NON VEHICLE,161472212,05/26/2016,752 N HIGHLAND AVE NE,601,Virginia Highland,F,33.77498,-84.35291,
LARCENY-NON VEHICLE,161470073,05/26/2016,185 CENTRAL AVE SW,512,Downtown,M,33.7499,-84.39058,
LARCENY-NON VEHICLE,161470412,05/26/2016,235 PEACHTREE ST NE,509,Downtown,M,33.76044,-84.38702,
LARCENY-NON VEHICLE,161472114,05/26/2016,375 18TH ST NW @TARGET - 18TH,501,Atlantic Station,E,33.79303,-84.39921,
LARCENY-NON VEHICLE,161472072,05/26/2016,595 PIEDMONT AVE NE @PUBLIX - PIEDMONT,603,Old Fourth Ward,M,33.77067,-84.38023,
BURGLARY-RESIDENCE,161473296,05/26/2016,1382 BEATIE AVE SW,301,Capitol View,X,33.71715,-84.41062,
AGG ASSAULT,161472008,05/26/2016,409 JOHN WESLEY DOBBS AVE NE @MARTIN LUTHER KING J,604,Sweet Auburn,M,33.75857,-84.37397,
BURGLARY-RESIDENCE,161473372,05/26/2016,370 NORTHSIDE DR NW,103,English Avenue,L,33.76507,-84.4042,
BURGLARY-RESIDENCE,161471007,05/26/2016,164 RHODESIA AVE SE,307,Lakewood Heights,Y,33.70752,-84.38285,
BURGLARY-RESIDENCE,161472043,05/26/2016,2359 BROWNS MILL RD SE,310,Lakewood,Z,33.68903,-84.37438,
BURGLARY-RESIDENCE,161472224,05/26/2016,1490 KENWOOD AVE NW,207,Loring Heights,E,33.79561,-84.40471,
BURGLARY-RESIDENCE,161472862,05/26/2016,2706 COLLIER DR NW,112,Collier Heights,I,33.76333,-84.47639,
BURGLARY-RESIDENCE,161463248,05/26/2016,765 MCDANIEL ST SW,302,Pittsburgh,V,33.73396,-84.40177,
AGG ASSAULT,161472681,05/26/2016,570 ROCKWELL ST SW,302,Pittsburgh,V,33.73175,-84.40636,
AGG ASSAULT,161463220,05/26/2016,213 FAIRBURN RD NW @FAIRBURN GORDON APT,111,Adamsville,H,33.76132,-84.50395,
AGG ASSAULT,161470056,05/26/2016,1968 PEACHTREE RD NW @PIEDMONT HOSPITAL,207,,E,33.81,-84.39583,
AGG ASSAULT,161470099,05/26/2016,195 FAIRBURN RD NW,111,Adamsville,H,33.76072,-84.50421,
AGG ASSAULT,161472960,05/26/2016,2328 CAMPBELLTON RD SW,410,Campbellton Road,R,33.70439,-84.4634,
AGG ASSAULT,161470456,05/26/2016,314 LUCKIE ST NW,508,Downtown,M,33.76296,-84.39669,
AGG ASSAULT,161471118,05/26/2016,3540 N CAMP CREEK PKWY SW @STONECREEK APT,414,,P,33.66798,-84.50188,
AGG ASSAULT,161472053,05/26/2016,1093 MAYSON TURNER RD NW,105,Washington Park,K,33.7626,-84.42309,
AGG ASSAULT,161473182,05/26/2016,1683 LAKEWOOD AVE SW,307,Lakewood Heights,Y,33.70735,-84.38009,
ROBBERY-PEDESTRIAN,161471420,05/26/2016,1080 HARDEE ST NE,606,Reynoldstown,N,33.75559,-84.35233,
ROBBERY-PEDESTRIAN,161470126,05/26/2016,387 HILL ST SE,605,Grant Park,W,33.74436,-84.37974,
ROBBERY-RESIDENCE,161473114,05/26/2016,875 CREW ST SW,304,Peoplestown,V,33.731,-84.38955,
ROBBERY-COMMERCIAL,161472010,05/26/2016,1176 CHATTAHOOCHEE AVE NW,203,Blandtown,D,33.80058,-84.42561,
ROBBERY-PEDESTRIAN,161471096,05/26/2016,DONALD LEE HOLLOWELL PKWY NW / COMMODORE DR NW,109,Center Hill,J,33.77671,-84.45898,
ROBBERY-RESIDENCE,161460913,05/25/2016,2798 PEEK RD NW,112,Collier Heights,I,33.77743,-84.47815,
ROBBERY-PEDESTRIAN,161463148,05/25/2016,262 EDGEWOOD AVE NE,510,Downtown,M,33.75455,-84.3791,
ROBBERY-PEDESTRIAN,161461795,05/25/2016,3815 MARTIN L KING JR DR NW,114,Old Gordon,H,33.76867,-84.51363,
ROBBERY-PEDESTRIAN,161463181,05/25/2016,1999 BENT CREEK WAY SW,410,Campbellton Road,R,33.70087,-84.46574,
AGG ASSAULT,161462488,05/25/2016,150 CLEVELAND AVE SW,311,Glenrose Heights,Z,33.68067,-84.39401,
AGG ASSAULT,161461943,05/25/2016,2160 VERBENA ST NW,108,Dixie Hills,J,33.75506,-84.4589,
AGG ASSAULT,161460700,05/25/2016,975 PIEDMONT AVE NE,503,Midtown,E,33.78129,-84.38035,
AGG ASSAULT,161463078,05/25/2016,2604 OLD HAPEVILLE RD SW,310,Browns Mill Park,Z,33.68345,-84.3937,
AGG ASSAULT,161460987,05/25/2016,765 MCDANIEL ST SW,302,Pittsburgh,V,33.73396,-84.40177,
BURGLARY-RESIDENCE,161463150,05/25/2016,220 26TH ST NW,207,Brookwood,E,33.80312,-84.4011,
BURGLARY-RESIDENCE,161461847,05/25/2016,955 JUNIPER ST NE,503,Midtown,E,33.78083,-84.38246,
BURGLARY-RESIDENCE,161461780,05/25/2016,2115 PIEDMONT RD NE ,212,Morningside/Lenox Park,F,33.81235,-84.36578,
BURGLARY-RESIDENCE,161462322,05/25/2016,3584 COLLIER DR NW,114,Fairburn Heights,H,33.7679,-84.50481,
BURGLARY-RESIDENCE,161462595,05/25/2016,220 26TH ST NW,207,Brookwood,E,33.80312,-84.4011,
BURGLARY-RESIDENCE,161462524,05/25/2016,1239 AVONDALE AVE SE,607,Boulevard Heights,W,33.72098,-84.36477,
BURGLARY-RESIDENCE,161462135,05/25/2016,4054 DOSTER ST SW,407,Wilson Mill Meadows,H,33.75303,-84.52027,
BURGLARY-RESIDENCE,161460883,05/25/2016,960 CONSTITUTION RD SE,308,Norwood Manor,Z,33.69307,-84.35805,
BURGLARY-RESIDENCE,161461143,05/25/2016,511 COLLIER RIDGE DR NW,112,Collier Heights,I,33.76908,-84.47677,
AGG ASSAULT,161461013,05/25/2016,1960 PERKERSON RD SW,306,Sylvan Hills,X,33.70089,-84.4177,
AGG ASSAULT,161461399,05/25/2016,3399 COLLIER DR NW @APS HARPER-ARCHER MS,114,Fairburn Heights,H,33.76931,-84.49871,
AGG ASSAULT,161460776,05/25/2016,2041 DONALD LEE HOLLOWELL PKWY NW,107,Grove Park,J,33.7768,-84.4524,
AGG ASSAULT,161462724,05/25/2016,635 LINDBERGH DR NE,211,Lindbergh/Morosgo,B,33.8213,-84.36689,
AGG ASSAULT,161460474,05/25/2016,190 CHAPPELL RD NW,105,Hunter Hills,K,33.76044,-84.43382,
LARCENY-NON VEHICLE,161462420,05/25/2016,3393 PEACHTREE RD NE,210,Lenox,B,33.84676,-84.36212,
LARCENY-NON VEHICLE,161460111,05/25/2016,556 NORTHSIDE DR SW,303,Pittsburgh,V,33.74007,-84.40778,
LARCENY-NON VEHICLE,161460498,05/25/2016,595 PIEDMONT AVE NE @PUBLIX - PIEDMONT,603,Old Fourth Ward,M,33.77067,-84.38023,
LARCENY-NON VEHICLE,161461791,05/25/2016,2841 GREENBRIAR PKWY SW,411,Greenbriar,R,33.68677,-84.49773,
LARCENY-NON VEHICLE,161461170,05/25/2016,50 ALABAMA ST SW,511,Downtown,M,33.75194,-84.38964,
BURGLARY-RESIDENCE,161461114,05/25/2016,577 HEMLOCK CIR SE,607,Ormewood Park,W,33.73838,-84.35186,
BURGLARY-RESIDENCE,161460357,05/25/2016,487 THACKERY PL SW,406,Peyton Forest,I,33.7426,-84.48367,
BURGLARY-NONRES,161461200,05/25/2016,3640 JONESBORO RD SE,313,South River Gardens,Z,33.65544,-84.36856,
BURGLARY-NONRES,161461021,05/25/2016,1050 SPRING ST NW,503,Midtown,E,33.78335,-84.38955,
BURGLARY-NONRES,161460546,05/25/2016,1265 LEE ST SW,103,Oakland City,S,33.72061,-84.42456,
BURGLARY-NONRES,161460736,05/25/2016,211 MEMORIAL DR SE @APS COOK ES,605,Capitol Gateway,V,33.74622,-84.38115,
LARCENY-FROM VEHICLE,161460943,05/25/2016,300 W PEACHTREE ST NW,508,Downtown,M,33.76269,-84.38765,
LARCENY-FROM VEHICLE,161460931,05/25/2016,2612 STEELE AVE SW,312,Glenrose Heights,Z,33.67268,-84.38507,
LARCENY-FROM VEHICLE,161460887,05/25/2016,299 N HIGHLAND AVE NE,602,Inman Park,N,33.76198,-84.35846,
LARCENY-FROM VEHICLE,161460670,05/25/2016,449 LUCKIE ST NW,504,Downtown,M,33.76643,-84.396,
LARCENY-FROM VEHICLE,161460661,05/25/2016,450 STONEWALL ST SW,507,Castleberry Hill,M,33.74954,-84.40249,
LARCENY-FROM VEHICLE,161460625,05/25/2016,55 MAPLE ST NW,102,Vine City,L,33.75569,-84.40528,
LARCENY-FROM VEHICLE,161460788,05/25/2016,3580 HOGAN RD SW,414,Brentwood,P,33.6744,-84.50624,
LARCENY-FROM VEHICLE,161460203,05/25/2016,3577 MEADOWRIDGE DR SW,414,Brentwood,P,33.67353,-84.50568,
LARCENY-FROM VEHICLE,161462338,05/25/2016,636 EAST AVE NE,603,Old Fourth Ward,M,33.76335,-84.36647,
LARCENY-FROM VEHICLE,161461846,05/25/2016,2930 FORREST HILLS DR SW @APS FORREST HILL HS,311,Hammond Park,X,33.67519,-84.3984,
LARCENY-FROM VEHICLE,161461797,05/25/2016,3393 PEACHTREE RD,210,Lenox,B,33.84892,-84.36426,
LARCENY-FROM VEHICLE,161461575,05/25/2016,255 COURTLAND ST NE ,509,Downtown,M,33.76157,-84.38314,
LARCENY-FROM VEHICLE,161461482,05/25/2016,687 S ELIZABETH PL NW,107,Grove Park,J,33.77352,-84.44758,
LARCENY-FROM VEHICLE,161462029,05/25/2016,441 16TH ST NW @IKEA,501,Atlantic Station,E,33.78874,-84.40468,
LARCENY-FROM VEHICLE,161460775,05/25/2016,WESTVIEW DR SW / ABBOTT ST SW,104,Ashview Heights,T,33.74636,-84.41895,
LARCENY-FROM VEHICLE,161460774,05/25/2016,1745 ROGERS AVE SW,404,Westview,T,33.73754,-84.44482,
LARCENY-FROM VEHICLE,161461903,05/25/2016,575 PONCE DE LEON AVE NE,603,Old Fourth Ward,M,33.77313,-84.36818,
LARCENY-FROM VEHICLE,161462017,05/25/2016,120 SHORT ST SE,606,Cabbagetown,N,33.75123,-84.3641,
LARCENY-FROM VEHICLE,161462265,05/25/2016,475 MORELAND AVE SE,606,Ormewood Park,W,33.74112,-84.34961,
LARCENY-NON VEHICLE,161461588,05/25/2016,55 TRINITY AVE SW @ CITY HALL,512,Downtown,M,33.74799,-84.39034,
LARCENY-NON VEHICLE,161462325,05/25/2016,796 PEEPLES ST SW,401,West End,T,33.73323,-84.42026,
LARCENY-NON VEHICLE,161462111,05/25/2016,747 RALPH MCGILL BLVD NE,603,Old Fourth Ward,M,33.76674,-84.36263,
LARCENY-NON VEHICLE,161462851,05/25/2016,512 PEEPLES ST SW,401,West End,T,33.74086,-84.42019,
LARCENY-NON VEHICLE,161461391,05/25/2016,156 FAIRFIELD PL NW,108,Dixie Hills,J,33.75828,-84.46325,
LARCENY-NON VEHICLE,161460989,05/25/2016,102 W PACES FERRY RD NW,206,Peachtree Heights West,B,33.84131,-84.38427,
LARCENY-NON VEHICLE,161461889,05/25/2016,101 MCGILL PARK AVE NE,604,Old Fourth Ward,M,33.763,-84.37743,
LARCENY-NON VEHICLE,161410174,05/25/2016,2450 CAMELLIA LA NE,211,Lindbergh/Morosgo,B,33.82269,-84.37114,
LARCENY-NON VEHICLE,161461650,05/25/2016,3244 LYNFIELD DR SW,406,Green Forest Acres,I,33.73184,-84.49437,
LARCENY-NON VEHICLE,161462480,05/25/2016,955 PACES FERRY RD NE ,210,Lenox,B,33.84557,-84.35858,
LARCENY-NON VEHICLE,161462977,05/25/2016,2504 BIRCHWOOD DR NE,206,Garden Hills,B,33.82313,-84.37484,
LARCENY-NON VEHICLE,161371639,05/25/2016,3915 THE HIGHLANDS,202,Mt. Paran/Northside,A,33.863,-84.42275,
AUTO THEFT,161460711,05/25/2016,3484 LENARDO DR SW,412,Mt. Gilead Woods,P,33.69859,-84.50287,
AUTO THEFT,161461823,05/25/2016,45 IVAN ALLEN JR BLVD NW,504,Downtown,M,33.76505,-84.38939,
AUTO THEFT,161461581,05/25/2016,370 NORTHSIDE DR NW,103,English Avenue,L,33.76507,-84.4042,
AUTO THEFT,161461201,05/25/2016,380 THOMASVILLE BLVD SE,308,Thomasville Heights,Z,33.70552,-84.35754,
AUTO THEFT,161460879,05/25/2016,3181 DONALD LEE HOLLOWELL PKWY NW,113,Brookview Heights,G,33.78652,-84.49013,
AUTO THEFT,161462599,05/25/2016,4024 BLANTON AVE SW,413,Fairburn,P,33.69052,-84.51973,
AUTO THEFT,161451292,05/24/2016,925 CANTERBURY RD NE,210,Pine Hills,B,33.8278,-84.3563,
AUTO THEFT,161452980,05/24/2016,575 CHAPPELL RD NW,106,Bankhead,K,33.77103,-84.43354,
AUTO THEFT,161451397,05/24/2016,925 CANTERBURY RD NE,210,Pine Hills,B,33.8278,-84.3563,
AUTO THEFT,161452909,05/24/2016,1120 1ST ST NW,109,Carey Park,G,33.78563,-84.46722,
AUTO THEFT,161450949,05/24/2016,470 THOMASVILLE BLVD SE;,308,Thomasville Heights,Z,33.70532,-84.35959,
AUTO THEFT,161450732,05/24/2016,1388 JOSEPH E BOONE BLVD NW,105,Hunter Hills,K,33.7633,-84.43337,
LARCENY-NON VEHICLE,161452758,05/24/2016,1025 RALPH D ABERNATHY BLVD SW,401,West End,T,33.73845,-84.42136,
LARCENY-NON VEHICLE,161453141,05/24/2016,2232 DORAL CT SW,413,Fairway Acres,P,33.68778,-84.53729,
LARCENY-NON VEHICLE,161453161,05/24/2016,1321 ORMEWOOD AVE SE,612,East Atlanta,W,33.73383,-84.3444,
LARCENY-NON VEHICLE,161291724,05/24/2016,823 SAINT CHARLES AVE NE,601,Virginia Highland,F,33.77533,-84.36023,
LARCENY-NON VEHICLE,161450941,05/24/2016,710 GARIBALDI ST SW,303,Mechanicsville,V,33.73556,-84.39888,
LARCENY-NON VEHICLE,161450581,05/24/2016,80 JESSE HILL JR DR SE @GRADY,510,Downtown,M,33.75168,-84.38198,
LARCENY-NON VEHICLE,161452360,05/24/2016,20 GOULD ST SE,307,Lakewood Heights,Y,33.70686,-84.37795,
LARCENY-NON VEHICLE,161451885,05/24/2016,47 CLEVELAND AVE SW @CLEVELAND AVENUE BRA,310,Browns Mill Park,Z,33.68119,-84.3906,
LARCENY-NON VEHICLE,161451354,05/24/2016,1409 HOWELL MILL RD NW,207,Berkeley Park,D,33.79419,-84.4143,
LARCENY-NON VEHICLE,161453222,05/24/2016,299 N HIGHLAND AVE NE,602,Inman Park,N,33.76198,-84.35846,
LARCENY-NON VEHICLE,161452890,05/24/2016,180 JACKSON ST NE @ATLANTA OVERLOOK AP,604,Sweet Auburn,M,33.75929,-84.37628,
LARCENY-FROM VEHICLE,161451341,05/24/2016,22 COLLIER RD NW,207,Ardmore,E,33.80766,-84.39601,
LARCENY-FROM VEHICLE,161452301,05/24/2016,1700 NORTHSIDE DR NW,207,Berkeley Park,D,33.80121,-84.40791,
LARCENY-FROM VEHICLE,161452809,05/24/2016,2101 SOUTHWOOD BLVD SW,412,Ben Hill Terrace,P,33.69616,-84.51962,
LARCENY-FROM VEHICLE,161453071,05/24/2016,200 N HIGHLAND AVE NE,602,Inman Park,N,33.7617,-84.36084,
LARCENY-FROM VEHICLE,161452934,05/24/2016,330 PINE ST NE,603,Old Fourth Ward,M,33.76741,-84.37686,
LARCENY-FROM VEHICLE,161452888,05/24/2016,641 NORTH AVE NE,603,Old Fourth Ward,M,33.77028,-84.36557,
LARCENY-FROM VEHICLE,161452099,05/24/2016,49 BOULEVARD SE,604,Sweet Auburn,M,33.75253,-84.3721,
LARCENY-FROM VEHICLE,161452839,05/24/2016,1814 PEACHTREE ST NW,207,Ardmore,E,33.80444,-84.39382,
LARCENY-FROM VEHICLE,161450815,05/24/2016,400 MERRITTS AVE NE,603,Old Fourth Ward,M,33.76901,-84.37444,
LARCENY-FROM VEHICLE,161453438,05/24/2016,550 PHARR RD NE,206,Buckhead Village,B,33.83743,-84.37006,
LARCENY-FROM VEHICLE,161453422,05/24/2016,419 CHAMBERLAIN ST SE,604,Sweet Auburn,M,33.75356,-84.37375,
LARCENY-FROM VEHICLE,161451013,05/24/2016,127 ANDREW YOUNG INTERNA BLVD NW,508,Downtown,M,33.75956,-84.38371,
LARCENY-FROM VEHICLE,161450905,05/24/2016,815 WILLIAMS ST NW,505,Midtown,E,33.77807,-84.38878,
LARCENY-FROM VEHICLE,161450901,05/24/2016,185 MONTAG CIR NE,602,Inman Park,N,33.76074,-84.36193,
LARCENY-FROM VEHICLE,161450840,05/24/2016,505 FULTON ST SW,303,Mechanicsville,V,33.74108,-84.40427,
LARCENY-FROM VEHICLE,161450836,05/24/2016,3092 PIEDMONT RD NE,206,Buckhead Village,B,33.8399,-84.37007,
LARCENY-FROM VEHICLE,161452847,05/24/2016,3901 CAMPBELLTON RD SW,412,Kings Forest,P,33.69231,-84.51621,
LARCENY-FROM VEHICLE,161452610,05/24/2016,376 CANDLER PARK DR NE,608,Candler Park,N,33.7645,-84.34015,
LARCENY-FROM VEHICLE,161451937,05/24/2016,1220 CUMBERLAND RD NE,213,Morningside/Lenox Park,F,33.79469,-84.34705,
LARCENY-FROM VEHICLE,161451931,05/24/2016,1818 RIDGEWAY AVE NW @UNDERWOOD HILLS PARK,204,Underwood Hills,D,33.80511,-84.41666,
LARCENY-FROM VEHICLE,161451879,05/24/2016,15 HARLAN RD SW,405,Harland Terrace,I,33.7535,-84.4815,
LARCENY-FROM VEHICLE,161451531,05/24/2016,352 4TH ST NE,506,Midtown,E,33.77467,-84.37576,
LARCENY-FROM VEHICLE,161451380,05/24/2016,1720 MERTON RD NE,213,Morningside/Lenox Park,F,33.80185,-84.35454,
LARCENY-FROM VEHICLE,161451050,05/24/2016,625 PIEDMONT AVE NE,505,Midtown,E,33.77178,-84.38174,
LARCENY-FROM VEHICLE,161452253,05/24/2016,471 COLLIER RD NW,205,Collier Hills,C,33.8109,-84.40309,
LARCENY-FROM VEHICLE,161450769,05/24/2016,4405 NORTHSIDE PKWY NW,201,Paces,A,33.8661,-84.45239,
LARCENY-FROM VEHICLE,161450078,05/24/2016,1336 GRANT ST SE,305,Chosewood Park,Y,33.71807,-84.37675,
LARCENY-FROM VEHICLE,161450707,05/24/2016,170 BOULEVARD SE @FULTON COTTON MILL,606,Cabbagetown,N,33.75135,-84.36812,
LARCENY-FROM VEHICLE,161450684,05/24/2016,3097 PIEDMONT RD NE,211,Peachtree Park,B,33.84034,-84.36887,
BURGLARY-NONRES,161450551,05/24/2016,1819 PEACHTREE RD NE ,207,Brookwood Hills,E,33.80455,-84.39288,
BURGLARY-NONRES,161450520,05/24/2016,565 JOSEPH E LOWERY BLVD SW,401,West End,T,33.73969,-84.41828,
BURGLARY-NONRES,161450854,05/24/2016,2051 MARTIN L KING JR DR NW,108,,I,33.75002,-84.45405,
BURGLARY-NONRES,161450764,05/24/2016,2519 CHANTILLY DR NE,212,Lindridge/Martin Manor,F,33.82369,-84.35056,
BURGLARY-NONRES,161450604,05/24/2016,2125 NORTHSIDE DR NW @GRANT TENNIS CENTER,205,,C,33.81356,-84.40761,
BURGLARY-RESIDENCE,161450673,05/24/2016,1660 PEACHTREE ST NW,502,Midtown,E,33.79874,-84.39164,
BURGLARY-RESIDENCE,161452218,05/24/2016,1935 SUNBURY PL NW,205,Channing Valley,C,33.80828,-84.40877,
BURGLARY-RESIDENCE,161453281,05/24/2016,257 CHALMERS DR NW,112,Collier Heights,I,33.76239,-84.4767,
LARCENY-NON VEHICLE,161451164,05/24/2016,437 MEMORIAL DR SE,605,Grant Park,W,33.74639,-84.37285,
LARCENY-NON VEHICLE,161452779,05/24/2016,3393 PEACHTREE RD NE,210,Lenox,B,33.84892,-84.36426,
LARCENY-NON VEHICLE,161451712,05/24/2016,1001 PONCE DE LEON AVE NE @PUBLIX - PONCE,602,Poncey-Highland,N,33.7734,-84.35467,
LARCENY-NON VEHICLE,161451503,05/24/2016,50 UPPER ALABAMA ST SW,511,Downtown,M,33.75194,-84.38964,
LARCENY-NON VEHICLE,161452309,05/24/2016,835 MARTIN L KING JR DR NW,102,Vine City,L,33.75504,-84.41457,
LARCENY-NON VEHICLE,161451825,05/24/2016,595 PIEDMONT AVE NE @PUBLIX - PIEDMONT,603,Old Fourth Ward,M,33.77067,-84.38023,
LARCENY-NON VEHICLE,161450823,05/24/2016,520 BOULEVARD SE,605,Grant Park,W,33.7407,-84.36764,
LARCENY-NON VEHICLE,161452940,05/24/2016,3334 PEACHTREE RD NE ,208,North Buckhead,B,33.84911,-84.37075,
AGG ASSAULT,161452137,05/24/2016,2101 TULA ST NW,207,,C,33.8118,-84.39331,
AGG ASSAULT,161452710,05/24/2016,3393 PEACHTREE RD NE @LENOX MALL,210,Lenox,B,33.84676,-84.36212,
AGG ASSAULT,161452081,05/24/2016,139 DAHLIA AVE NW,108,Dixie Hills,J,33.75777,-84.46193,
AGG ASSAULT,161452215,05/24/2016,130 NORTHSIDE DR NW,102,Vine City,L,33.7583,-84.40318,
BURGLARY-RESIDENCE,161450295,05/24/2016,55 MAPLE ST NW,102,Vine City,L,33.75569,-84.40528,
BURGLARY-RESIDENCE,161452241,05/24/2016,2910 3RD AVE SW,311,Hammond Park,X,33.67582,-84.40573,
BURGLARY-RESIDENCE,161452837,05/24/2016,173 WOODWARD AVE SE,605,Capitol Gateway,V,33.74554,-84.38227,
AGG ASSAULT,161451028,05/24/2016,333 NELSON ST SW,507,Castleberry Hill,M,33.75156,-84.39887,
ROBBERY-PEDESTRIAN,161450412,05/24/2016,236 GRANT ST SE,605,Grant Park,W,33.748,-84.37651,
ROBBERY-PEDESTRIAN,161450448,05/24/2016,380 MCDANIEL ST SW,507,Castleberry Hill,M,33.74462,-84.40451,
AGG ASSAULT,161452418,05/24/2016,3049 MIDDLETON RD NW,111,,I,33.75291,-84.48965,
ROBBERY-PEDESTRIAN,161452735,05/24/2016,2788 DEFOORS FERRY RD NW,201,,C,33.82114,-84.44713,
ROBBERY-PEDESTRIAN,161450080,05/24/2016,420 MORELAND AVE SE,612,East Atlanta,W,33.74284,-84.34886,
ROBBERY-PEDESTRIAN,161450153,05/24/2016,287 ELIZABETH ST NE,602,Inman Park,N,33.76233,-84.35772,
ROBBERY-PEDESTRIAN,161452656,05/24/2016,I-285 SB EXPY NW / DONALD LEE HOLLOWELL PKWY NW,114,Bankhead/Bolton,H,33.78692,-84.49314,
ROBBERY-PEDESTRIAN,161442989,05/23/2016,2788 DEFOORS FERRY RD NW,201,,C,33.82098,-84.44692,
ROBBERY-PEDESTRIAN,161442951,05/23/2016,168 RUZELLE DR SE,312,Glenrose Heights,Z,33.66783,-84.38834,
ROBBERY-PEDESTRIAN,161442981,05/23/2016,1155 DAVIS PL NW,204,Underwood Hills,D,33.80385,-84.42315,
ROBBERY-PEDESTRIAN,161440747,05/23/2016,2311 BAYWOOD DR SE,310,Swallow Circle/Baywood,Z,33.69195,-84.38738,
ROBBERY-PEDESTRIAN,161440512,05/23/2016,442 SCHOOL DR SE,312,Orchard Knob,Z,33.67245,-84.37509,
ROBBERY-PEDESTRIAN,161443014,05/23/2016,3210 HAZELWOOD DR SW,406,Magnum Manor,I,33.72723,-84.49334,
AGG ASSAULT,161441226,05/23/2016,1367 GRAYMONT DR SW,403,Venetian Hills,S,33.71706,-84.4368,
ROBBERY-PEDESTRIAN,161442755,05/23/2016,388 LEGACY DR SW,104,Harris Chiles,T,33.74526,-84.41915,
ROBBERY-PEDESTRIAN,161440105,05/23/2016,860 JUNIPER ST SE,505,Midtown,E,33.77843,-84.38274,
ROBBERY-PEDESTRIAN,161440195,05/23/2016,158 NASSAU,508,Downtown,M,33.75868,-84.39218,
AGG ASSAULT,161442808,05/23/2016,720 FULTON INDUSTRIAL BLVD NW,114,Carroll Heights,H,33.77385,-84.51514,
BURGLARY-RESIDENCE,161442674,05/23/2016,1232 BOULDERCREST DR SE,612,East Atlanta,W,33.7206,-84.33057,
BURGLARY-RESIDENCE,161443017,05/23/2016,600 GREENSFERRY AVE SW,101,The Villages at Castleberry Hill,T,33.74662,-84.40755,
BURGLARY-RESIDENCE,161441303,05/23/2016,1065 ADA AVE NW,109,Almond Park,G,33.78327,-84.46315,
BURGLARY-RESIDENCE,161442635,05/23/2016,532 CLEVELAND AVE SW,311,Hammond Park,X,33.68116,-84.4059,
BURGLARY-RESIDENCE,161441577,05/23/2016,624 WALDO ST SE,605,Grant Park,W,33.73716,-84.36657,
BURGLARY-RESIDENCE,161441621,05/23/2016,49 BOULEVARD SE,604,Sweet Auburn,M,33.75275,-84.37186,
BURGLARY-RESIDENCE,161441755,05/23/2016,908 EMERSON AVE SE,607,Ormewood Park,W,33.73302,-84.35782,
BURGLARY-RESIDENCE,161442812,05/23/2016,765 MCDANIEL ST SW,302,Pittsburgh,V,33.73396,-84.40177,
BURGLARY-RESIDENCE,161441877,05/23/2016,47 BOWEN AVE SE,305,South Atlanta,Y,33.70953,-84.38365,
BURGLARY-RESIDENCE,161442278,05/23/2016,246 ORMOND ST SE,605,Grant Park,W,33.73174,-84.37979,
BURGLARY-RESIDENCE,161442109,05/23/2016,765 MCDANIEL ST SW,302,Pittsburgh,V,33.73396,-84.40177,
AGG ASSAULT,161442799,05/23/2016,3393 PEACHTREE RD NE @LENOX MALL,210,Lenox,B,33.84676,-84.36212,
AGG ASSAULT,161432383,05/23/2016,839 WOODBOURNE DR,306,Sylvan Hills,X,33.70997,-84.41608,
AGG ASSAULT,161442064,05/23/2016,640 NEW TOWN CIR SE,308,Thomasville Heights,Z,33.70652,-84.36352,
LARCENY-NON VEHICLE,161441990,05/23/2016,2625 PIEDMONT RD NE,211,Lindbergh/Morosgo,B,33.82678,-84.36699,
LARCENY-NON VEHICLE,161441448,05/23/2016,3393 PEACHTREE RD NE ,210,Lenox,B,33.84676,-84.36212,
LARCENY-NON VEHICLE,161442461,05/23/2016,3393 PEACHTREE RD NE,210,Lenox,B,33.84676,-84.36212,
LARCENY-NON VEHICLE,161441967,05/23/2016,375 18TH ST NW @TARGET - 18TH,501,Atlantic Station,E,33.79303,-84.39921,
LARCENY-NON VEHICLE,161442648,05/23/2016,3500 PEACHTREE RD NE ,208,North Buckhead,B,33.85252,-84.36116,
LARCENY-NON VEHICLE,161442681,05/23/2016,3393 PEACHTREE RD NE,210,Lenox,B,33.84676,-84.36212,
LARCENY-NON VEHICLE,161440225,05/23/2016,329 14TH ST NW,501,Home Park,E,33.78635,-84.39797,
LARCENY-NON VEHICLE,161441015,05/23/2016,2539 PIEDMONT RD NE @TARGET - PIEDMONT,211,Lindbergh/Morosgo,B,33.82403,-84.36328,
LARCENY-NON VEHICLE,161441614,05/23/2016,305 JOSEPH E LOWERY BLVD NW,102,Vine City,L,33.763,-84.41736,
LARCENY-NON VEHICLE,161441773,05/23/2016,1275 CAROLINE ST NE @TARGET - CAROLINE,609,Edgewood,O,33.75674,-84.34619,
LARCENY-NON VEHICLE,161441808,05/23/2016,595 PIEDMONT AVE NE @PUBLIX - PIEDMONT,603,Old Fourth Ward,M,33.77067,-84.38023,
LARCENY-NON VEHICLE,161442334,05/23/2016,187 MOURY AVE SW,305,The Villages at Carver,Y,33.71449,-84.39138,
BURGLARY-RESIDENCE,161440148,05/23/2016,601 LAKESIDE VILLAGE DR SE,611,The Villages at East Lake,O,33.74526,-84.31677,
BURGLARY-NONRES,161441020,05/23/2016,1131 LEE ST SW,402,Oakland City,S,33.72408,-84.42153,
LARCENY-FROM VEHICLE,161443121,05/23/2016,343 JOSEPH E LOWERY BLVD SW,104,Ashview Heights,T,33.74569,-84.41786,
LARCENY-FROM VEHICLE,161442777,05/23/2016,315 10TH ST NE,503,Midtown,E,33.78151,-84.37704,
LARCENY-FROM VEHICLE,161442386,05/23/2016,625 PIEDMONT AVE NE,505,Midtown,E,33.77178,-84.38174,
LARCENY-FROM VEHICLE,161441909,05/23/2016,677 GILLETTE AVE SW,301,Adair Park,V,33.73294,-84.40991,
LARCENY-FROM VEHICLE,161442976,05/23/2016,1739 CHESHIRE BRIDGE RD NE,213,Morningside/Lenox Park,F,33.80748,-84.36519,
LARCENY-FROM VEHICLE,161442594,05/23/2016,700 ARGONNE AVE NE,505,Midtown,E,33.77381,-84.37779,
LARCENY-FROM VEHICLE,161442590,05/23/2016,1892 HOWELL MILL RD NW,205,Wildwood (NPU-C),C,33.80673,-84.41316,
LARCENY-FROM VEHICLE,161442462,05/23/2016,712 MAIDEN LN NE ,601,Virginia Highland,F,33.77467,-84.36327,
LARCENY-FROM VEHICLE,161442671,05/23/2016,631 MARTIN ST SE,304,Summerhill,V,33.73738,-84.38432,
LARCENY-FROM VEHICLE,161442054,05/23/2016,2323 PIEDMONT RD NE,211,Lindbergh/Morosgo,B,33.81869,-84.36622,
LARCENY-FROM VEHICLE,161441719,05/23/2016,2841 GREENBRIAR PKWY SW @GREENBRIAR MALL,411,Greenbriar,R,33.68677,-84.49773,
LARCENY-FROM VEHICLE,161441714,05/23/2016,89 MANGUM ST NW,507,Downtown,M,33.75592,-84.39932,
LARCENY-FROM VEHICLE,161441684,05/23/2016,506 MORELAND AVE NE,602,Inman Park,N,33.76813,-84.34952,
LARCENY-FROM VEHICLE,161441478,05/23/2016,80 PEACHTREE PL,503,Midtown,E,33.78041,-84.39005,
LARCENY-FROM VEHICLE,161440298,05/23/2016,962 MCDANIEL ST SW,302,Pittsburgh,V,33.72863,-84.40137,
LARCENY-FROM VEHICLE,161441223,05/23/2016,100 EDGEWOOD AVE NE,510,Downtown,M,33.75478,-84.38541,
LARCENY-FROM VEHICLE,161441028,05/23/2016,712 DURANT PL NE,506,Midtown,E,33.77402,-84.37601,
LARCENY-FROM VEHICLE,161440995,05/23/2016,2250 PERRY BLVD NW ,110,Scotts Crossing,G,33.80482,-84.4617,
LARCENY-FROM VEHICLE,161441273,05/23/2016,1373 MCPHERSON AVE SE,612,East Atlanta,W,33.7441,-84.34269,
LARCENY-FROM VEHICLE,161440630,05/23/2016,2137 BOULEVARD GRANADA SW,409,Adams Park,R,33.71703,-84.45833,
LARCENY-FROM VEHICLE,161440626,05/23/2016,291 FIELDING LN SW,406,Peyton Forest,I,33.74758,-84.48333,
LARCENY-FROM VEHICLE,161440610,05/23/2016,2854 CHAUCER DR SW,406,Peyton Forest,I,33.74529,-84.48148,
LARCENY-FROM VEHICLE,161441798,05/23/2016,359 W LAKE AVE NW,107,Grove Park,J,33.76506,-84.44089,
LARCENY-FROM VEHICLE,161440556,05/23/2016,3370 WELCOME ALL RD SW,414,Ben Hill,P,33.66313,-84.52206,
LARCENY-FROM VEHICLE,161442198,05/23/2016,2796 ARGYLE DR NW,113,Lincoln Homes,G,33.79919,-84.47947,
LARCENY-NON VEHICLE,161441290,05/23/2016,2191 POLAR ROCK PL SW,310,Polar Rock,Z,33.69458,-84.39377,
LARCENY-NON VEHICLE,161441241,05/23/2016,552 W END PL SW,401,West End,T,33.74005,-84.42456,
LARCENY-NON VEHICLE,161441251,05/23/2016,1975 ALISON CT ,410,Campbellton Road,R,33.70081,-84.45327,
LARCENY-NON VEHICLE,161442001,05/23/2016,125 MILTON AVE SE,305,Chosewood Park,Y,33.72157,-84.38505,
LARCENY-NON VEHICLE,161441757,05/23/2016,3550 LENOX RD NE,208,North Buckhead,B,33.85181,-84.36725,
LARCENY-NON VEHICLE,161442230,05/23/2016,3012 JONESBORO RD SE,313,South River Gardens,Z,33.67225,-84.37156,
LARCENY-NON VEHICLE,161441534,05/23/2016,360 THOMASVILLE BLVD SE,308,Thomasville Heights,Z,33.70611,-84.357,
LARCENY-NON VEHICLE,161441407,05/23/2016,688 GRANT ST SE @APS NEIGHBORHOOD CHR,605,Grant Park,W,33.73578,-84.37612,
LARCENY-NON VEHICLE,161441905,05/23/2016,150 GARNETT ST SW @MUNICIPAL COURT,512,Downtown,M,33.7474,-84.39298,
LARCENY-NON VEHICLE,161440938,05/23/2016,1124 SPRING ST ,503,Midtown,E,33.78576,-84.38923,
LARCENY-NON VEHICLE,161440578,05/23/2016,3116 BENJAMIN E MAYS DR,406,Green Forest Acres,I,33.73303,-84.48973,
LARCENY-NON VEHICLE,161441150,05/23/2016,3332 PEACHTREE RD NE,208,North Buckhead,B,33.84692,-84.37018,
LARCENY-NON VEHICLE,161442746,05/23/2016,600 PHIPPS BLVD NE,209,North Buckhead,B,33.85301,-84.36531,
LARCENY-NON VEHICLE,161442595,05/23/2016,850 OAK ST SW @WEST END MALL,401,West End,T,33.74057,-84.4168,
LARCENY-NON VEHICLE,161443043,05/23/2016,322 GRANT ST SE,605,Grant Park,W,33.74591,-84.3762,
LARCENY-NON VEHICLE,161441338,05/23/2016,2065 LIDDELL DR NE,212,Morningside/Lenox Park,F,33.81153,-84.36102,
AUTO THEFT,161441803,05/23/2016,2798 PEEK RD NW,112,Collier Heights,I,33.77743,-84.47815,
AUTO THEFT,161441558,05/23/2016,405 FAIRBURN RD SW @WILDWOOD PARK TOWNH,407,Wildwood (NPU-H),H,33.74471,-84.5129,
AUTO THEFT,161441184,05/23/2016,3642 CAMPBELLTON RD SW,413,,P,33.68883,-84.50772,
AUTO THEFT,161440294,05/23/2016,238 WALKER ST SW,507,Castleberry Hill,M,33.74821,-84.40256,
AUTO THEFT,161441703,05/23/2016,850 OAK ST SW @WEST END MALL,401,West End,T,33.74053,-84.41671,
AUTO THEFT,161440330,05/23/2016,3 JOSEPH E LOWERY BLVD NW,102,Vine City,L,33.75488,-84.41744,
AUTO THEFT,161440566,05/23/2016,2788 DEFOORS FERRY RD NW,201,,C,33.82114,-84.44713,
AUTO THEFT,161441172,05/23/2016,1423 MILL ACRES DR SW,409,Cascade Heights,I,33.71665,-84.47122,
AUTO THEFT,161432675,05/23/2016,1187 CAHABA DR SW      ,403,Cascade Avenue/Road,S,33.72302,-84.44893,
AUTO THEFT,161440267,05/23/2016,636 DARLINGTON CIR NE,211,Peachtree Park,B,33.8323,-84.36528,
AUTO THEFT,161441788,05/23/2016,1346 WESTRIDGE RD SW,408,Venetian Hills,S,33.71842,-84.44659,
AUTO THEFT,161431361,05/22/2016,550 FAIRBURN RD SW,407,Fairburn Mays,H,33.73933,-84.50964,
AUTO THEFT,161431916,05/22/2016,1342 LUCILE AVE SW,401,West End,T,33.74206,-84.43171,
AUTO THEFT,161431546,05/22/2016,550 FAIRBURN RD SW,407,Fairburn Mays,H,33.73933,-84.50964,
LARCENY-NON VEHICLE,161431177,05/22/2016,400 W PEACHTREE ST NW,504,Downtown,M,33.76614,-84.3876,
LARCENY-NON VEHICLE,161431624,05/22/2016,1944 PIEDMONT CIR NE,212,Piedmont Heights,F,33.81165,-84.36787,
LARCENY-NON VEHICLE,161431393,05/22/2016,600 GREENSFERRY AVE SW,101,The Villages at Castleberry Hill,T,33.74662,-84.40755,
LARCENY-NON VEHICLE,161431470,05/22/2016,1614 ARTHUR LANGFORD JR PL,307,Amal Heights,Y,33.70845,-84.39896,
AUTO THEFT,161431358,05/22/2016,870 MAYSON TURNER RD NW,102,Vine City,L,33.756,-84.41629,
AUTO THEFT,161430886,05/22/2016,2794 ALEXANDRIA DR SW,414,Deerwood,P,33.67815,-84.51343,
AUTO THEFT,161430463,05/22/2016,2 12TH ST NE,503,Midtown,E,33.78466,-84.38759,
AUTO THEFT,161431352,05/22/2016,1752 PRYOR RD SW,307,Betmar LaVilla,Y,33.70731,-84.39674,
AUTO THEFT,161431126,05/22/2016,2960 PIEDMONT RD NE,206,Garden Hills,B,33.83511,-84.3685,
AUTO THEFT,161431026,05/22/2016,222 TUSKEGEE ST SE,304,Peoplestown,V,33.72856,-84.38064,
AUTO THEFT,161430868,05/22/2016,1860 MEMORIAL DR SE,610,Kirkwood,O,33.74774,-84.32665,
AUTO THEFT,161430842,05/22/2016,2049 GRANT RD SW,412,Ben Hill Terrace,P,33.69873,-84.51992,
AUTO THEFT,161430731,05/22/2016,1467 EASON ST NW,105,Hunter Hills,K,33.75757,-84.43603,
AUTO THEFT,161430383,05/22/2016,400 FAIRBURN RD SW,407,Fairburn Mays,H,33.74366,-84.50936,
LARCENY-NON VEHICLE,161430793,05/22/2016,477 PEACHTREE ST NE,509,Downtown,M,33.76764,-84.38524,
LARCENY-NON VEHICLE,161431528,05/22/2016,2220 CAMPBELLTON RD SW,410,Campbellton Road,R,33.7044,-84.46144,
LARCENY-FROM VEHICLE,161432036,05/22/2016,2882 DAWS AVE SE,611,East Lake,O,33.74104,-84.29262,
LARCENY-FROM VEHICLE,161431585,05/22/2016,2798 PEEK RD NW,112,Collier Heights,I,33.77743,-84.47815,
LARCENY-NON VEHICLE,161431937,05/22/2016,791 WYLIE ST SE,606,Reynoldstown,N,33.75251,-84.36156,
LARCENY-FROM VEHICLE,161431078,05/22/2016,840 MARIETTA ST NW,504,Marietta Street Artery,E,33.77522,-84.40691,
LARCENY-FROM VEHICLE,161430354,05/22/2016,342 PEACHTREE ST NE,508,Downtown,M,33.76384,-84.38658,
LARCENY-FROM VEHICLE,161432536,05/22/2016,3135 PIEDMONT RD NE,211,Peachtree Park,B,33.84266,-84.37036,
LARCENY-FROM VEHICLE,161432472,05/22/2016,190 MARIETTA ST NW,507,Downtown,M,33.75757,-84.39487,
LARCENY-FROM VEHICLE,161431100,05/22/2016,50 HOGUE ST NE,604,Old Fourth Ward,M,33.75552,-84.37116,
LARCENY-FROM VEHICLE,161430696,05/22/2016,806 MARIETTA ST,505,Midtown,E,33.77133,-84.38942,
LARCENY-FROM VEHICLE,161430522,05/22/2016,48 DANIEL ST SE,604,Old Fourth Ward,M,33.7528,-84.37053,
LARCENY-FROM VEHICLE,161430490,05/22/2016,360 MARIETTA ST NW,507,Downtown,M,33.76269,-84.39702,
LARCENY-FROM VEHICLE,161430489,05/22/2016,794 JUNIPER ST NE,505,Midtown,E,33.7762,-84.38319,
LARCENY-FROM VEHICLE,161430487,05/22/2016,704 PRYOR ST,303,Mechanicsville,V,33.73565,-84.39462,
LARCENY-FROM VEHICLE,161431419,05/22/2016,W PACES FERRY RD NW / NORTHSIDE PKWY NW,201,West Paces Ferry/Northside,A,33.84907,-84.43003,
LARCENY-FROM VEHICLE,161432025,05/22/2016,1025 HOWELL MILL RD NW,501,Home Park,E,33.78285,-84.41126,
LARCENY-FROM VEHICLE,161430363,05/22/2016,319 ANDERSON AVE NW,108,Dixie Hills,J,33.76391,-84.45097,
LARCENY-FROM VEHICLE,161431898,05/22/2016,498 S EVELYN PL NW,107,Grove Park,J,33.76869,-84.44615,
LARCENY-FROM VEHICLE,161431737,05/22/2016,111 JAMES P BRAWLEY DR NW,102,Vine City,L,33.75763,-84.41238,
LARCENY-FROM VEHICLE,161431631,05/22/2016,1071 PIEDMONTT AVE NE ,502,Midtown,E,33.78385,-84.37868,
LARCENY-FROM VEHICLE,161432297,05/22/2016,448 HOLDERNESS ST,404,West End,T,33.74273,-84.42687,
LARCENY-FROM VEHICLE,161432269,05/22/2016,365 CLEVELAND AVE SE @SOUTHEAST ATLANTA,312,Rosedale Heights,Z,33.67953,-84.37899,
LARCENY-FROM VEHICLE,161432439,05/22/2016,1060 OAK ST SW,401,West End,T,33.74074,-84.42231,
BURGLARY-NONRES,161432705,05/22/2016,1461 SYLVAN RD SW @APS SYLVAN MS,306,Sylvan Hills,X,33.71495,-84.41863,
BURGLARY-NONRES,161431107,05/22/2016,279 GEORGIA AVE SE,605,Grant Park,W,33.73648,-84.37857,
BURGLARY-NONRES,161432376,05/22/2016,112 KROG ST NE,602,Inman Park,N,33.75672,-84.36446,
BURGLARY-NONRES,161431171,05/22/2016,2500 MARTIN L KING JR DR SW,405,Harland Terrace,I,33.75237,-84.46958,
LARCENY-NON VEHICLE,161431764,05/22/2016,2975 HEADLAND DR SW @BIG LOTS - HEADLAND,411,Greenbriar,R,33.69168,-84.4872,
LARCENY-NON VEHICLE,161431983,05/22/2016,2539 PIEDMONT RD NE @TARGET - PIEDMONT,211,Lindbergh/Morosgo,B,33.82403,-84.36328,
LARCENY-NON VEHICLE,161430168,05/22/2016,218 PEACHTREE ST NW,508,Downtown,M,33.76028,-84.38768,
LARCENY-NON VEHICLE,161432056,05/22/2016,3400 AROUND LENOX DR NE,210,Lenox,B,33.84578,-84.36489,
LARCENY-NON VEHICLE,161432075,05/22/2016,3334 PEACHTREE RD NE ,208,North Buckhead,B,33.84911,-84.37075,
LARCENY-NON VEHICLE,161432183,05/22/2016,1801 HOWELL MILL RD NW,204,Berkeley Park,D,33.80388,-84.41278,
LARCENY-NON VEHICLE,161422216,05/22/2016,1046 FAYETTEVILLE RD SE,612,East Atlanta,W,33.72555,-84.3227,
AGG ASSAULT,161430197,05/22/2016,937 FAIR ST SW,104,Ashview Heights,T,33.74923,-84.41844,
AGG ASSAULT,161430202,05/22/2016,1140 CRESCENT AVE NE,503,Midtown,E,33.78588,-84.38448,
BURGLARY-RESIDENCE,161430434,05/22/2016,1006 MAYSON TURNER RD NW,105,Washington Park,K,33.76058,-84.41956,
BURGLARY-RESIDENCE,161431859,05/22/2016,2364 DURANGO RD SW,413,Arlington Estates,P,33.69053,-84.53638,
BURGLARY-RESIDENCE,161431060,05/22/2016,1181 BOULDERCREST DR SE,612,East Atlanta,W,33.72189,-84.33208,
BURGLARY-RESIDENCE,161431366,05/22/2016,870 MAYSON TURNER RD NW,102,Vine City,L,33.756,-84.41629,
AGG ASSAULT,161432451,05/22/2016,3314 DELMAR LN,111,,I,33.75611,-84.49305,
ROBBERY-PEDESTRIAN,161431250,05/22/2016,225 PEACHTREE ST,512,Downtown,M,33.76016,-84.38703,
ROBBERY-PEDESTRIAN,161430453,05/22/2016,17 JESSE HILL JR DR NE,510,Downtown,M,33.75487,-84.37999,
ROBBERY-PEDESTRIAN,161430391,05/22/2016,505 FULTON ST SW,303,Mechanicsville,V,33.74182,-84.40329,
ROBBERY-PEDESTRIAN,161432510,05/22/2016,296 DELEVAN ST SW,302,Pittsburgh,V,33.72638,-84.39769,
ROBBERY-PEDESTRIAN,161421114,05/21/2016,236 ELIZABETH ST NE,602,Inman Park,N,33.76074,-84.35839,
ROBBERY-PEDESTRIAN,161423085,05/21/2016,680 GREENWOOD AVE NE,601,Virginia Highland,F,33.77714,-84.36514,
ROBBERY-PEDESTRIAN,161422482,05/21/2016,2716 RIDGEWOOD RD NW,201,Paces,A,33.82913,-84.4497,
ROBBERY-PEDESTRIAN,161421270,05/21/2016,208 15TH ST NW,501,Home Park,E,33.78862,-84.39392,
ROBBERY-PEDESTRIAN,161422570,05/21/2016,1783 JOHNSON RD NW,110,Rockdale,G,33.78547,-84.44593,
ROBBERY-PEDESTRIAN,161420501,05/21/2016,98 HATCHER AVE SW,304,Peoplestown,V,33.72832,-84.39074,
AGG ASSAULT,161422486,05/21/2016,1331 CAMPBELLTON RD SW,403,Venetian Hills,S,33.71561,-84.43185,
ROBBERY-RESIDENCE,161421785,05/21/2016,1836 SANDTOWN RD SW,408,Venetian Hills,S,33.71827,-84.44827,
AGG ASSAULT,161422177,05/21/2016,1305 OAKLAND DR SW @OAKLAND CITY PARK,403,Oakland City,S,33.71896,-84.42892,
AGG ASSAULT,161421639,05/21/2016,1494 MEMORIAL DR SE,610,Kirkwood,O,33.7479,-84.33931,
AGG ASSAULT,161422831,05/21/2016,2140 BURROUGHS AVE SE,310,Lakewood,Z,33.69581,-84.37093,
AGG ASSAULT,161421353,05/21/2016,471 CLEVELAND AVE SW,309,Perkerson,X,33.68168,-84.40506,
BURGLARY-RESIDENCE,161421802,05/21/2016,2301 SANDCOVE CT SW,412,,P,33.6999,-84.54322,
BURGLARY-RESIDENCE,161421700,05/21/2016,1446 LAVENDER DR NW,105,Hunter Hills,K,33.76109,-84.43525,
BURGLARY-RESIDENCE,161421810,05/21/2016,2591 ETHERIDGE DR NW,113,Carey Park,G,33.7881,-84.47292,
BURGLARY-RESIDENCE,161422397,05/21/2016,1640 FAIRBURN RD SW,412,Heritage Valley,P,33.70944,-84.50616,
BURGLARY-RESIDENCE,161421917,05/21/2016,2500 CENTER ST NW,113,Carey Park,G,33.78999,-84.47156,
BURGLARY-RESIDENCE,161422718,05/21/2016,193 BATTERY PL NE,602,Inman Park,N,33.75949,-84.35312,
BURGLARY-RESIDENCE,161422961,05/21/2016,369 MCDANIEL ST SW,101,The Villages at Castleberry Hill,T,33.74505,-84.40523,
BURGLARY-RESIDENCE,161422685,05/21/2016,400 CENTRAL PARK PL NE,603,Old Fourth Ward,M,33.76602,-84.37815,
BURGLARY-RESIDENCE,161422931,05/21/2016,2511 FORREST AVE NW,203,Riverside,D,33.81462,-84.47036,
AGG ASSAULT,161420630,05/21/2016,1192 PRYOR ST SW,304,Peoplestown,V,33.72287,-84.3928,
AGG ASSAULT,161420436,05/21/2016,3047 MIDDLETON RD NW,111,,I,33.7537,-84.48922,
AGG ASSAULT,161422421,05/21/2016,3041 LANDRUM DR SW,409,Southwest,R,33.70649,-84.48782,
AGG ASSAULT,161420773,05/21/2016,1990 ALISON CT SW,410,Campbellton Road,R,33.70066,-84.45363,
BURGLARY-RESIDENCE,161421663,05/21/2016,2494 BELLVIEW AVE NW,109,Center Hill,J,33.77645,-84.46884,
BURGLARY-RESIDENCE,161421536,05/21/2016,3227 DALE LN SW,409,Southwest,R,33.69432,-84.49388,
BURGLARY-RESIDENCE,161421432,05/21/2016,3746 BRITTANY WALK SW,413,Ben Hill Pines,P,33.68192,-84.50817,
BURGLARY-RESIDENCE,161420252,05/21/2016,3200 LENOX RD NE,210,Pine Hills,B,33.84293,-84.35825,
BURGLARY-RESIDENCE,161413087,05/21/2016,1770 RICHMOND CIR SE,307,Lakewood Heights,Y,33.70695,-84.37414,
LARCENY-NON VEHICLE,161422235,05/21/2016,3393 PEACHTREE RD NE,210,Lenox,B,33.84676,-84.36212,
LARCENY-NON VEHICLE,161422310,05/21/2016,3500 PEACHTREE RD NE,208,North Buckhead,B,33.85302,-84.36278,
LARCENY-NON VEHICLE,161422317,05/21/2016,1001 PONCE DE LEON AVE NE @PUBLIX - PONCE,602,Poncey-Highland,N,33.7734,-84.35467,
LARCENY-NON VEHICLE,161422474,05/21/2016,850 OAK ST,407,West End,T,33.74053,-84.41671,
LARCENY-NON VEHICLE,161421485,05/21/2016,3030 HEADLAND DR SW,411,Greenbriar,R,33.68841,-84.48742,
LARCENY-NON VEHICLE,161421449,05/21/2016,2076 CAMPBELLTON RD SW,410,Campbellton Road,R,33.7065,-84.45701,
LARCENY-NON VEHICLE,161421493,05/21/2016,835 MARTIN L KING JR DR NW,102,Vine City,L,33.75504,-84.41457,
LARCENY-NON VEHICLE,161421690,05/21/2016,835 MARTIN L KING JR DR NW,102,Vine City,L,33.75504,-84.41457,
LARCENY-NON VEHICLE,161421913,05/21/2016,835 MARTIN LUTHER KING JR ,102,Vine City,L,33.75504,-84.41457,
LARCENY-NON VEHICLE,161422197,05/21/2016,737 PONCE DE LEON AVE NE,602,Poncey-Highland,N,33.77348,-84.36289,
LARCENY-NON VEHICLE,161412250,05/21/2016,850 OAK ST ,401,West End,T,33.74057,-84.4168,
LARCENY-FROM VEHICLE,161421501,05/21/2016,1105 W PEACHTREE ST NE,503,Midtown,E,33.78516,-84.38792,
LARCENY-FROM VEHICLE,161420857,05/21/2016,1625 EMERALD AVE SW,404,Westview,T,33.74257,-84.44085,
LARCENY-FROM VEHICLE,161421101,05/21/2016,3645 HABERSHAM RD NE,208,Buckhead Forest,B,33.8532,-84.38252,
LARCENY-FROM VEHICLE,161420249,05/21/2016,76 4TH ST NW,505,Midtown,E,33.77487,-84.38975,
LARCENY-FROM VEHICLE,161421178,05/21/2016,2521 PIEDMONT RD NE,211,Lindbergh/Morosgo,B,33.82397,-84.36684,
LARCENY-FROM VEHICLE,161420375,05/21/2016,232 FORSYTH ST SW,512,Downtown,M,33.74852,-84.39636,
LARCENY-FROM VEHICLE,161420451,05/21/2016,2331 PEACHTREE RD NE,211,Peachtree Hills,B,33.81831,-84.38853,
LARCENY-FROM VEHICLE,161421106,05/21/2016,1015 GRANT ST SE,605,Grant Park,W,33.72676,-84.37706,
LARCENY-FROM VEHICLE,161420669,05/21/2016,505 WHITEHALL ST SW,303,Mechanicsville,V,33.7438,-84.40436,
LARCENY-FROM VEHICLE,161421435,05/21/2016,850 OAK ST SW @WEST END MALL,401,West End,T,33.74057,-84.4168,
LARCENY-FROM VEHICLE,161421399,05/21/2016,2975 HEADLAND DR SW @BIG LOTS - HEADLAND,411,Greenbriar,R,33.69168,-84.4872,
LARCENY-FROM VEHICLE,161421551,05/21/2016,289 HOWELL TERRANCE,407,Fairburn Mays,H,33.74984,-84.50488,
BURGLARY-NONRES,161421664,05/21/2016,3550 MARTIN L KING JR DR SW,407,Adamsville,H,33.75811,-84.50389,
BURGLARY-RESIDENCE,161421770,05/21/2016,186 W LAKE DR NW,105,West Lake,J,33.7616,-84.4402,
BURGLARY-RESIDENCE,161421697,05/21/2016,300 MARTIN L KING JR DR SE,605,Oakland,W,33.74749,-84.37762,
LARCENY-FROM VEHICLE,161422294,05/21/2016,695 INDIGO LN NW,112,Collier Heights,I,33.7735,-84.48103,
LARCENY-FROM VEHICLE,161421827,05/21/2016,1049 PONCE DE LEON AVE NE,602,Poncey-Highland,N,33.77315,-84.35304,
LARCENY-FROM VEHICLE,161421756,05/21/2016,166 ANDERSON AVE NW,108,Dixie Hills,J,33.75876,-84.45133,
LARCENY-FROM VEHICLE,161421746,05/21/2016,738 HIGHLAND AVE NE,604,Old Fourth Ward,M,33.76156,-84.36308,
LARCENY-FROM VEHICLE,161421740,05/21/2016,2135 LIDDELL DR NE,212,Morningside/Lenox Park,F,33.81194,-84.36298,
LARCENY-FROM VEHICLE,161421651,05/21/2016,260 WADLEY ST NW,108,Dixie Hills,J,33.75877,-84.45835,
LARCENY-FROM VEHICLE,161422985,05/21/2016,935 SYLVAN PL SW,306,Sylvan Hills,X,33.70513,-84.41889,
LARCENY-FROM VEHICLE,161422565,05/21/2016,782 ANTONE ST NW,207,Berkeley Park,D,33.79769,-84.41416,
LARCENY-FROM VEHICLE,161422905,05/21/2016,840 MARIETTA ST NW,504,Marietta Street Artery,E,33.77522,-84.40691,
LARCENY-FROM VEHICLE,161422876,05/21/2016,942 PROCTOR ST NW,106,Bankhead,K,33.76488,-84.41841,
LARCENY-FROM VEHICLE,161421625,05/21/2016,3445 MARTIN L KING JR DR NW,111,Adamsville,H,33.75614,-84.50021,
LARCENY-FROM VEHICLE,161421228,05/21/2016,712 W PEACHTREE ST NW,505,Midtown,E,33.77405,-84.38769,
LARCENY-FROM VEHICLE,161421601,05/21/2016,1891 VALLEY RIDGE DR SW,412,Heritage Valley,P,33.70411,-84.50258,
LARCENY-NON VEHICLE,161422041,05/21/2016,240 N HIGHLAND AVE NE @PARISH FOODS,602,Inman Park,N,33.76191,-84.36039,
LARCENY-FROM VEHICLE,161420280,05/21/2016,300 W PEACHTREE ST NW @PEACHTREE TOWERS,508,Downtown,M,33.76254,-84.38789,
LARCENY-FROM VEHICLE,161422727,05/21/2016,211 COLONIAL HOMES DR NW,205,Colonial Homes,C,33.81408,-84.39427,
LARCENY-FROM VEHICLE,161422742,05/21/2016,180 HARRIETT ST SE,305,South Atlanta,Y,33.71601,-84.38265,
LARCENY-FROM VEHICLE,161422113,05/21/2016,250 AMAL DR SW,307,Betmar LaVilla,Y,33.70588,-84.39604,
LARCENY-FROM VEHICLE,161421482,05/21/2016,2489 MONTVIEW DR NW,205,Peachtree Battle Alliance,C,33.82306,-84.40098,
LARCENY-FROM VEHICLE,161421173,05/21/2016,384 RALPH MCGILL BLVD NE,603,Old Fourth Ward,M,33.76423,-84.37501,
LARCENY-NON VEHICLE,161422517,05/21/2016,116 PARK AVE SE,305,South Atlanta,Y,33.71178,-84.38669,
LARCENY-NON VEHICLE,161421912,05/21/2016,280 ELIZABETH ST NE,602,Inman Park,N,33.76198,-84.35846,
LARCENY-NON VEHICLE,161421936,05/21/2016,683 PEACHTREE ST NE @COX CARLTON HOTEL,505,Midtown,E,33.77325,-84.38449,
LARCENY-NON VEHICLE,161422586,05/21/2016,1009 DILL AVE SW,301,Capitol View,X,33.71857,-84.42121,
LARCENY-NON VEHICLE,161422944,05/21/2016,3804 MARTIN L KING JR DR SW,114,Old Gordon,H,33.76797,-84.51322,
LARCENY-NON VEHICLE,161420978,05/21/2016,1683 BROWNING ST NW,104,Mozley Park,K,33.75263,-84.44219,
AUTO THEFT,161421030,05/21/2016,2470 SAINT PAUL AVE NW,113,Carey Park,G,33.78953,-84.46877,
AUTO THEFT,161422193,05/21/2016,38 HAMILTON E HOLMES DR NW,111,Harland Terrace,I,33.75319,-84.46811,
AUTO THEFT,161422009,05/21/2016,1083 WESTVIEW,104,Ashview Heights,T,33.74725,-84.42314,
AUTO THEFT,161420588,05/21/2016,180 RALPH D ABERNATHY BLVD SW,303,Mechanicsville,V,33.73656,-84.39376,
AUTO THEFT,161421074,05/21/2016,585 LOVEJOY ST NW,504,Downtown,M,33.76762,-84.39282,
AUTO THEFT,161420001,05/21/2016,727 JUNIPER ST,505,Midtown,E,33.77448,-84.38263,
AUTO THEFT,161421678,05/21/2016,RHODES ST NW / NORTHSIDE DR NW,507,Vine City,L,33.75686,-84.40279,
AUTO THEFT,161421576,05/21/2016,1860 HONEYSUCKLE LN SW,410,Campbellton Road,R,33.70676,-84.45353,
AUTO THEFT,161421185,05/21/2016,722 FRASER ST SE,304,Summerhill,V,33.73495,-84.38607,
AUTO THEFT,161421139,05/21/2016,36 JOHNSON RD NW,110,Grove Park,J,33.78203,-84.45439,
AUTO THEFT,161421133,05/21/2016,629 JAMES P BRAWLEY DR NW,103,English Avenue,L,33.77184,-84.41215,
AUTO THEFT,161421080,05/21/2016,1572 HARDEE ST NE,609,Edgewood,O,33.75546,-84.33644,
AUTO THEFT,161422512,05/21/2016,2841 GREENBRIAR PKWY SW @GREENBRIAR MALL,411,Greenbriar,R,33.68845,-84.49328,
LARCENY-NON VEHICLE,161420686,05/21/2016,208 BARFIELD AVE SW,405,Florida Heights,I,33.75012,-84.46145,
LARCENY-NON VEHICLE,161421335,05/21/2016,1449 DONNELLY AVE SW,402,West End,T,33.73818,-84.43483,
LARCENY-NON VEHICLE,161423026,05/21/2016,1541 NORTH AVE NW,107,Grove Park,J,33.7682,-84.4383,
AUTO THEFT,161421372,05/21/2016,171 AUBURN AVE NE,510,Downtown,M,33.75546,-84.38185,
AUTO THEFT,161420267,05/21/2016,171 MURRAY HILL AVE NE,610,Kirkwood,O,33.75731,-84.31578,
LARCENY-NON VEHICLE,161411569,05/20/2016,3393 PEACHTREE RD NE @LENOX SQUARE,210,Lenox,B,33.84676,-84.36212,
LARCENY-NON VEHICLE,161412298,05/20/2016,935 PIEDMONT AVE NE,503,Midtown,E,33.78031,-84.38076,
AUTO THEFT,161412982,05/20/2016,1141 SEABOARD AVE NE,606,Reynoldstown,N,33.75867,-84.34998,
AUTO THEFT,161412883,05/20/2016,383 PICKFAIR AVE,307,Lakewood Heights,Y,33.70412,-84.40198,
AUTO THEFT,161412766,05/20/2016,3046 MIDDLETON RD NW,111,,I,33.7529,-84.48932,
AUTO THEFT,161412758,05/20/2016,249 BURBANK DR NW,105,Hunter Hills,K,33.76202,-84.4291,
AUTO THEFT,161412034,05/20/2016,1515 BREWER BLVD SW,306,Sylvan Hills,X,33.71327,-84.41778,
AUTO THEFT,161411737,05/20/2016,3393 PEACHTREE RD NE @LENOX MALL,210,Lenox,B,33.84676,-84.36212,
AUTO THEFT,161411611,05/20/2016,301 CONNALLY ST SE,605,Capitol Gateway,V,33.74645,-84.38164,
AUTO THEFT,161410994,05/20/2016,1994 BENT CREEK WAY SW,410,Campbellton Road,R,33.7011,-84.46631,
AUTO THEFT,161411173,05/20/2016,3424 MARTIN L KING JR DR SW @ADAMSVILLE-COLLIER H,407,Adamsville,H,33.75503,-84.50014,
LARCENY-NON VEHICLE,161411082,05/20/2016,2950 MARTIN L KING JR DR SW,405,Harland Terrace,I,33.7532,-84.48399,
LARCENY-NON VEHICLE,161411583,05/20/2016,4191 NORTHSIDE DR NW @APS JACKSON PRIM ES,202,Chastain Park,A,33.86971,-84.40641,
LARCENY-NON VEHICLE,161412024,05/20/2016,650 PHIPPS BLVD NE,209,North Buckhead,B,33.85398,-84.3646,
LARCENY-NON VEHICLE,161411687,05/20/2016,150 GARNETT ST SW @MUNICIPAL COURT,512,Downtown,M,33.7474,-84.39298,
LARCENY-NON VEHICLE,161410211,05/20/2016,292 MORELAND AVE NE,602,Cabbagetown,N,33.75149,-84.36309,
LARCENY-NON VEHICLE,161410923,05/20/2016,200 PEYTON PL SW,405,Harland Terrace,I,33.7501,-84.47555,
LARCENY-NON VEHICLE,161412934,05/20/2016,165 COURTLAND ST NE @SHERATON ATLANTA,510,Downtown,M,33.75895,-84.3834,
LARCENY-NON VEHICLE,161410972,05/20/2016,100 CENTENNIAL OLYMPIC P DR NW @W1,507,Downtown,M,33.75733,-84.39635,
LARCENY-FROM VEHICLE,161412525,05/20/2016,1285 MARTIN ST SE,305,South Atlanta,Y,33.71921,-84.38419,
LARCENY-FROM VEHICLE,161411300,05/20/2016,1757 MELROSE DR SW,306,Sylvan Hills,X,33.70672,-84.42054,
LARCENY-FROM VEHICLE,161411857,05/20/2016,300 BIGGERS ST SE ,605,Grant Park,W,33.7482,-84.3765,
LARCENY-FROM VEHICLE,161411806,05/20/2016,2091 METROPOLITAN PKWY SW @STEWART LAKEWOOD PR,306,Sylvan Hills,X,33.69816,-84.40848,
LARCENY-FROM VEHICLE,161411801,05/20/2016,3393 PEACHTREE RD NE @LENOX SQUARE,210,Lenox,B,33.84676,-84.36212,
LARCENY-FROM VEHICLE,161411655,05/20/2016,1079 MARIETTA BLVD NW,106,Knight Park/Howell Station,K,33.7839,-84.4285,
LARCENY-FROM VEHICLE,161411618,05/20/2016,4035 SOUTHWOOD CIR SW,412,Ben Hill Terrace,P,33.69563,-84.51997,
LARCENY-FROM VEHICLE,161371275,05/20/2016,770 DECKNER AVENUE SE,301,Capitol View,X,33.71272,-84.41349,
BURGLARY-RESIDENCE,161411713,05/20/2016,3685 MANOR CT SW,407,Fairburn Mays,H,33.7325,-84.51099,
BURGLARY-RESIDENCE,161412222,05/20/2016,2724 LOGHAVEN DR NW,112,Collier Heights,I,33.76004,-84.47702,
BURGLARY-RESIDENCE,161411563,05/20/2016,590 MORROW LN SW,407,Mays,H,33.74246,-84.50222,
BURGLARY-NONRES,161411400,05/20/2016,225 JAMES P BRAWLEY DR NW @APS BROWN MS,102,Vine City,L,33.76058,-84.41223,
LARCENY-FROM VEHICLE,161412161,05/20/2016,857 COLLIER RD NW,205,Wildwood (NPU-C),C,33.80986,-84.41626,
LARCENY-FROM VEHICLE,161411252,05/20/2016,720 CONNALLY ST SE,304,Summerhill,V,33.73498,-84.38073,
LARCENY-FROM VEHICLE,161411236,05/20/2016,433 PEEPLES ST SW,104,Harris Chiles,T,33.74329,-84.42156,
LARCENY-FROM VEHICLE,161410352,05/20/2016,925 BOWEN ST NW,207,Berkeley Park,D,33.79722,-84.41797,
LARCENY-FROM VEHICLE,161411148,05/20/2016,136 PRESTON LN SW,310,Browns Mill Park,Z,33.68553,-84.39244,
LARCENY-FROM VEHICLE,161410292,05/20/2016,1133 HUFF RD NW,203,Blandtown,D,33.78978,-84.42557,
LARCENY-FROM VEHICLE,161411703,05/20/2016,1122 PARK ROW S,607,Boulevard Heights,W,33.72365,-84.36824,
LARCENY-FROM VEHICLE,161411979,05/20/2016,2643 SANTA MONICA DR NW,112,Collier Heights,I,33.76634,-84.47441,
LARCENY-FROM VEHICLE,161411916,05/20/2016,1903 DREW DR NW,110,West Highlands,G,33.79214,-84.44947,
LARCENY-FROM VEHICLE,161410839,05/20/2016,300 W PEACHTREE ST NW,508,Downtown,M,33.76269,-84.38765,
LARCENY-FROM VEHICLE,161411146,05/20/2016,396 15TH ST NW,501,Home Park,E,33.78836,-84.39933,
LARCENY-FROM VEHICLE,161411121,05/20/2016,165 LITTLE ST SE,304,Summerhill,V,33.73296,-84.38224,
LARCENY-FROM VEHICLE,161411340,05/20/2016,180 WALKER ST SW,507,Castleberry Hill,M,33.74964,-84.40132,
LARCENY-FROM VEHICLE,161412715,05/20/2016,888 3RD ST NW,504,Marietta Street Artery,E,33.77918,-84.40915,
LARCENY-FROM VEHICLE,161412335,05/20/2016,956 WAVERLY WAY,602,Inman Park,N,33.76107,-84.35636,
LARCENY-FROM VEHICLE,161412778,05/20/2016,1409 PEACHTREE ST NE,502,Midtown,E,33.79356,-84.38609,
LARCENY-FROM VEHICLE,161410347,05/20/2016,415 ARMOUR DR NE,212,,F,33.81267,-84.37412,
LARCENY-FROM VEHICLE,161412657,05/20/2016,3755 CARMIA DR SW,414,Princeton Lakes,P,33.6569,-84.51004,
LARCENY-FROM VEHICLE,161413033,05/20/2016,123 MARIETTA ST NW,508,Downtown,M,33.75767,-84.39266,
LARCENY-FROM VEHICLE,161412596,05/20/2016,374 DIXIE HILL CIR NW,109,Grove Park,J,33.76633,-84.44881,
LARCENY-FROM VEHICLE,161412578,05/20/2016,2281 BARGE RD SW,412,Ben Hill Acres,P,33.69269,-84.50708,
LARCENY-FROM VEHICLE,161412569,05/20/2016,975 HANK AARON DR SW,304,Peoplestown,V,33.72798,-84.3883,
LARCENY-FROM VEHICLE,161412852,05/20/2016,300 OAKLAND AVE SE,605,Grant Park,W,33.74635,-84.37476,
LARCENY-NON VEHICLE,161412356,05/20/2016,2841 GREENBRIAR PKWY SW @GREENBRIAR MALL,411,Greenbriar,R,33.68677,-84.49773,
LARCENY-NON VEHICLE,161411680,05/20/2016,1856 PIEDMONT AVE NE,212,Piedmont Heights,F,33.80678,-84.36669,
LARCENY-NON VEHICLE,161411768,05/20/2016,2900 PEACHTREE RD NW,206,Peachtree Heights West,B,33.83399,-84.3841,
LARCENY-NON VEHICLE,161411531,05/20/2016,2685 METROPOLITAN PKWY SW,309,Perkerson,X,33.68274,-84.40902,
LARCENY-NON VEHICLE,161413111,05/20/2016,3660 MARTIN L KING JR DR SW,407,Adamsville,H,33.76217,-84.50865,
LARCENY-NON VEHICLE,161412713,05/20/2016,3393 PEACHTREE RD NE @LENOX MALL,210,Lenox,B,33.84676,-84.36212,
BURGLARY-RESIDENCE,161413110,05/20/2016,3000 CONTINENTAL COLONY PKWY SW,411,Greenbriar,R,33.68077,-84.4937,
BURGLARY-RESIDENCE,161412746,05/20/2016,2011 PRYOR RD SW,307,Lakewood Heights,Y,33.6993,-84.39925,
BURGLARY-RESIDENCE,161412613,05/20/2016,1089 E CONFEDERATE AVE SE,607,Woodland Hills,W,33.72444,-84.35203,
BURGLARY-RESIDENCE,161412884,05/20/2016,704 DURANT PL NE,506,Midtown,E,33.77388,-84.37613,
AGG ASSAULT,161412634,05/20/2016,8TH ST NW / SAINT JAMES AVE NW,113,Carey Park,G,33.78596,-84.47465,
AGG ASSAULT,161413004,05/20/2016,2148 WILSON AVE NW,108,Dixie Hills,J,33.75308,-84.45856,
AGG ASSAULT,161412471,05/20/2016,1830 WESTWOOD AVE SW,404,Westwood Terrace,I,33.73852,-84.44762,
AGG ASSAULT,161412785,05/20/2016,1680 VENETIAN DR SW,408,Venetian Hills,S,33.71435,-84.44277,
BURGLARY-RESIDENCE,161410047,05/20/2016,600 GREENSFERRY AVE SW,101,The Villages at Castleberry Hill,T,33.74662,-84.40755,
BURGLARY-RESIDENCE,161410810,05/20/2016,388 BOULEVARD NE,603,Old Fourth Ward,M,33.76519,-84.37204,
BURGLARY-RESIDENCE,161411090,05/20/2016,3390 FAIRBURN RD SW,414,Ben Hill,P,33.6639,-84.52377,
AGG ASSAULT,161412901,05/20/2016,887 SPRING ST NW,505,Midtown,E,33.77909,-84.38836,
AGG ASSAULT,161412858,05/20/2016,1983 MARTIN L KING JR DR NW,108,,I,33.75074,-84.44812,
ROBBERY-RESIDENCE,161410999,05/20/2016,2043 BENT CREEK WAY SW,410,Campbellton Road,R,33.69912,-84.4649,
ROBBERY-PEDESTRIAN,161411052,05/20/2016,598 CENTER HILL AVE NW,109,Center Hill,J,33.77161,-84.46459,
HOMICIDE,161410216,05/20/2016,535 ELMWOOD ROAD NW,107,Grove Park,J,33.76991,-84.43859,
ROBBERY-PEDESTRIAN,161411588,05/20/2016,641 NORTH AVE NE,603,Old Fourth Ward,M,33.77103,-84.36618,
ROBBERY-PEDESTRIAN,161412414,05/20/2016,904 CONFEDERATE CT,607,Ormewood Park,W,33.72928,-84.36159,
ROBBERY-PEDESTRIAN,161412319,05/20/2016,955 W MARIETTA ST NW,106,Knight Park/Howell Station,K,33.7841,-84.41811,
ROBBERY-PEDESTRIAN,161411872,05/20/2016,605 BOULEVARD NE,603,Old Fourth Ward,M,33.77097,-84.3714,
ROBBERY-PEDESTRIAN,161412484,05/20/2016,341 PONCE DE LEON AVE NE,603,Old Fourth Ward,M,33.77222,-84.37559,
ROBBERY-RESIDENCE,161411935,05/20/2016,3155 HICKMAN DR NW @ALLEN TEMPLE APTS,111,,I,33.75518,-84.49022,
ROBBERY-PEDESTRIAN,161402488,05/19/2016,118 STRATFORD DR NW,111,,I,33.75872,-84.48863,
AGG ASSAULT,161403163,05/19/2016,1044 GUN CLUB RD NW,110,Almond Park,G,33.78357,-84.45723,
AGG ASSAULT,161402937,05/19/2016,2324 CASCADE AVE SW,406,Cascade Heights,S,33.72258,-84.4642,
AGG ASSAULT,161402070,05/19/2016,2900 LANDRUM DR SW,409,Southwest,R,33.70623,-84.48372,
AGG ASSAULT,161400213,05/19/2016,1196 ARLINGTON AVE SW,403,Oakland City,S,33.72524,-84.42708,
AGG ASSAULT,161402646,05/19/2016,2049 MARTIN L KING JR DR NW,108,,I,33.7503,-84.45364,
AGG ASSAULT,161402393,05/19/2016,500 GLENN ST,303,Mechanicsville,V,33.74121,-84.4021,
BURGLARY-RESIDENCE,161401897,05/19/2016,3215 HABERSHAM RD NW,206,Peachtree Heights West,B,33.84285,-84.39507,
BURGLARY-RESIDENCE,161403167,05/19/2016,1338 DEKALB AVE NE,608,Candler Park,N,33.76154,-84.34375,
BURGLARY-RESIDENCE,161402137,05/19/2016,755 MCDANIEL ST SW,302,Pittsburgh,V,33.73415,-84.40176,
BURGLARY-RESIDENCE,161402722,05/19/2016,251 SILVER SPRINGS CIR SW,405,Florida Heights,I,33.74898,-84.46552,
BURGLARY-RESIDENCE,161401846,05/19/2016,764 CHARLOTTE PL NW,107,Grove Park,J,33.77586,-84.45112,
BURGLARY-RESIDENCE,161392645,05/19/2016,2909 CAMPBELLTON RD SW,409,Southwest,R,33.69869,-84.48265,
